{"type":"FeatureCollection","features":[{"type":"Feature","geometry":{"type":"Point","coordinates":[98.84424549,8.004802099]},"properties":{"name":"จุดชมวิวอ่าวไร่เลย์","Long":"98.844245","Lat":"8.004802","NameT":"จุดชมวิวอ่าวไร่เลย์","NameE":"AO RAI RAY VIEWPOINT"}},{"type":"Feature","geometry":{"type":"Point","coordinates":[99.76103818,7.121009497]},"properties":{"name":"จุดชมวิวบ้านท่าอ้อย","Long":"99.761038","Lat":"7.121009","NameT":"จุดชมวิวบ้านท่าอ้อย","NameE":"BAN THA AOI VIEWPOINT"}},{"type":"Feature","geometry":{"type":"Point","coordinates":[103.0850432,18.05851283]},"properties":{"name":"จุดชมบั้งไฟสวนพญานาค","Long":"103.085043","Lat":"18.058513","NameT":"จุดชมบั้งไฟสวนพญานาค","NameE":"BANG FAI SUAN PHAYANAK VIEWPOINT"}},{"type":"Feature","geometry":{"type":"Point","coordinates":[100.4250855,13.5257002]},"properties":{"name":"จุดชมวิวทะเลกรุงเทพจุดท","Long":"100.425085","Lat":"13.5257","NameT":"จุดชมวิวทะเลกรุงเทพจุดท","NameE":"BANGKOK BEACH VIEWPOINT, POINT 1"}},{"type":"Feature","geometry":{"type":"Point","coordinates":[102.2073865,13.99644584]},"properties":{"name":"จุดดูผีเสื้อ","Long":"102.207387","Lat":"13.996446","NameT":"จุดดูผีเสื้อ","NameE":"BUTTERFLY VIEW POINT"}},{"type":"Feature","geometry":{"type":"Point","coordinates":[102.6165426,16.79722868]},"properties":{"name":"จุดชมวิวช่องเขาขาด","Long":"102.616543","Lat":"16.797229","NameT":"จุดชมวิวช่องเขาขาด","NameE":"CHONG KHAO KHAT VIEWPOINT"}},{"type":"Feature","geometry":{"type":"Point","coordinates":[102.2796579,18.06144585]},"properties":{"name":"จุดชมวิวแดนสยาม","Long":"102.279658","Lat":"18.061446","NameT":"จุดชมวิวแดนสยาม","NameE":"DAN SIAM VIEWPOINT"}},{"type":"Feature","geometry":{"type":"Point","coordinates":[98.59795538,19.35102634]},"properties":{"name":"จุดชมวิวดอยช้าง","Long":"98.597955","Lat":"19.351026","NameT":"จุดชมวิวดอยช้าง","NameE":"DOI CHANG VIEWPOINT"}},{"type":"Feature","geometry":{"type":"Point","coordinates":[98.78839758,16.53189506]},"properties":{"name":"จุดชมวิวดอยเกี๊ยะ","Long":"98.788398","Lat":"16.531895","NameT":"จุดชมวิวดอยเกี๊ยะ","NameE":"DOI KIA VIEWPOINT"}},{"type":"Feature","geometry":{"type":"Point","coordinates":[98.52857154,17.58663777]},"properties":{"name":"จุดชมวิวดอยมูเซอ","Long":"98.528572","Lat":"17.586638","NameT":"จุดชมวิวดอยมูเซอ","NameE":"DOI MUSER VIEWPOINT"}},{"type":"Feature","geometry":{"type":"Point","coordinates":[99.86333076,20.12722853]},"properties":{"name":"จุดชมวิวดอยนางนอน","Long":"99.863331","Lat":"20.127229","NameT":"จุดชมวิวดอยนางนอน","NameE":"DOI NANG NON VIEWPOINT"}},{"type":"Feature","geometry":{"type":"Point","coordinates":[98.89211682,18.81548485]},"properties":{"name":"จุดชมวิวดอยปุย","Long":"98.892117","Lat":"18.815485","NameT":"จุดชมวิวดอยปุย","NameE":"DOI PUI VIEWPOINT"}},{"type":"Feature","geometry":{"type":"Point","coordinates":[99.81984386,20.29059418]},"properties":{"name":"จุดชมวิวดอยตุง","Long":"99.819844","Lat":"20.290594","NameT":"จุดชมวิวดอยตุง","NameE":"DOI TUNG VIEWPOINT"}},{"type":"Feature","geometry":{"type":"Point","coordinates":[98.62393999,19.31677508]},"properties":{"name":"จุดชมวิวห้วยน้ำดัง","Long":"98.62394","Lat":"19.316775","NameT":"จุดชมวิวห้วยน้ำดัง","NameE":"HUAI NAM DANG VIEWPOINT"}},{"type":"Feature","geometry":{"type":"Point","coordinates":[98.40987756,18.50927017]},"properties":{"name":"จุดชมวิวอินทนนท์","Long":"98.409878","Lat":"18.50927","NameT":"จุดชมวิวอินทนนท์","NameE":"INTHANON VIEWPOINT"}},{"type":"Feature","geometry":{"type":"Point","coordinates":[98.29265209,7.857441591]},"properties":{"name":"จุดชมวิวกะรน","Long":"98.292652","Lat":"7.857442","NameT":"จุดชมวิวกะรน","NameE":"KARON VIEWPOINT"}},{"type":"Feature","geometry":{"type":"Point","coordinates":[99.32002324,10.71716427]},"properties":{"name":"จุดชมค่างแว่นถ้ำเขาพลู","Long":"99.320023","Lat":"10.717164","NameT":"จุดชมค่างแว่นถ้ำเขาพลู","NameE":"KHANG WAEN THAM KHAO PHLU POINT"}},{"type":"Feature","geometry":{"type":"Point","coordinates":[99.9565978,12.13337668]},"properties":{"name":"จุดชมวิวเขาแดง","Long":"99.956598","Lat":"12.133377","NameT":"จุดชมวิวเขาแดง","NameE":"KHAO DAENG VIEWPOINT"}},{"type":"Feature","geometry":{"type":"Point","coordinates":[101.3895281,14.18015259]},"properties":{"name":"จุดชมวิวเขาอีโต้","Long":"101.389528","Lat":"14.180153","NameT":"จุดชมวิวเขาอีโต้","NameE":"KHAO I TO VIEWPOINT"}},{"type":"Feature","geometry":{"type":"Point","coordinates":[99.6773975,11.77616996]},"properties":{"name":"จุดชมวิวเขาคันหอก","Long":"99.677397","Lat":"11.77617","NameT":"จุดชมวิวเขาคันหอก","NameE":"KHAO KHAN HOK VIEWPOINT"}},{"type":"Feature","geometry":{"type":"Point","coordinates":[101.4101656,14.36397612]},"properties":{"name":"จุดชมวิวเขาเขียว (ผาเดีย","Long":"101.410166","Lat":"14.363976","NameT":"จุดชมวิวเขาเขียว (ผาเดีย","NameE":"KHAO KHIAO VIEWPOINT (PHA DIAO DAI)"}},{"type":"Feature","geometry":{"type":"Point","coordinates":[98.64041348,9.963748762]},"properties":{"name":"จุดชมวิวเขานิเวศน์","Long":"98.640413","Lat":"9.963749","NameT":"จุดชมวิวเขานิเวศน์","NameE":"KHAO NIWET VIEWPOINT"}},{"type":"Feature","geometry":{"type":"Point","coordinates":[101.4303375,15.82679105]},"properties":{"name":"จุดชมวิวเขาพังเหย","Long":"101.430337","Lat":"15.826791","NameT":"จุดชมวิวเขาพังเหย","NameE":"KHAO PHANG HOEI VIEWPOINT"}},{"type":"Feature","geometry":{"type":"Point","coordinates":[100.0195597,15.37853662]},"properties":{"name":"จุดชมวิวเขาสะแกกรัง","Long":"100.01956","Lat":"15.378537","NameT":"จุดชมวิวเขาสะแกกรัง","NameE":"KHAO SAKAE KRANG VIEWPOINT"}},{"type":"Feature","geometry":{"type":"Point","coordinates":[99.05621485,19.9070193]},"properties":{"name":"จุดชมวิวขอบด้ง","Long":"99.056215","Lat":"19.907019","NameT":"จุดชมวิวขอบด้ง","NameE":"KHOP DONG VIEWPOINT"}},{"type":"Feature","geometry":{"type":"Point","coordinates":[99.88188784,9.121577284]},"properties":{"name":"จุดชมวิวคุ้มผาเมือง","Long":"99.881888","Lat":"9.121577","NameT":"จุดชมวิวคุ้มผาเมือง","NameE":"KHUM PHA MUEANG VIEWPOINT"}},{"type":"Feature","geometry":{"type":"Point","coordinates":[99.16371515,16.11373868]},"properties":{"name":"จุดชมวิวกิ่วกระทิง","Long":"99.163715","Lat":"16.113739","NameT":"จุดชมวิวกิ่วกระทิง","NameE":"KIO KRATHING VIEWPOINT"}},{"type":"Feature","geometry":{"type":"Point","coordinates":[101.3935248,14.47222186]},"properties":{"name":"จุดชมวิวกม. 30","Long":"101.393525","Lat":"14.472222","NameT":"จุดชมวิวกม. 30","NameE":"KM. 30 VIEWPOINT"}},{"type":"Feature","geometry":{"type":"Point","coordinates":[98.7799987,7.740291922]},"properties":{"name":"จุดชมวิวเกาะพีพี","Long":"98.779999","Lat":"7.740292","NameT":"จุดชมวิวเกาะพีพี","NameE":"KO PHI PHI VIEWPOINT"}},{"type":"Feature","geometry":{"type":"Point","coordinates":[99.26599331,10.50726972]},"properties":{"name":"จุดชมวิวแหลมหัวโม่ง - คอก","Long":"99.265993","Lat":"10.50727","NameT":"จุดชมวิวแหลมหัวโม่ง - คอก","NameE":"LAEM HUA MONG-KHO KWANG VIEWPOINT"}},{"type":"Feature","geometry":{"type":"Point","coordinates":[98.40844393,7.803264953]},"properties":{"name":"จุดชมภูมิทัศน์แหลมพันวา","Long":"98.408444","Lat":"7.803265","NameT":"จุดชมภูมิทัศน์แหลมพันวา","NameE":"LAEM PHAN WA VIEWPOINT"}},{"type":"Feature","geometry":{"type":"Point","coordinates":[100.1597014,8.509109335]},"properties":{"name":"จุดชมวิวปลายแหลมตะลุมพุ","Long":"100.159701","Lat":"8.509109","NameT":"จุดชมวิวปลายแหลมตะลุมพุ","NameE":"LAEM TALUMPHUK VIEWPOINT"}},{"type":"Feature","geometry":{"type":"Point","coordinates":[103.4449431,16.60089926]},"properties":{"name":"จุดชมวิวเขื่อนลำปาว","Long":"103.444943","Lat":"16.600899","NameT":"จุดชมวิวเขื่อนลำปาว","NameE":"LAMPAO DAM VIEWPOINT"}},{"type":"Feature","geometry":{"type":"Point","coordinates":[100.0635056,9.496063444]},"properties":{"name":"จุดชมวิวลาดเกาะ","Long":"100.063506","Lat":"9.496063","NameT":"จุดชมวิวลาดเกาะ","NameE":"LAT KO VIEWPOINT"}},{"type":"Feature","geometry":{"type":"Point","coordinates":[98.95935553,16.22801309]},"properties":{"name":"จุดชมวิวถนนลอยฟ้า","Long":"98.959356","Lat":"16.228013","NameT":"จุดชมวิวถนนลอยฟ้า","NameE":"LOI FA RODE VIEWPOINT"}},{"type":"Feature","geometry":{"type":"Point","coordinates":[105.4927338,15.3199011]},"properties":{"name":"จุดชมวิวแม่น้ำสองสี","Long":"105.492734","Lat":"15.319901","NameT":"จุดชมวิวแม่น้ำสองสี","NameE":"MAENAM SONG SI VIEWPOINT"}},{"type":"Feature","geometry":{"type":"Point","coordinates":[99.32777073,15.91628827]},"properties":{"name":"จุดชมวิวมออีหืด","Long":"99.327771","Lat":"15.916288","NameT":"จุดชมวิวมออีหืด","NameE":"MO I HUET VIEWPOINT"}},{"type":"Feature","geometry":{"type":"Point","coordinates":[99.67586866,11.72141496]},"properties":{"name":"จุดชมวิวแคบสุดแผ่นดินสย","Long":"99.675869","Lat":"11.721415","NameT":"จุดชมวิวแคบสุดแผ่นดินสย","NameE":"NARROWEST OF THAILAND VIEWPOINT"}},{"type":"Feature","geometry":{"type":"Point","coordinates":[105.5203292,15.51635741]},"properties":{"name":"จุดชมวิวป่าดงทานาม","Long":"105.520329","Lat":"15.516357","NameT":"จุดชมวิวป่าดงทานาม","NameE":"PA DONG THA NAM VIEWPOINT"}},{"type":"Feature","geometry":{"type":"Point","coordinates":[99.86303748,20.42428976]},"properties":{"name":"จุดชมวิวป่าสัก","Long":"99.863037","Lat":"20.42429","NameT":"จุดชมวิวป่าสัก","NameE":"PA SAK VIEWPOINT"}},{"type":"Feature","geometry":{"type":"Point","coordinates":[101.3957881,14.42814312]},"properties":{"name":"จุดชมวิวน้ำตกผากล้วยไม้","Long":"101.395788","Lat":"14.428143","NameT":"จุดชมวิวน้ำตกผากล้วยไม้","NameE":"PHA KLUAI MAI WATERFALL VIEWPOINT"}},{"type":"Feature","geometry":{"type":"Point","coordinates":[100.5198031,19.93011409]},"properties":{"name":"จุดชมวิวผาตั้ง","Long":"100.519803","Lat":"19.930114","NameT":"จุดชมวิวผาตั้ง","NameE":"PHA TANG VIEWPOINT"}},{"type":"Feature","geometry":{"type":"Point","coordinates":[101.0859375,16.43863511]},"properties":{"name":"จุดชมวิวจังหวัดเพชรบูรณ","Long":"101.085938","Lat":"16.438635","NameT":"จุดชมวิวจังหวัดเพชรบูรณ","NameE":"PHETCHABUN VIEWPOINT"}},{"type":"Feature","geometry":{"type":"Point","coordinates":[100.7539069,18.76800251]},"properties":{"name":"จุดชมวิวพระธาตุเขาน้อย","Long":"100.753907","Lat":"18.768003","NameT":"จุดชมวิวพระธาตุเขาน้อย","NameE":"PHRATHAT KHAO NOI VIEWPOINT"}},{"type":"Feature","geometry":{"type":"Point","coordinates":[100.6905548,12.930555]},"properties":{"name":"จุดดำน้ำเรือหลวงคราม","Long":"100.690555","Lat":"12.930555","NameT":"จุดดำน้ำเรือหลวงคราม","NameE":"RUEA LUANG KHRAM DIVING"}},{"type":"Feature","geometry":{"type":"Point","coordinates":[99.36592826,12.82651807]},"properties":{"name":"จุดชมวิวทะเลหมอก","Long":"99.365928","Lat":"12.826518","NameT":"จุดชมวิวทะเลหมอก","NameE":"SEA OF MIST VIEWPOINT"}},{"type":"Feature","geometry":{"type":"Point","coordinates":[99.71684824,8.774739736]},"properties":{"name":"จุดชมวิวทะเลหมอก","Long":"99.716848","Lat":"8.77474","NameT":"จุดชมวิวทะเลหมอก","NameE":"SEA OF MIST VIEWPOINT"}},{"type":"Feature","geometry":{"type":"Point","coordinates":[99.12887965,14.40488466]},"properties":{"name":"จุดชมวิวเขื่อนศรีนครินท","Long":"99.12888","Lat":"14.404885","NameT":"จุดชมวิวเขื่อนศรีนครินท","NameE":"SRINAGARINDRA DAM VIEWPOINT"}},{"type":"Feature","geometry":{"type":"Point","coordinates":[99.53145578,6.830947473]},"properties":{"name":"จุดชมวิวพระอาทิตย์ตก","Long":"99.531456","Lat":"6.830947","NameT":"จุดชมวิวพระอาทิตย์ตก","NameE":"SUNSET VIEWPOINT"}},{"type":"Feature","geometry":{"type":"Point","coordinates":[99.78752019,7.57252966]},"properties":{"name":"จุดชมทิวทัศน์","Long":"99.78752","Lat":"7.57253","NameT":"จุดชมทิวทัศน์","NameE":"VIEW POINT"}},{"type":"Feature","geometry":{"type":"Point","coordinates":[102.9454041,14.53879723]},"properties":{"name":"จุดชมวิว","Long":"102.945404","Lat":"14.538797","NameT":"จุดชมวิว","NameE":"VIEWPOINT"}},{"type":"Feature","geometry":{"type":"Point","coordinates":[97.9944915,19.16823933]},"properties":{"name":"จุดชมวิว","Long":"97.994491","Lat":"19.168239","NameT":"จุดชมวิว","NameE":"VIEWPOINT"}},{"type":"Feature","geometry":{"type":"Point","coordinates":[98.62290834,14.99934011]},"properties":{"name":"จุดชมวิว","Long":"98.622908","Lat":"14.99934","NameT":"จุดชมวิว","NameE":"VIEWPOINT"}},{"type":"Feature","geometry":{"type":"Point","coordinates":[101.2376597,14.58786214]},"properties":{"name":"จุดชมวิว","Long":"101.23766","Lat":"14.587862","NameT":"จุดชมวิว","NameE":"VIEWPOINT"}},{"type":"Feature","geometry":{"type":"Point","coordinates":[99.99287316,9.48394106]},"properties":{"name":"จุดชมวิว","Long":"99.992873","Lat":"9.483941","NameT":"จุดชมวิว","NameE":"VIEWPOINT"}},{"type":"Feature","geometry":{"type":"Point","coordinates":[98.91809375,8.11796013]},"properties":{"name":"จุดชมวิว","Long":"98.918094","Lat":"8.11796","NameT":"จุดชมวิว","NameE":"VIEWPOINT"}},{"type":"Feature","geometry":{"type":"Point","coordinates":[98.50879806,15.13067832]},"properties":{"name":"จุดชมวิว","Long":"98.508798","Lat":"15.130678","NameT":"จุดชมวิว","NameE":"VIEWPOINT"}},{"type":"Feature","geometry":{"type":"Point","coordinates":[99.75376579,6.835311313]},"properties":{"name":"จุดชมวิว","Long":"99.753766","Lat":"6.835311","NameT":"จุดชมวิว","NameE":"VIEWPOINT"}},{"type":"Feature","geometry":{"type":"Point","coordinates":[100.4108124,16.83415412]},"properties":{"name":"จุดชมวิว","Long":"100.410812","Lat":"16.834154","NameT":"จุดชมวิว","NameE":"VIEWPOINT"}},{"type":"Feature","geometry":{"type":"Point","coordinates":[98.86067426,8.782619428]},"properties":{"name":"จุดชมวิว","Long":"98.860674","Lat":"8.782619","NameT":"จุดชมวิว","NameE":"VIEWPOINT"}},{"type":"Feature","geometry":{"type":"Point","coordinates":[99.58542033,7.099245316]},"properties":{"name":"จุดชมวิว","Long":"99.58542","Lat":"7.099245","NameT":"จุดชมวิว","NameE":"VIEWPOINT"}},{"type":"Feature","geometry":{"type":"Point","coordinates":[100.369179,20.34865664]},"properties":{"name":"จุดชมวิว","Long":"100.369179","Lat":"20.348657","NameT":"จุดชมวิว","NameE":"VIEWPOINT"}},{"type":"Feature","geometry":{"type":"Point","coordinates":[98.48727488,18.5465161]},"properties":{"name":"จุดชมวิว","Long":"98.487275","Lat":"18.546516","NameT":"จุดชมวิว","NameE":"VIEWPOINT"}},{"type":"Feature","geometry":{"type":"Point","coordinates":[100.2373236,7.438663348]},"properties":{"name":"จุดชมวิว","Long":"100.237324","Lat":"7.438663","NameT":"จุดชมวิว","NameE":"VIEWPOINT"}},{"type":"Feature","geometry":{"type":"Point","coordinates":[100.1624935,18.67820011]},"properties":{"name":"จุดชมวิว","Long":"100.162494","Lat":"18.6782","NameT":"จุดชมวิว","NameE":"VIEWPOINT"}},{"type":"Feature","geometry":{"type":"Point","coordinates":[98.46123612,14.68852139]},"properties":{"name":"จุดชมวิว","Long":"98.461236","Lat":"14.688521","NameT":"จุดชมวิว","NameE":"VIEWPOINT"}},{"type":"Feature","geometry":{"type":"Point","coordinates":[102.4651446,17.22768325]},"properties":{"name":"จุดชมวิว","Long":"102.465145","Lat":"17.227683","NameT":"จุดชมวิว","NameE":"VIEWPOINT"}},{"type":"Feature","geometry":{"type":"Point","coordinates":[101.7759069,17.0546015]},"properties":{"name":"จุดชมวิว","Long":"101.775907","Lat":"17.054602","NameT":"จุดชมวิว","NameE":"VIEWPOINT"}},{"type":"Feature","geometry":{"type":"Point","coordinates":[99.0406602,19.80103023]},"properties":{"name":"จุดชมวิว","Long":"99.04066","Lat":"19.80103","NameT":"จุดชมวิว","NameE":"VIEWPOINT"}},{"type":"Feature","geometry":{"type":"Point","coordinates":[100.8366159,18.36711366]},"properties":{"name":"จุดชมวิว","Long":"100.836616","Lat":"18.367114","NameT":"จุดชมวิว","NameE":"VIEWPOINT"}},{"type":"Feature","geometry":{"type":"Point","coordinates":[100.4088495,20.27449953]},"properties":{"name":"จุดชมวิว","Long":"100.40885","Lat":"20.2745","NameT":"จุดชมวิว","NameE":"VIEWPOINT"}},{"type":"Feature","geometry":{"type":"Point","coordinates":[99.81949059,20.30596038]},"properties":{"name":"จุดชมวิว","Long":"99.819491","Lat":"20.30596","NameT":"จุดชมวิว","NameE":"VIEWPOINT"}},{"type":"Feature","geometry":{"type":"Point","coordinates":[100.5625632,18.17548374]},"properties":{"name":"จุดชมวิว","Long":"100.562563","Lat":"18.175484","NameT":"จุดชมวิว","NameE":"VIEWPOINT"}},{"type":"Feature","geometry":{"type":"Point","coordinates":[102.2646668,14.07658204]},"properties":{"name":"จุดชมวิว","Long":"102.264667","Lat":"14.076582","NameT":"จุดชมวิว","NameE":"VIEWPOINT"}},{"type":"Feature","geometry":{"type":"Point","coordinates":[98.15698013,19.55896822]},"properties":{"name":"จุดชมวิว","Long":"98.15698","Lat":"19.558968","NameT":"จุดชมวิว","NameE":"VIEWPOINT"}},{"type":"Feature","geometry":{"type":"Point","coordinates":[99.24182192,10.35079795]},"properties":{"name":"จุดชมวิว","Long":"99.241822","Lat":"10.350798","NameT":"จุดชมวิว","NameE":"VIEWPOINT"}},{"type":"Feature","geometry":{"type":"Point","coordinates":[98.93628915,18.79004902]},"properties":{"name":"จุดชมวิวศาลาเฉลิมพระเกี","Long":"98.936289","Lat":"18.790049","NameT":"จุดชมวิวศาลาเฉลิมพระเกี","NameE":"VIEWPOINT CHALOEM PHRAKIAT HALL"}},{"type":"Feature","geometry":{"type":"Point","coordinates":[101.4052028,14.42965649]},"properties":{"name":"ผากล้วยไม้","Long":"101.405203","Lat":"14.429656","NameT":"ผากล้วยไม้","NameE":"PHA KLUAI MAI"}},{"type":"Feature","geometry":{"type":"Point","coordinates":[105.6206051,15.62867602]},"properties":{"name":"ผากำปั่น","Long":"105.620605","Lat":"15.628676","NameT":"ผากำปั่น","NameE":"PHA KAM PHUN"}},{"type":"Feature","geometry":{"type":"Point","coordinates":[101.893318,16.00085952]},"properties":{"name":"ผาเกิ้ง","Long":"101.893318","Lat":"16.00086","NameT":"ผาเกิ้ง","NameE":"PHA KOENG"}},{"type":"Feature","geometry":{"type":"Point","coordinates":[99.24816582,17.92642246]},"properties":{"name":"ผาข้าง","Long":"99.248166","Lat":"17.926422","NameT":"ผาข้าง","NameE":"PHA KHANG"}},{"type":"Feature","geometry":{"type":"Point","coordinates":[100.7029219,19.13344021]},"properties":{"name":"ผาจ้อง","Long":"100.702922","Lat":"19.13344","NameT":"ผาจ้อง","NameE":"PHA CHONG"}},{"type":"Feature","geometry":{"type":"Point","coordinates":[105.6213383,15.61921194]},"properties":{"name":"ผาชนะได","Long":"105.621338","Lat":"15.619212","NameT":"ผาชนะได","NameE":"PHA CHANADAI"}},{"type":"Feature","geometry":{"type":"Point","coordinates":[105.4955575,15.75826489]},"properties":{"name":"ผาชัน","Long":"105.495558","Lat":"15.758265","NameT":"ผาชัน","NameE":"PHA CHAN"}},{"type":"Feature","geometry":{"type":"Point","coordinates":[100.8425667,18.36732393]},"properties":{"name":"ผาชู้","Long":"100.842567","Lat":"18.367324","NameT":"ผาชู้","NameE":"PHA CHU"}},{"type":"Feature","geometry":{"type":"Point","coordinates":[103.4617375,17.25472759]},"properties":{"name":"ผาดงก่อ","Long":"103.461738","Lat":"17.254728","NameT":"ผาดงก่อ","NameE":"PHA DONG KO"}},{"type":"Feature","geometry":{"type":"Point","coordinates":[101.7517005,16.856177]},"properties":{"name":"ผาแดง","Long":"101.751701","Lat":"16.856177","NameT":"ผาแดง","NameE":"PHA DAENG"}},{"type":"Feature","geometry":{"type":"Point","coordinates":[98.73940923,17.68383053]},"properties":{"name":"ผาเต่า","Long":"98.739409","Lat":"17.683831","NameT":"ผาเต่า","NameE":"PHA TAO"}},{"type":"Feature","geometry":{"type":"Point","coordinates":[105.512756,15.39603826]},"properties":{"name":"ผาแต้ม","Long":"105.512756","Lat":"15.396038","NameT":"ผาแต้ม","NameE":"PHA TAEM"}},{"type":"Feature","geometry":{"type":"Point","coordinates":[99.70055928,7.581761941]},"properties":{"name":"ผ้าทอนาหมื่นศรี","Long":"99.700559","Lat":"7.581762","NameT":"ผ้าทอนาหมื่นศรี","NameE":"NA MUEN SI WEAVE CLOTH"}},{"type":"Feature","geometry":{"type":"Point","coordinates":[101.9542203,16.84194609]},"properties":{"name":"ผานกเค้า","Long":"101.95422","Lat":"16.841946","NameT":"ผานกเค้า","NameE":"PHA NOK KHAO"}},{"type":"Feature","geometry":{"type":"Point","coordinates":[101.8035275,16.89153361]},"properties":{"name":"ผานกแอ่น","Long":"101.803528","Lat":"16.891534","NameT":"ผานกแอ่น","NameE":"PHA NOK EAN"}},{"type":"Feature","geometry":{"type":"Point","coordinates":[103.9701502,17.05685064]},"properties":{"name":"ผานางเมินและลานสาวเอ้","Long":"103.97015","Lat":"17.056851","NameT":"ผานางเมินและลานสาวเอ้","NameE":"PHA NANG MOEN AND LAN SAO E"}},{"type":"Feature","geometry":{"type":"Point","coordinates":[101.1607414,14.50517908]},"properties":{"name":"ผานางอาย","Long":"101.160741","Lat":"14.505179","NameT":"ผานางอาย","NameE":"PHA NANG AI"}},{"type":"Feature","geometry":{"type":"Point","coordinates":[101.7824544,16.86279299]},"properties":{"name":"ผานาน้อย","Long":"101.782454","Lat":"16.862793","NameT":"ผานาน้อย","NameE":"PHA NA NOI"}},{"type":"Feature","geometry":{"type":"Point","coordinates":[103.8708242,16.45677355]},"properties":{"name":"ผาน้ำจ้าก","Long":"103.870824","Lat":"16.456774","NameT":"ผาน้ำจ้าก","NameE":"PHA NAM CHAK"}},{"type":"Feature","geometry":{"type":"Point","coordinates":[98.73491611,17.67842161]},"properties":{"name":"ผาผางประทีป","Long":"98.734916","Lat":"17.678422","NameT":"ผาผางประทีป","NameE":"PHA PHANG PRATHIP"}},{"type":"Feature","geometry":{"type":"Point","coordinates":[98.69429672,17.65528451]},"properties":{"name":"ผาผึ้ง","Long":"98.694297","Lat":"17.655285","NameT":"ผาผึ้ง","NameE":"PHA PHUENG"}},{"type":"Feature","geometry":{"type":"Point","coordinates":[98.72648066,17.67833458]},"properties":{"name":"ผาพระนอน","Long":"98.726481","Lat":"17.678335","NameT":"ผาพระนอน","NameE":"PHA PHRA NON"}},{"type":"Feature","geometry":{"type":"Point","coordinates":[101.4227982,15.77540069]},"properties":{"name":"ผาพ่อเมือง","Long":"101.422798","Lat":"15.775401","NameT":"ผาพ่อเมือง","NameE":"PHA PHO MUEANG"}},{"type":"Feature","geometry":{"type":"Point","coordinates":[104.0276316,17.36236841]},"properties":{"name":"ผามอดินแดง","Long":"104.027632","Lat":"17.362368","NameT":"ผามอดินแดง","NameE":"PHA MO DIN DAENG"}},{"type":"Feature","geometry":{"type":"Point","coordinates":[104.6874382,14.39502791]},"properties":{"name":"ผามออีแดง","Long":"104.687438","Lat":"14.395028","NameT":"ผามออีแดง","NameE":"PHA MO E DAENG"}},{"type":"Feature","geometry":{"type":"Point","coordinates":[98.70788634,17.55276863]},"properties":{"name":"ผามุย (ผาค้อน)","Long":"98.707886","Lat":"17.552769","NameT":"ผามุย (ผาค้อน)","NameE":"PHA MUI (PHA KHON)"}},{"type":"Feature","geometry":{"type":"Point","coordinates":[98.70103451,17.5793584]},"properties":{"name":"ผาแมว","Long":"98.701035","Lat":"17.579358","NameT":"ผาแมว","NameE":"PHA MAEO"}},{"type":"Feature","geometry":{"type":"Point","coordinates":[98.45840251,18.52423727]},"properties":{"name":"ผาสำราญ","Long":"98.458403","Lat":"18.524237","NameT":"ผาสำราญ","NameE":"PHA SAMRAN"}},{"type":"Feature","geometry":{"type":"Point","coordinates":[105.522909,15.40150519]},"properties":{"name":"ผาหมอน","Long":"105.522909","Lat":"15.401505","NameT":"ผาหมอน","NameE":"PHA MON"}},{"type":"Feature","geometry":{"type":"Point","coordinates":[101.7936219,16.86410989]},"properties":{"name":"ผาหมากดูก","Long":"101.793622","Lat":"16.86411","NameT":"ผาหมากดูก","NameE":"PHA MAK DUK"}},{"type":"Feature","geometry":{"type":"Point","coordinates":[101.7301458,16.85832191]},"properties":{"name":"ผาหล่มสัก","Long":"101.730146","Lat":"16.858322","NameT":"ผาหล่มสัก","NameE":"PHA LOM SAK"}},{"type":"Feature","geometry":{"type":"Point","coordinates":[100.8318471,18.37124215]},"properties":{"name":"ผาหัวสิงห์","Long":"100.831847","Lat":"18.371242","NameT":"ผาหัวสิงห์","NameE":"PHA HUA SING"}},{"type":"Feature","geometry":{"type":"Point","coordinates":[103.8734165,16.45722335]},"properties":{"name":"ผาหำหด","Long":"103.873417","Lat":"16.457223","NameT":"ผาหำหด","NameE":"PHA HAM HOT"}},{"type":"Feature","geometry":{"type":"Point","coordinates":[105.6254074,15.63115613]},"properties":{"name":"ผาหินแตก","Long":"105.625407","Lat":"15.631156","NameT":"ผาหินแตก","NameE":"PHA HON TAEK"}},{"type":"Feature","geometry":{"type":"Point","coordinates":[101.7691527,16.85910994]},"properties":{"name":"ผาเหยียบเมฆ","Long":"101.769153","Lat":"16.85911","NameT":"ผาเหยียบเมฆ","NameE":"PHA YIAP MEK"}},{"type":"Feature","geometry":{"type":"Point","coordinates":[102.6260721,16.09265282]},"properties":{"name":"ผ้าไหมชนบท","Long":"102.626072","Lat":"16.092653","NameT":"ผ้าไหมชนบท","NameE":"CHONNABOT VILLAGE SILK"}},{"type":"Feature","geometry":{"type":"Point","coordinates":[99.19033516,14.34177961]},"properties":{"name":"ผาเอื้อง","Long":"99.190335","Lat":"14.34178","NameT":"ผาเอื้อง","NameE":"PHA UEANG"}}]}