{"type":"FeatureCollection","features":[{"type":"Feature","geometry":{"type":"Point","coordinates":[104.3667,14.75]},"properties":{"name":"หนองไพรบึง","Long":"104.3667","Lat":"14.75","NameT":"หนองไพรบึง"}},{"type":"Feature","geometry":{"type":"Point","coordinates":[99.81887,19.36414]},"properties":{"name":"หนองเล็งทราย","Long":"99.81887","Lat":"19.36414","NameT":"หนองเล็งทราย"}},{"type":"Feature","geometry":{"type":"Point","coordinates":[104.4833,15.6833]},"properties":{"name":"หนองสามขา","Long":"104.4833","Lat":"15.6833","NameT":"หนองสามขา"}},{"type":"Feature","geometry":{"type":"Point","coordinates":[104.1667,17.2167]},"properties":{"name":"หนองหาน","Long":"104.1667","Lat":"17.2167","NameT":"หนองหาน"}},{"type":"Feature","geometry":{"type":"Point","coordinates":[98.62333,19.3186]},"properties":{"name":"ห้วยน้ำดัง","Long":"98.62333","Lat":"19.3186","NameT":"ห้วยน้ำดัง"}},{"type":"Feature","geometry":{"type":"Point","coordinates":[102.1833,14.2167]},"properties":{"name":"บึงกระโทก","Long":"102.1833","Lat":"14.2167","NameT":"บึงกระโทก"}},{"type":"Feature","geometry":{"type":"Point","coordinates":[104.0273,17.98111]},"properties":{"name":"บึงโขลงหลง","Long":"104.0273","Lat":"17.98111","NameT":"บึงโขลงหลง"}},{"type":"Feature","geometry":{"type":"Point","coordinates":[104.01847,16.02236]},"properties":{"name":"บึงทะเลเกลืออิสาน","Long":"104.01847","Lat":"16.02236","NameT":"บึงทะเลเกลืออิสาน"}},{"type":"Feature","geometry":{"type":"Point","coordinates":[100.18019,15.71199]},"properties":{"name":"บึงบอระเพ็ด","Long":"100.18019","Lat":"15.71199","NameT":"บึงบอระเพ็ด"}},{"type":"Feature","geometry":{"type":"Point","coordinates":[100.5667,14.35]},"properties":{"name":"บึงพระราม","Long":"100.5667","Lat":"14.35","NameT":"บึงพระราม"}},{"type":"Feature","geometry":{"type":"Point","coordinates":[100.34313,16.42611]},"properties":{"name":"บึงสีไฟ","Long":"100.34313","Lat":"16.42611","NameT":"บึงสีไฟ"}},{"type":"Feature","geometry":{"type":"Point","coordinates":[104.7167,16.9333]},"properties":{"name":"บึงใหญ่","Long":"104.7167","Lat":"16.9333","NameT":"บึงใหญ่"}},{"type":"Feature","geometry":{"type":"Point","coordinates":[99.67529,6.54188]},"properties":{"name":"ลากูนที่อ่าวตะโล๊ะอุดัง","Long":"99.67529","Lat":"6.54188","NameT":"ลากูนที่อ่าวตะโล๊ะอุดัง"}},{"type":"Feature","geometry":{"type":"Point","coordinates":[101.42686,13.86356]},"properties":{"name":"สระมรกต","Long":"101.42686","Lat":"13.86356","NameT":"สระมรกต"}},{"type":"Feature","geometry":{"type":"Point","coordinates":[101.76061,16.87656]},"properties":{"name":"สระอโนดาต","Long":"101.76061","Lat":"16.87656","NameT":"สระอโนดาต"}},{"type":"Feature","geometry":{"type":"Point","coordinates":[99.89608,19.16792]},"properties":{"name":"กว๊านพะเยา","Long":"99.89608","Lat":"19.16792","NameT":"กว๊านพะเยา"}},{"type":"Feature","geometry":{"type":"Point","coordinates":[102.8418952,16.41180597]},"properties":{"name":"บึงแก่นนคร","Long":"102.841895","Lat":"16.411806","NameT":"บึงแก่นนคร","NameE":"BUENG KAEN NAKHON"}},{"type":"Feature","geometry":{"type":"Point","coordinates":[99.33447849,9.068629798]},"properties":{"name":"บึงขุนทะเล","Long":"99.334478","Lat":"9.06863","NameT":"บึงขุนทะเล","NameE":"BUENG KHUN THALE"}},{"type":"Feature","geometry":{"type":"Point","coordinates":[100.1712742,6.709157352]},"properties":{"name":"บึงทะเลบัน","Long":"100.171274","Lat":"6.709157","NameT":"บึงทะเลบัน","NameE":"BUENG THALE BAN"}},{"type":"Feature","geometry":{"type":"Point","coordinates":[100.1293628,17.48062032]},"properties":{"name":"บึงทับกระดาน","Long":"100.129363","Lat":"17.48062","NameT":"บึงทับกระดาน","NameE":"BUENG THAP KRADAN"}},{"type":"Feature","geometry":{"type":"Point","coordinates":[100.0456886,15.31521795]},"properties":{"name":"บึงทับแต้","Long":"100.045689","Lat":"15.315218","NameT":"บึงทับแต้","NameE":"BUENG THAP TAE"}},{"type":"Feature","geometry":{"type":"Point","coordinates":[104.3639003,14.76067036]},"properties":{"name":"บึงนกเป็ดน้ำไพรบึง","Long":"104.3639","Lat":"14.76067","NameT":"บึงนกเป็ดน้ำไพรบึง","NameE":"BUENG NOK PET NAM PHRAI BUENG"}},{"type":"Feature","geometry":{"type":"Point","coordinates":[103.0660815,16.25494345]},"properties":{"name":"บึงบอน","Long":"103.066082","Lat":"16.254943","NameT":"บึงบอน","NameE":"BUENG BON"}},{"type":"Feature","geometry":{"type":"Point","coordinates":[100.1831859,15.71073158]},"properties":{"name":"บึงบอระเพ็ด","Long":"100.183186","Lat":"15.710732","NameT":"บึงบอระเพ็ด","NameE":"BUENG BORAPHET"}},{"type":"Feature","geometry":{"type":"Point","coordinates":[103.6550804,16.05661893]},"properties":{"name":"บึงพลาญชัย","Long":"103.65508","Lat":"16.056619","NameT":"บึงพลาญชัย","NameE":"BUENG PHLAN CHAI"}},{"type":"Feature","geometry":{"type":"Point","coordinates":[101.7880098,13.77316625]},"properties":{"name":"บึงเพชรกระจ่างรีสอร์ทแอ","Long":"101.78801","Lat":"13.773166","NameT":"บึงเพชรกระจ่างรีสอร์ทแอ","NameE":"BUENG PHET KRACHANG RESORT & FISHING PARK"}},{"type":"Feature","geometry":{"type":"Point","coordinates":[100.1030876,14.75772655]},"properties":{"name":"บึงระหาร","Long":"100.103088","Lat":"14.757727","NameT":"บึงระหาร","NameE":"BUENG RAHAN"}},{"type":"Feature","geometry":{"type":"Point","coordinates":[101.8919591,15.61427683]},"properties":{"name":"บึงละหาน","Long":"101.891959","Lat":"15.614277","NameT":"บึงละหาน","NameE":"BUENG LAHAN"}},{"type":"Feature","geometry":{"type":"Point","coordinates":[100.8124832,14.58719391]},"properties":{"name":"บึงวัดเพชร","Long":"100.812483","Lat":"14.587194","NameT":"บึงวัดเพชร","NameE":"BUENG WAT PHET"}},{"type":"Feature","geometry":{"type":"Point","coordinates":[103.6678016,18.34600171]},"properties":{"name":"บึงสวรรค์รีสอร์ท","Long":"103.667802","Lat":"18.346002","NameT":"บึงสวรรค์รีสอร์ท","NameE":"BUENG SAWAN RESORT"}},{"type":"Feature","geometry":{"type":"Point","coordinates":[101.0459369,15.77304816]},"properties":{"name":"บึงสามพัน","Long":"101.045937","Lat":"15.773048","NameT":"บึงสามพัน","NameE":"BUENG SAM PHAN"}},{"type":"Feature","geometry":{"type":"Point","coordinates":[100.3391576,16.41917286]},"properties":{"name":"บึงสีไฟ","Long":"100.339158","Lat":"16.419173","NameT":"บึงสีไฟ","NameE":"BUENG SI FAI"}},{"type":"Feature","geometry":{"type":"Point","coordinates":[100.0957246,14.66439588]},"properties":{"name":"บึงหนองจอก","Long":"100.095725","Lat":"14.664396","NameT":"บึงหนองจอก","NameE":"BUENG NONG CHOK"}}]}