{"type":"FeatureCollection","features":[{"type":"Feature","geometry":{"type":"Point","coordinates":[105.6244041,15.63780495]},"properties":{"name":"น้ำตกกวงโตน","Long":"105.624404","Lat":"15.637805","NameT":"น้ำตกกวงโตน","NameE":"KUANG TON WATERFALL"}},{"type":"Feature","geometry":{"type":"Point","coordinates":[105.6163178,15.62291898]},"properties":{"name":"น้ำตกห้วยพอก","Long":"105.616318","Lat":"15.622919","NameT":"น้ำตกห้วยพอก","NameE":"HUAI PHOK WATERFALL"}},{"type":"Feature","geometry":{"type":"Point","coordinates":[105.5995475,15.53235056]},"properties":{"name":"น้ำตกทุ่งนาเมือง","Long":"105.599548","Lat":"15.532351","NameT":"น้ำตกทุ่งนาเมือง","NameE":"THUNG NA MUEANG WATERFALL"}},{"type":"Feature","geometry":{"type":"Point","coordinates":[105.5937632,15.51433425]},"properties":{"name":"น้ำตกแสงจันทร์ (น้ำตกลงร","Long":"105.593763","Lat":"15.514334","NameT":"น้ำตกแสงจันทร์ (น้ำตกลงร","NameE":"SAENG CHAN WATERFALL (LONG RU WATERFALL)"}},{"type":"Feature","geometry":{"type":"Point","coordinates":[105.5857757,15.61718241]},"properties":{"name":"น้ำตกชะปัน","Long":"105.585776","Lat":"15.617182","NameT":"น้ำตกชะปัน","NameE":"CHA PAN WATERFALL"}},{"type":"Feature","geometry":{"type":"Point","coordinates":[105.5821423,15.4583335]},"properties":{"name":"น้ำตกสร้อยสวรรค์","Long":"105.582142","Lat":"15.458334","NameT":"น้ำตกสร้อยสวรรค์","NameE":"SOI SAWAN WATERFALL"}},{"type":"Feature","geometry":{"type":"Point","coordinates":[105.5814933,15.60433813]},"properties":{"name":"น้ำตกกิ้ต","Long":"105.581493","Lat":"15.604338","NameT":"น้ำตกกิ้ต","NameE":"KIT WATERFALL"}},{"type":"Feature","geometry":{"type":"Point","coordinates":[105.5082899,14.91689491]},"properties":{"name":"น้ำตกห้วยทรายใหญ่","Long":"105.50829","Lat":"14.916895","NameT":"น้ำตกห้วยทรายใหญ่","NameE":"HUAI SAI YAI WATERFALL"}},{"type":"Feature","geometry":{"type":"Point","coordinates":[105.4819762,15.25161602]},"properties":{"name":"น้ำตกตาดโตน","Long":"105.481976","Lat":"15.251616","NameT":"น้ำตกตาดโตน","NameE":"TAT TON WATERFALL"}},{"type":"Feature","geometry":{"type":"Point","coordinates":[105.4049917,15.33522545]},"properties":{"name":"น้ำตกแซหัวแมว","Long":"105.404992","Lat":"15.335225","NameT":"น้ำตกแซหัวแมว","NameE":"SAE HUA MAEO WATERFALL"}},{"type":"Feature","geometry":{"type":"Point","coordinates":[105.3825,15.60753]},"properties":{"name":"น้ำตกผาหลวง","Long":"105.3825","Lat":"15.60753","NameT":"น้ำตกผาหลวง"}},{"type":"Feature","geometry":{"type":"Point","coordinates":[105.3825,15.60753]},"properties":{"name":"น้ำตกผาหลวง","Long":"105.3825","Lat":"15.60753","NameT":"น้ำตกผาหลวง"}},{"type":"Feature","geometry":{"type":"Point","coordinates":[105.2782083,14.43991074]},"properties":{"name":"น้ำตกถ้ำบักเตว,น้ำตกห้วย","Long":"105.278208","Lat":"14.439911","NameT":"น้ำตกถ้ำบักเตว,น้ำตกห้วย","NameE":"THAM BAK TEO WATERFALL, HUAI LUANG WATERFALL"}},{"type":"Feature","geometry":{"type":"Point","coordinates":[104.9265106,14.44826211]},"properties":{"name":"น้ำตกตาดไฮ","Long":"104.926511","Lat":"14.448262","NameT":"น้ำตกตาดไฮ","NameE":"TAT HAI WATERFALL"}},{"type":"Feature","geometry":{"type":"Point","coordinates":[104.79159,15.89918]},"properties":{"name":"น้ำตกธิดาเทพ","Long":"104.79159","Lat":"15.89918","NameT":"น้ำตกธิดาเทพ"}},{"type":"Feature","geometry":{"type":"Point","coordinates":[104.79159,15.89918]},"properties":{"name":"น้ำตกธิดาเทพ","Long":"104.79159","Lat":"15.89918","NameT":"น้ำตกธิดาเทพ"}},{"type":"Feature","geometry":{"type":"Point","coordinates":[104.6859507,14.41860536]},"properties":{"name":"น้ำตกตานี","Long":"104.685951","Lat":"14.418605","NameT":"น้ำตกตานี","NameE":"TANI WATERFALL"}},{"type":"Feature","geometry":{"type":"Point","coordinates":[104.6578829,14.45211172]},"properties":{"name":"น้ำตกภูมิละออง","Long":"104.657883","Lat":"14.452112","NameT":"น้ำตกภูมิละออง","NameE":"PHUM LAONG WATERFALL"}},{"type":"Feature","geometry":{"type":"Point","coordinates":[104.65501,14.45468]},"properties":{"name":"น้ำตกภูละออ","Long":"104.65501","Lat":"14.45468","NameT":"น้ำตกภูละออ"}},{"type":"Feature","geometry":{"type":"Point","coordinates":[104.65501,14.45468]},"properties":{"name":"น้ำตกภูละออ","Long":"104.65501","Lat":"14.45468","NameT":"น้ำตกภูละออ"}},{"type":"Feature","geometry":{"type":"Point","coordinates":[104.4986281,14.44096009]},"properties":{"name":"น้ำตกวังใหญ่","Long":"104.498628","Lat":"14.44096","NameT":"น้ำตกวังใหญ่","NameE":"WANG YAI WATERFALL"}},{"type":"Feature","geometry":{"type":"Point","coordinates":[104.49432,14.44383]},"properties":{"name":"น้ำตกวังใหญ่","Long":"104.49432","Lat":"14.44383","NameT":"น้ำตกวังใหญ่"}},{"type":"Feature","geometry":{"type":"Point","coordinates":[104.49432,14.44383]},"properties":{"name":"น้ำตกวังใหญ่","Long":"104.49432","Lat":"14.44383","NameT":"น้ำตกวังใหญ่"}},{"type":"Feature","geometry":{"type":"Point","coordinates":[104.4896314,14.50815713]},"properties":{"name":"น้ำตกสำโรงเกียรติ","Long":"104.489631","Lat":"14.508157","NameT":"น้ำตกสำโรงเกียรติ","NameE":"SAMRONG KIAT WATERFALL"}},{"type":"Feature","geometry":{"type":"Point","coordinates":[104.48609,14.50988]},"properties":{"name":"น้ำตกสำโรงเกียรติ","Long":"104.48609","Lat":"14.50988","NameT":"น้ำตกสำโรงเกียรติ"}},{"type":"Feature","geometry":{"type":"Point","coordinates":[104.48609,14.50988]},"properties":{"name":"น้ำตกสำโรงเกียรติ","Long":"104.48609","Lat":"14.50988","NameT":"น้ำตกสำโรงเกียรติ"}},{"type":"Feature","geometry":{"type":"Point","coordinates":[104.3622885,14.53164086]},"properties":{"name":"น้ำตกห้วยจันทร์","Long":"104.362289","Lat":"14.531641","NameT":"น้ำตกห้วยจันทร์","NameE":"HUAI CHAN WATERFALL"}},{"type":"Feature","geometry":{"type":"Point","coordinates":[104.35879,14.53147]},"properties":{"name":"น้ำตกห้วยจันทร์","Long":"104.35879","Lat":"14.53147","NameT":"น้ำตกห้วยจันทร์"}},{"type":"Feature","geometry":{"type":"Point","coordinates":[104.35879,14.53147]},"properties":{"name":"น้ำตกห้วยจันทร์","Long":"104.35879","Lat":"14.53147","NameT":"น้ำตกห้วยจันทร์"}},{"type":"Feature","geometry":{"type":"Point","coordinates":[104.3547588,16.74235484]},"properties":{"name":"น้ำตกห้วยเลา","Long":"104.354759","Lat":"16.742355","NameT":"น้ำตกห้วยเลา","NameE":"HUAI LAO WATERFALL"}},{"type":"Feature","geometry":{"type":"Point","coordinates":[104.34071,14.53181]},"properties":{"name":"น้ำตกชำไทร","Long":"104.34071","Lat":"14.53181","NameT":"น้ำตกชำไทร"}},{"type":"Feature","geometry":{"type":"Point","coordinates":[104.34071,14.53181]},"properties":{"name":"น้ำตกชำไทร","Long":"104.34071","Lat":"14.53181","NameT":"น้ำตกชำไทร"}},{"type":"Feature","geometry":{"type":"Point","coordinates":[104.3170294,16.49307874]},"properties":{"name":"น้ำตกตาดโตน","Long":"104.317029","Lat":"16.493079","NameT":"น้ำตกตาดโตน","NameE":"TAT TON WATERFALL"}},{"type":"Feature","geometry":{"type":"Point","coordinates":[104.3167,16.4833]},"properties":{"name":"น้ำตกตาดโตน","Long":"104.3167","Lat":"16.4833","NameT":"น้ำตกตาดโตน"}},{"type":"Feature","geometry":{"type":"Point","coordinates":[104.3167,16.4833]},"properties":{"name":"น้ำตกตาดโตน","Long":"104.3167","Lat":"16.4833","NameT":"น้ำตกตาดโตน"}},{"type":"Feature","geometry":{"type":"Point","coordinates":[104.303732,16.3370299]},"properties":{"name":"น้ำตกตาดทิพย์","Long":"104.303732","Lat":"16.33703","NameT":"น้ำตกตาดทิพย์","NameE":"TAT THIP WATERFALL"}},{"type":"Feature","geometry":{"type":"Point","coordinates":[104.2629759,16.75321105]},"properties":{"name":"น้ำตกแก่งไทร","Long":"104.262976","Lat":"16.753211","NameT":"น้ำตกแก่งไทร","NameE":"KAENG SAI WATERFALL"}},{"type":"Feature","geometry":{"type":"Point","coordinates":[104.2451321,16.75618498]},"properties":{"name":"น้ำตกแก่งโพธิ์","Long":"104.245132","Lat":"16.756185","NameT":"น้ำตกแก่งโพธิ์","NameE":"KAENG PHO WATERFALL"}},{"type":"Feature","geometry":{"type":"Point","coordinates":[104.2320386,16.68554378]},"properties":{"name":"น้ำตกแก่งวังสาน","Long":"104.232039","Lat":"16.685544","NameT":"น้ำตกแก่งวังสาน","NameE":"KAENG WANG SAN WATERFALL"}},{"type":"Feature","geometry":{"type":"Point","coordinates":[104.15,17.9833]},"properties":{"name":"น้ำตกนาโพธิ","Long":"104.15","Lat":"17.9833","NameT":"น้ำตกนาโพธิ"}},{"type":"Feature","geometry":{"type":"Point","coordinates":[104.15,17.9833]},"properties":{"name":"น้ำตกนาโพธิ","Long":"104.15","Lat":"17.9833","NameT":"น้ำตกนาโพธิ"}},{"type":"Feature","geometry":{"type":"Point","coordinates":[104.13669,14.45349]},"properties":{"name":"น้ำตกห้วยสวาย","Long":"104.13669","Lat":"14.45349","NameT":"น้ำตกห้วยสวาย"}},{"type":"Feature","geometry":{"type":"Point","coordinates":[104.13669,14.45349]},"properties":{"name":"น้ำตกห้วยสวาย","Long":"104.13669","Lat":"14.45349","NameT":"น้ำตกห้วยสวาย"}},{"type":"Feature","geometry":{"type":"Point","coordinates":[104.1360174,16.75841965]},"properties":{"name":"น้ำตกตาดทอง","Long":"104.136017","Lat":"16.75842","NameT":"น้ำตกตาดทอง","NameE":"TAT THONG WATERFALL"}},{"type":"Feature","geometry":{"type":"Point","coordinates":[104.1333,17.95]},"properties":{"name":"น้ำตกตาดขาม","Long":"104.1333","Lat":"17.95","NameT":"น้ำตกตาดขาม"}},{"type":"Feature","geometry":{"type":"Point","coordinates":[104.1333,17.95]},"properties":{"name":"น้ำตกตาดขาม","Long":"104.1333","Lat":"17.95","NameT":"น้ำตกตาดขาม"}},{"type":"Feature","geometry":{"type":"Point","coordinates":[104.13009,17.94584]},"properties":{"name":"น้ำตกกินรี","Long":"104.13009","Lat":"17.94584","NameT":"น้ำตกกินรี"}},{"type":"Feature","geometry":{"type":"Point","coordinates":[104.13009,17.94584]},"properties":{"name":"น้ำตกกินรี","Long":"104.13009","Lat":"17.94584","NameT":"น้ำตกกินรี"}},{"type":"Feature","geometry":{"type":"Point","coordinates":[104.1227207,17.97440763]},"properties":{"name":"น้ำตกตาดโพธิ์","Long":"104.122721","Lat":"17.974408","NameT":"น้ำตกตาดโพธิ์","NameE":"TAT PHO WATERFALL"}},{"type":"Feature","geometry":{"type":"Point","coordinates":[104.0589478,16.83575508]},"properties":{"name":"น้ำตกผาระแงง","Long":"104.058948","Lat":"16.835755","NameT":"น้ำตกผาระแงง","NameE":"PHA RA-NGAENG WATERFALL"}},{"type":"Feature","geometry":{"type":"Point","coordinates":[104.0223489,17.12187798]},"properties":{"name":"น้ำตกคำหอม","Long":"104.022349","Lat":"17.121878","NameT":"น้ำตกคำหอม","NameE":"KHAM HOM WATERFALL"}},{"type":"Feature","geometry":{"type":"Point","coordinates":[104.0203989,17.08205365]},"properties":{"name":"น้ำตกปรีชาสุขสันต์","Long":"104.020399","Lat":"17.082054","NameT":"น้ำตกปรีชาสุขสันต์","NameE":"PRICHA SUKSAN WATERFALL"}},{"type":"Feature","geometry":{"type":"Point","coordinates":[103.9967407,18.13755614]},"properties":{"name":"น้ำตกถ้ำพระ","Long":"103.996741","Lat":"18.137556","NameT":"น้ำตกถ้ำพระ","NameE":"THAM PHRA WATERFALL"}},{"type":"Feature","geometry":{"type":"Point","coordinates":[103.99171,18.14092]},"properties":{"name":"น้ำตกถ้ำพระ","Long":"103.99171","Lat":"18.14092","NameT":"น้ำตกถ้ำพระ"}},{"type":"Feature","geometry":{"type":"Point","coordinates":[103.99171,18.14092]},"properties":{"name":"น้ำตกถ้ำพระ","Long":"103.99171","Lat":"18.14092","NameT":"น้ำตกถ้ำพระ"}},{"type":"Feature","geometry":{"type":"Point","coordinates":[103.9826751,17.14031601]},"properties":{"name":"น้ำตกคำหอมและโค้งปิ้งงู","Long":"103.982675","Lat":"17.140316","NameT":"น้ำตกคำหอมและโค้งปิ้งงู","NameE":"KHAM HOM WATERFALL AND KHONG PING NGU"}},{"type":"Feature","geometry":{"type":"Point","coordinates":[103.9737275,14.38404908]},"properties":{"name":"น้ำตกถ้ำเสือ","Long":"103.973728","Lat":"14.384049","NameT":"น้ำตกถ้ำเสือ","NameE":"THAM SUEA WATERFALL"}},{"type":"Feature","geometry":{"type":"Point","coordinates":[103.9550268,18.15373417]},"properties":{"name":"น้ำตกเจ็ดสี (ห้วยกะอาม)","Long":"103.955027","Lat":"18.153734","NameT":"น้ำตกเจ็ดสี (ห้วยกะอาม)","NameE":"CHET SI WATERFALL (HUAI KA AM)"}},{"type":"Feature","geometry":{"type":"Point","coordinates":[103.95233,18.15988]},"properties":{"name":"น้ำตกเจ็ดสี","Long":"103.95233","Lat":"18.15988","NameT":"น้ำตกเจ็ดสี"}},{"type":"Feature","geometry":{"type":"Point","coordinates":[103.95233,18.15988]},"properties":{"name":"น้ำตกเจ็ดสี","Long":"103.95233","Lat":"18.15988","NameT":"น้ำตกเจ็ดสี"}},{"type":"Feature","geometry":{"type":"Point","coordinates":[103.9187876,14.39398402]},"properties":{"name":"น้ำตกไตรคีรี","Long":"103.918788","Lat":"14.393984","NameT":"น้ำตกไตรคีรี","NameE":"TRAI KHIRI WATERFALL"}},{"type":"Feature","geometry":{"type":"Point","coordinates":[103.91042,15.29863]},"properties":{"name":"น้ำตกไตรคีรี","Long":"103.91042","Lat":"15.29863","NameT":"น้ำตกไตรคีรี"}},{"type":"Feature","geometry":{"type":"Point","coordinates":[103.91042,15.29863]},"properties":{"name":"น้ำตกไตรคีรี","Long":"103.91042","Lat":"15.29863","NameT":"น้ำตกไตรคีรี"}},{"type":"Feature","geometry":{"type":"Point","coordinates":[103.90611,18.26406]},"properties":{"name":"น้ำตกถ้ำฝุ่น","Long":"103.90611","Lat":"18.26406","NameT":"น้ำตกถ้ำฝุ่น"}},{"type":"Feature","geometry":{"type":"Point","coordinates":[103.90611,18.26406]},"properties":{"name":"น้ำตกถ้ำฝุ่น","Long":"103.90611","Lat":"18.26406","NameT":"น้ำตกถ้ำฝุ่น"}},{"type":"Feature","geometry":{"type":"Point","coordinates":[103.89253,18.22536]},"properties":{"name":"น้ำตกชะแนน","Long":"103.89253","Lat":"18.22536","NameT":"น้ำตกชะแนน"}},{"type":"Feature","geometry":{"type":"Point","coordinates":[103.89253,18.22536]},"properties":{"name":"น้ำตกชะแนน","Long":"103.89253","Lat":"18.22536","NameT":"น้ำตกชะแนน"}},{"type":"Feature","geometry":{"type":"Point","coordinates":[103.83653,16.78536]},"properties":{"name":"น้ำตกตาดทอง","Long":"103.83653","Lat":"16.78536","NameT":"น้ำตกตาดทอง"}},{"type":"Feature","geometry":{"type":"Point","coordinates":[103.83653,16.78536]},"properties":{"name":"น้ำตกตาดทอง","Long":"103.83653","Lat":"16.78536","NameT":"น้ำตกตาดทอง"}},{"type":"Feature","geometry":{"type":"Point","coordinates":[103.77911,16.82091]},"properties":{"name":"น้ำตกผาลี่","Long":"103.77911","Lat":"16.82091","NameT":"น้ำตกผาลี่"}},{"type":"Feature","geometry":{"type":"Point","coordinates":[103.77911,16.82091]},"properties":{"name":"น้ำตกผาลี่","Long":"103.77911","Lat":"16.82091","NameT":"น้ำตกผาลี่"}},{"type":"Feature","geometry":{"type":"Point","coordinates":[103.4627937,17.28118989]},"properties":{"name":"น้ำตกเก้าชั้น","Long":"103.462794","Lat":"17.28119","NameT":"น้ำตกเก้าชั้น","NameE":"KAO CHAN WATERFALL"}},{"type":"Feature","geometry":{"type":"Point","coordinates":[103.26991,16.87253]},"properties":{"name":"น้ำตกแก้งกะอาม","Long":"103.26991","Lat":"16.87253","NameT":"น้ำตกแก้งกะอาม"}},{"type":"Feature","geometry":{"type":"Point","coordinates":[103.26991,16.87253]},"properties":{"name":"น้ำตกแก้งกะอาม","Long":"103.26991","Lat":"16.87253","NameT":"น้ำตกแก้งกะอาม"}},{"type":"Feature","geometry":{"type":"Point","coordinates":[103.0903508,16.88841206]},"properties":{"name":"น้ำตกบ๋าหลวง","Long":"103.090351","Lat":"16.888412","NameT":"น้ำตกบ๋าหลวง","NameE":"BA LUANG WATERFALL"}},{"type":"Feature","geometry":{"type":"Point","coordinates":[103.08508,16.88837]},"properties":{"name":"น้ำตกบ๋าหลวง (อ่างนางลอย) ","Long":"103.08508","Lat":"16.88837","NameT":"น้ำตกบ๋าหลวง (อ่างนางลอย)"}},{"type":"Feature","geometry":{"type":"Point","coordinates":[103.08508,16.88837]},"properties":{"name":"น้ำตกบ๋าหลวง (อ่างนางลอย)","Long":"103.08508","Lat":"16.88837","NameT":"น้ำตกบ๋าหลวง (อ่างนางลอย)"}},{"type":"Feature","geometry":{"type":"Point","coordinates":[102.73941,17.06389031]},"properties":{"name":"น้ำตกนางริน","Long":"102.73941","Lat":"17.06389","NameT":"น้ำตกนางริน","NameE":"NANG RIN WATERFALL"}},{"type":"Feature","geometry":{"type":"Point","coordinates":[102.73754,17.15036]},"properties":{"name":"น้ำตกธารงาม","Long":"102.73754","Lat":"17.15036","NameT":"น้ำตกธารงาม"}},{"type":"Feature","geometry":{"type":"Point","coordinates":[102.73754,17.15036]},"properties":{"name":"น้ำตกธารงาม","Long":"102.73754","Lat":"17.15036","NameT":"น้ำตกธารงาม"}},{"type":"Feature","geometry":{"type":"Point","coordinates":[102.7289042,17.11913598]},"properties":{"name":"น้ำตกธารงาม","Long":"102.728904","Lat":"17.119136","NameT":"น้ำตกธารงาม","NameE":"THAN NGAM WATERFALL"}},{"type":"Feature","geometry":{"type":"Point","coordinates":[102.7145398,12.10035322]},"properties":{"name":"น้ำตกสะพานหิน","Long":"102.71454","Lat":"12.100353","NameT":"น้ำตกสะพานหิน","NameE":"SAPHAN HIN WATERFALL"}},{"type":"Feature","geometry":{"type":"Point","coordinates":[102.6701569,17.08712853]},"properties":{"name":"น้ำตกหินตั้ง","Long":"102.670157","Lat":"17.087129","NameT":"น้ำตกหินตั้ง","NameE":"HIN TANG WATERFALL"}},{"type":"Feature","geometry":{"type":"Point","coordinates":[102.5813235,12.61826896]},"properties":{"name":"น้ำตกคลองแก้ว","Long":"102.581324","Lat":"12.618269","NameT":"น้ำตกคลองแก้ว","NameE":"KHLONG KAEO WATERFALL"}},{"type":"Feature","geometry":{"type":"Point","coordinates":[102.5596804,11.6442689]},"properties":{"name":"น้ำตกคลองเจ้า","Long":"102.55968","Lat":"11.644269","NameT":"น้ำตกคลองเจ้า","NameE":"KHLONG CHAO WATERFALL"}},{"type":"Feature","geometry":{"type":"Point","coordinates":[102.52553,13.63631]},"properties":{"name":"น้ำตกสวนห้อม","Long":"102.52553","Lat":"13.63631","NameT":"น้ำตกสวนห้อม"}},{"type":"Feature","geometry":{"type":"Point","coordinates":[102.52553,13.63631]},"properties":{"name":"น้ำตกสวนห้อม","Long":"102.52553","Lat":"13.63631","NameT":"น้ำตกสวนห้อม"}},{"type":"Feature","geometry":{"type":"Point","coordinates":[102.5185334,12.62102968]},"properties":{"name":"น้ำตกสลัดได","Long":"102.518533","Lat":"12.62103","NameT":"น้ำตกสลัดได","NameE":"SALAT DAI WATERFALL"}},{"type":"Feature","geometry":{"type":"Point","coordinates":[102.4711167,16.32662148]},"properties":{"name":"น้ำตกห้วยเข","Long":"102.471117","Lat":"16.326621","NameT":"น้ำตกห้วยเข","NameE":"HUAI KHE WATERFALL"}},{"type":"Feature","geometry":{"type":"Point","coordinates":[102.4658881,16.91922741]},"properties":{"name":"น้ำตกตาดฟ้า","Long":"102.465888","Lat":"16.919227","NameT":"น้ำตกตาดฟ้า","NameE":"TAT FA WATERFALL"}},{"type":"Feature","geometry":{"type":"Point","coordinates":[102.46412,16.34597]},"properties":{"name":"น้ำตกห้วยเข","Long":"102.46412","Lat":"16.34597","NameT":"น้ำตกห้วยเข"}},{"type":"Feature","geometry":{"type":"Point","coordinates":[102.46412,16.34597]},"properties":{"name":"น้ำตกห้วยเข","Long":"102.46412","Lat":"16.34597","NameT":"น้ำตกห้วยเข"}},{"type":"Feature","geometry":{"type":"Point","coordinates":[102.4640058,17.22871891]},"properties":{"name":"น้ำตกเฒ่าโฒ่","Long":"102.464006","Lat":"17.228719","NameT":"น้ำตกเฒ่าโฒ่","NameE":"THAO THO WATERFALL"}},{"type":"Feature","geometry":{"type":"Point","coordinates":[102.3776035,17.99296466]},"properties":{"name":"น้ำตกวังน้ำหมอก","Long":"102.377604","Lat":"17.992965","NameT":"น้ำตกวังน้ำหมอก","NameE":"WANG NAM MOK WATERFALL"}},{"type":"Feature","geometry":{"type":"Point","coordinates":[102.37394,17.99355]},"properties":{"name":"น้ำตกวังหมอก","Long":"102.37394","Lat":"17.99355","NameT":"น้ำตกวังหมอก"}},{"type":"Feature","geometry":{"type":"Point","coordinates":[102.37394,17.99355]},"properties":{"name":"น้ำตกวังหมอก","Long":"102.37394","Lat":"17.99355","NameT":"น้ำตกวังหมอก"}},{"type":"Feature","geometry":{"type":"Point","coordinates":[102.3708173,12.074577]},"properties":{"name":"น้ำตกธารมะยม","Long":"102.370817","Lat":"12.074577","NameT":"น้ำตกธารมะยม","NameE":"THAN MAYOM WATERFALL"}},{"type":"Feature","geometry":{"type":"Point","coordinates":[102.3686918,18.02653552]},"properties":{"name":"น้ำตกธารทอง","Long":"102.368692","Lat":"18.026536","NameT":"น้ำตกธารทอง","NameE":"THAN THONG WATERFALL"}},{"type":"Feature","geometry":{"type":"Point","coordinates":[102.36631,17.92407]},"properties":{"name":"น้ำตกยูงทอง","Long":"102.36631","Lat":"17.92407","NameT":"น้ำตกยูงทอง"}},{"type":"Feature","geometry":{"type":"Point","coordinates":[102.36631,17.92407]},"properties":{"name":"น้ำตกยูงทอง","Long":"102.36631","Lat":"17.92407","NameT":"น้ำตกยูงทอง"}},{"type":"Feature","geometry":{"type":"Point","coordinates":[102.36508,18.02771]},"properties":{"name":"น้ำตกธารทอง","Long":"102.36508","Lat":"18.02771","NameT":"น้ำตกธารทอง"}},{"type":"Feature","geometry":{"type":"Point","coordinates":[102.36508,18.02771]},"properties":{"name":"น้ำตกธารทอง","Long":"102.36508","Lat":"18.02771","NameT":"น้ำตกธารทอง"}},{"type":"Feature","geometry":{"type":"Point","coordinates":[102.3595084,12.01127004]},"properties":{"name":"น้ำตกคลองหนึ่ง","Long":"102.359508","Lat":"12.01127","NameT":"น้ำตกคลองหนึ่ง","NameE":"KHLONG NUENG WATERFALL"}},{"type":"Feature","geometry":{"type":"Point","coordinates":[102.3558599,12.00419207]},"properties":{"name":"น้ำตกคีรีเพชร","Long":"102.35586","Lat":"12.004192","NameT":"น้ำตกคีรีเพชร","NameE":"KHIRI PHET WATERFALL"}},{"type":"Feature","geometry":{"type":"Point","coordinates":[102.3431464,12.10327851]},"properties":{"name":"น้ำตกคลองนนทรีย์","Long":"102.343146","Lat":"12.103279","NameT":"น้ำตกคลองนนทรีย์","NameE":"KHLONG NONSI WATERFALL"}},{"type":"Feature","geometry":{"type":"Point","coordinates":[102.3147512,12.0615203]},"properties":{"name":"น้ำตกคลองพลู","Long":"102.314751","Lat":"12.06152","NameT":"น้ำตกคลองพลู","NameE":"KHLONG PHLU WATERFALL"}},{"type":"Feature","geometry":{"type":"Point","coordinates":[102.3089621,17.93662683]},"properties":{"name":"น้ำตกนางคอย","Long":"102.308962","Lat":"17.936627","NameT":"น้ำตกนางคอย","NameE":"NANG KHOI WATERFALL"}},{"type":"Feature","geometry":{"type":"Point","coordinates":[102.3059397,13.98283459]},"properties":{"name":"น้ำตกทับเทวา","Long":"102.30594","Lat":"13.982835","NameT":"น้ำตกทับเทวา","NameE":"THAP THEWA WATERFALL"}},{"type":"Feature","geometry":{"type":"Point","coordinates":[102.3019493,12.11101131]},"properties":{"name":"น้ำตกคลองเจ้าเหลือม","Long":"102.301949","Lat":"12.111011","NameT":"น้ำตกคลองเจ้าเหลือม","NameE":"KHLONG CHAO LUEAM WATERFALL"}},{"type":"Feature","geometry":{"type":"Point","coordinates":[102.3018932,12.8042703]},"properties":{"name":"น้ำตกชำปาง","Long":"102.301893","Lat":"12.80427","NameT":"น้ำตกชำปาง","NameE":"CHAM PANG WATERFALL"}},{"type":"Feature","geometry":{"type":"Point","coordinates":[102.2875756,16.7331015]},"properties":{"name":"น้ำตกสักสิ้ว","Long":"102.287576","Lat":"16.733102","NameT":"น้ำตกสักสิ้ว","NameE":"SAK SIO WATERFALL"}},{"type":"Feature","geometry":{"type":"Point","coordinates":[102.2856116,16.73792206]},"properties":{"name":"น้ำตกตาดฮางริน","Long":"102.285612","Lat":"16.737922","NameT":"น้ำตกตาดฮางริน","NameE":"TAT HANG RIN WATERFALL"}},{"type":"Feature","geometry":{"type":"Point","coordinates":[102.2829071,16.74219096]},"properties":{"name":"น้ำตกตาดฟ้า","Long":"102.282907","Lat":"16.742191","NameT":"น้ำตกตาดฟ้า","NameE":"TAT FA WATERFALL"}},{"type":"Feature","geometry":{"type":"Point","coordinates":[102.2697543,14.05986934]},"properties":{"name":"น้ำตกถ้ำค้างคาว","Long":"102.269754","Lat":"14.059869","NameT":"น้ำตกถ้ำค้างคาว","NameE":"THAM KHANGKHAO WATERFALL"}},{"type":"Feature","geometry":{"type":"Point","coordinates":[102.2657459,14.0539675]},"properties":{"name":"น้ำตกทับซุง","Long":"102.265746","Lat":"14.053968","NameT":"น้ำตกทับซุง","NameE":"THAP SUNG WATERFALL"}},{"type":"Feature","geometry":{"type":"Point","coordinates":[102.265081,14.03718742]},"properties":{"name":"น้ำตกห้วยน้ำเย็น","Long":"102.265081","Lat":"14.037187","NameT":"น้ำตกห้วยน้ำเย็น","NameE":"HUAI NAM YEN WATERFALL"}},{"type":"Feature","geometry":{"type":"Point","coordinates":[102.2628811,13.99009424]},"properties":{"name":"น้ำตกท่ากระบาก","Long":"102.262881","Lat":"13.990094","NameT":"น้ำตกท่ากระบาก","NameE":"THA KRABAK WATERFALL"}},{"type":"Feature","geometry":{"type":"Point","coordinates":[102.259397,17.81445398]},"properties":{"name":"น้ำตกชะโนด","Long":"102.259397","Lat":"17.814454","NameT":"น้ำตกชะโนด","NameE":"CHANOT WATERFALL"}},{"type":"Feature","geometry":{"type":"Point","coordinates":[102.259304,16.8552484]},"properties":{"name":"น้ำตกตาลโตน","Long":"102.259304","Lat":"16.855248","NameT":"น้ำตกตาลโตน","NameE":"TAN TON WATERFALL"}},{"type":"Feature","geometry":{"type":"Point","coordinates":[102.25824,16.78822]},"properties":{"name":"น้ำตกตาดฟ้า (ภูเวียง) ","Long":"102.25824","Lat":"16.78822","NameT":"น้ำตกตาดฟ้า (ภูเวียง)"}},{"type":"Feature","geometry":{"type":"Point","coordinates":[102.25824,16.78822]},"properties":{"name":"น้ำตกตาดฟ้า (ภูเวียง)","Long":"102.25824","Lat":"16.78822","NameT":"น้ำตกตาดฟ้า (ภูเวียง)"}},{"type":"Feature","geometry":{"type":"Point","coordinates":[102.2576428,13.02243497]},"properties":{"name":"น้ำตกวังผาหินงาม","Long":"102.257643","Lat":"13.022435","NameT":"น้ำตกวังผาหินงาม","NameE":"WANG PHA HIN NGAM WATERFALL"}},{"type":"Feature","geometry":{"type":"Point","coordinates":[102.2544445,17.92352916]},"properties":{"name":"น้ำตกยูงทอง","Long":"102.254445","Lat":"17.923529","NameT":"น้ำตกยูงทอง","NameE":"YUNG THONG WATERFALL"}},{"type":"Feature","geometry":{"type":"Point","coordinates":[102.2405413,12.97241157]},"properties":{"name":"น้ำตกหินดาด","Long":"102.240541","Lat":"12.972412","NameT":"น้ำตกหินดาด","NameE":"HIN DAT WATERFALL"}},{"type":"Feature","geometry":{"type":"Point","coordinates":[102.2405246,12.54245394]},"properties":{"name":"น้ำตกตรอกนอง","Long":"102.240525","Lat":"12.542454","NameT":"น้ำตกตรอกนอง","NameE":"TROK NONG WATERFALL"}},{"type":"Feature","geometry":{"type":"Point","coordinates":[102.21488,16.63246]},"properties":{"name":"น้ำตกทับพญาเสือ (พลาญหิน) ","Long":"102.21488","Lat":"16.63246","NameT":"น้ำตกทับพญาเสือ (พลาญหิน)"}},{"type":"Feature","geometry":{"type":"Point","coordinates":[102.21488,16.63246]},"properties":{"name":"น้ำตกทับพญาเสือ (พลาญหิน)","Long":"102.21488","Lat":"16.63246","NameT":"น้ำตกทับพญาเสือ (พลาญหิน)"}},{"type":"Feature","geometry":{"type":"Point","coordinates":[102.211579,13.98957551]},"properties":{"name":"น้ำตกปางสีดา","Long":"102.211579","Lat":"13.989576","NameT":"น้ำตกปางสีดา","NameE":"PANG SIDA WATERFALL"}},{"type":"Feature","geometry":{"type":"Point","coordinates":[102.2111827,13.9963913]},"properties":{"name":"น้ำตกผาตะเคียน","Long":"102.211183","Lat":"13.996391","NameT":"น้ำตกผาตะเคียน","NameE":"PHA TAKHIAN WATERFALL"}},{"type":"Feature","geometry":{"type":"Point","coordinates":[102.1948659,13.09914555]},"properties":{"name":"น้ำตกเขาสอยดาว","Long":"102.194866","Lat":"13.099146","NameT":"น้ำตกเขาสอยดาว","NameE":"KHAO SOI DAO WATERFALL"}},{"type":"Feature","geometry":{"type":"Point","coordinates":[102.1903024,18.12217902]},"properties":{"name":"น้ำตกธารทิพย์","Long":"102.190302","Lat":"18.122179","NameT":"น้ำตกธารทิพย์","NameE":"THAN THIP WATERFALL"}},{"type":"Feature","geometry":{"type":"Point","coordinates":[102.1858986,12.52847455]},"properties":{"name":"น้ำตกพลิ้ว","Long":"102.185899","Lat":"12.528475","NameT":"น้ำตกพลิ้ว","NameE":"PHLIO WATERFALL"}},{"type":"Feature","geometry":{"type":"Point","coordinates":[102.18542,18.1242]},"properties":{"name":"น้ำตกธารทิพย์","Long":"102.18542","Lat":"18.1242","NameT":"น้ำตกธารทิพย์"}},{"type":"Feature","geometry":{"type":"Point","coordinates":[102.18542,18.1242]},"properties":{"name":"น้ำตกธารทิพย์","Long":"102.18542","Lat":"18.1242","NameT":"น้ำตกธารทิพย์"}},{"type":"Feature","geometry":{"type":"Point","coordinates":[102.1833,12.5333]},"properties":{"name":"น้ำตกพลิ้ว","Long":"102.1833","Lat":"12.5333","NameT":"น้ำตกพลิ้ว"}},{"type":"Feature","geometry":{"type":"Point","coordinates":[102.1833,12.5333]},"properties":{"name":"น้ำตกพลิ้ว","Long":"102.1833","Lat":"12.5333","NameT":"น้ำตกพลิ้ว"}},{"type":"Feature","geometry":{"type":"Point","coordinates":[102.1774483,12.58100827]},"properties":{"name":"น้ำตกคลองนารายณ์","Long":"102.177448","Lat":"12.581008","NameT":"น้ำตกคลองนารายณ์","NameE":"KHLONG NARAI WATERFALL"}},{"type":"Feature","geometry":{"type":"Point","coordinates":[102.1582097,12.81230179]},"properties":{"name":"น้ำตกช้างเซ","Long":"102.15821","Lat":"12.812302","NameT":"น้ำตกช้างเซ","NameE":"CHANG SE WATERFALL"}},{"type":"Feature","geometry":{"type":"Point","coordinates":[102.13545,12.84151]},"properties":{"name":"น้ำตกกระทิง","Long":"102.13545","Lat":"12.84151","NameT":"น้ำตกกระทิง"}},{"type":"Feature","geometry":{"type":"Point","coordinates":[102.13545,12.84151]},"properties":{"name":"น้ำตกกระทิง","Long":"102.13545","Lat":"12.84151","NameT":"น้ำตกกระทิง"}},{"type":"Feature","geometry":{"type":"Point","coordinates":[102.1290276,15.93659502]},"properties":{"name":"น้ำตกถ้ำเหี้ย","Long":"102.129028","Lat":"15.936595","NameT":"น้ำตกถ้ำเหี้ย","NameE":"THAM HIA WATERFALL"}},{"type":"Feature","geometry":{"type":"Point","coordinates":[102.1250113,12.88671789]},"properties":{"name":"น้ำตกคลองไพบูลย์","Long":"102.125011","Lat":"12.886718","NameT":"น้ำตกคลองไพบูลย์","NameE":"KHLONG PHAIBUN WATERFALL"}},{"type":"Feature","geometry":{"type":"Point","coordinates":[102.1238702,12.83833687]},"properties":{"name":"น้ำตกกระทิง","Long":"102.12387","Lat":"12.838337","NameT":"น้ำตกกระทิง","NameE":"KRATHING WATERFALL"}},{"type":"Feature","geometry":{"type":"Point","coordinates":[102.1224279,17.91484629]},"properties":{"name":"น้ำตกคำพม่า","Long":"102.122428","Lat":"17.914846","NameT":"น้ำตกคำพม่า","NameE":"KHAM PHAMA WATERFALL"}},{"type":"Feature","geometry":{"type":"Point","coordinates":[102.1012335,15.93984756]},"properties":{"name":"น้ำตกตาดฟ้า","Long":"102.101234","Lat":"15.939848","NameT":"น้ำตกตาดฟ้า","NameE":"TAT FA WATERFALL"}},{"type":"Feature","geometry":{"type":"Point","coordinates":[102.09999,15.94456]},"properties":{"name":"น้ำตกตาดฟ้า","Long":"102.09999","Lat":"15.94456","NameT":"น้ำตกตาดฟ้า"}},{"type":"Feature","geometry":{"type":"Point","coordinates":[102.09999,15.94456]},"properties":{"name":"น้ำตกตาดฟ้า","Long":"102.09999","Lat":"15.94456","NameT":"น้ำตกตาดฟ้า"}},{"type":"Feature","geometry":{"type":"Point","coordinates":[102.0970568,12.94144725]},"properties":{"name":"น้ำตกตะเคียนทอง","Long":"102.097057","Lat":"12.941447","NameT":"น้ำตกตะเคียนทอง","NameE":"TAKHIAN THONG WATERFALL"}},{"type":"Feature","geometry":{"type":"Point","coordinates":[102.0716431,13.28389786]},"properties":{"name":"น้ำตกเขาสิบห้าชั้น","Long":"102.071643","Lat":"13.283898","NameT":"น้ำตกเขาสิบห้าชั้น","NameE":"KHAO SIP HA CHAN WATERFALL"}},{"type":"Feature","geometry":{"type":"Point","coordinates":[102.0437257,14.03452309]},"properties":{"name":"น้ำตกน้ำโตนเล็ก","Long":"102.043726","Lat":"14.034523","NameT":"น้ำตกน้ำโตนเล็ก","NameE":"NAM TON LEK WATERFALL"}},{"type":"Feature","geometry":{"type":"Point","coordinates":[102.0434139,14.0362418]},"properties":{"name":"น้ำตกน้ำโตนใหญ่","Long":"102.043414","Lat":"14.036242","NameT":"น้ำตกน้ำโตนใหญ่","NameE":"NAM TON YAI WATERFALL"}},{"type":"Feature","geometry":{"type":"Point","coordinates":[102.04025,15.98347]},"properties":{"name":"น้ำตกตาดโตน","Long":"102.04025","Lat":"15.98347","NameT":"น้ำตกตาดโตน"}},{"type":"Feature","geometry":{"type":"Point","coordinates":[102.04025,15.98347]},"properties":{"name":"น้ำตกตาดโตน","Long":"102.04025","Lat":"15.98347","NameT":"น้ำตกตาดโตน"}},{"type":"Feature","geometry":{"type":"Point","coordinates":[102.0278571,16.01783617]},"properties":{"name":"น้ำตกตาดโตน","Long":"102.027857","Lat":"16.017836","NameT":"น้ำตกตาดโตน","NameE":"TAT TON WATERFALL"}},{"type":"Feature","geometry":{"type":"Point","coordinates":[102.0261093,13.18251026]},"properties":{"name":"น้ำตกน้ำเป็น","Long":"102.026109","Lat":"13.18251","NameT":"น้ำตกน้ำเป็น","NameE":"NAM PEN WATERFALL"}},{"type":"Feature","geometry":{"type":"Point","coordinates":[101.9696711,13.46772226]},"properties":{"name":"น้ำตกเขาตะกรุบ","Long":"101.969671","Lat":"13.467722","NameT":"น้ำตกเขาตะกรุบ","NameE":"KHAO TA KRUP WATERFALL"}},{"type":"Feature","geometry":{"type":"Point","coordinates":[101.95655,16.75793]},"properties":{"name":"น้ำตกพลาญทอง","Long":"101.95655","Lat":"16.75793","NameT":"น้ำตกพลาญทอง"}},{"type":"Feature","geometry":{"type":"Point","coordinates":[101.95655,16.75793]},"properties":{"name":"น้ำตกพลาญทอง","Long":"101.95655","Lat":"16.75793","NameT":"น้ำตกพลาญทอง"}},{"type":"Feature","geometry":{"type":"Point","coordinates":[101.9478002,14.22213351]},"properties":{"name":"น้ำตกเหว-นก-กก","Long":"101.9478","Lat":"14.222134","NameT":"น้ำตกเหว-นก-กก","NameE":"HEO-NOK-KOK WATERFALL"}},{"type":"Feature","geometry":{"type":"Point","coordinates":[101.9463349,16.7499223]},"properties":{"name":"น้ำตกพลาญทอง","Long":"101.946335","Lat":"16.749922","NameT":"น้ำตกพลาญทอง","NameE":"PHLAN THONG WATERFALL"}},{"type":"Feature","geometry":{"type":"Point","coordinates":[101.91329,15.96824]},"properties":{"name":"น้ำตกผาเอียง","Long":"101.91329","Lat":"15.96824","NameT":"น้ำตกผาเอียง"}},{"type":"Feature","geometry":{"type":"Point","coordinates":[101.91329,15.96824]},"properties":{"name":"น้ำตกผาเอียง","Long":"101.91329","Lat":"15.96824","NameT":"น้ำตกผาเอียง"}},{"type":"Feature","geometry":{"type":"Point","coordinates":[101.9118589,14.33838816]},"properties":{"name":"น้ำตกห้วยขมิ้น","Long":"101.911859","Lat":"14.338388","NameT":"น้ำตกห้วยขมิ้น","NameE":"HUAI KHAMIN WATERFALL"}},{"type":"Feature","geometry":{"type":"Point","coordinates":[101.9007765,14.258896]},"properties":{"name":"น้ำตกบ่อทอง","Long":"101.900777","Lat":"14.258896","NameT":"น้ำตกบ่อทอง","NameE":"BO THONG WATERFALL"}},{"type":"Feature","geometry":{"type":"Point","coordinates":[101.8992952,14.34195893]},"properties":{"name":"น้ำตกม่านฟ้า","Long":"101.899295","Lat":"14.341959","NameT":"น้ำตกม่านฟ้า","NameE":"MAN FA WATERFALL"}},{"type":"Feature","geometry":{"type":"Point","coordinates":[101.8988085,14.34048548]},"properties":{"name":"น้ำตกห้วยใหญ่","Long":"101.898809","Lat":"14.340485","NameT":"น้ำตกห้วยใหญ่","NameE":"HUAI YAI WATERFALL"}},{"type":"Feature","geometry":{"type":"Point","coordinates":[101.8969174,15.95701968]},"properties":{"name":"น้ำตกผาเอียง","Long":"101.896917","Lat":"15.95702","NameT":"น้ำตกผาเอียง","NameE":"PHA IANG WATERFALL"}},{"type":"Feature","geometry":{"type":"Point","coordinates":[101.8951,14.34238]},"properties":{"name":"น้ำตกม่านฟ้า","Long":"101.8951","Lat":"14.34238","NameT":"น้ำตกม่านฟ้า"}},{"type":"Feature","geometry":{"type":"Point","coordinates":[101.8951,14.34238]},"properties":{"name":"น้ำตกม่านฟ้า","Long":"101.8951","Lat":"14.34238","NameT":"น้ำตกม่านฟ้า"}},{"type":"Feature","geometry":{"type":"Point","coordinates":[101.8884671,14.33349174]},"properties":{"name":"น้ำตกสวนห้อม","Long":"101.888467","Lat":"14.333492","NameT":"น้ำตกสวนห้อม","NameE":"SUAN HOM WATERFALL"}},{"type":"Feature","geometry":{"type":"Point","coordinates":[101.879791,18.00944908]},"properties":{"name":"น้ำตกตาดแกว","Long":"101.879791","Lat":"18.009449","NameT":"น้ำตกตาดแกว","NameE":"TAT KAEO WATERFALL"}},{"type":"Feature","geometry":{"type":"Point","coordinates":[101.8361062,6.100179853]},"properties":{"name":"น้ำตกฉัตรวาริน","Long":"101.836106","Lat":"6.10018","NameT":"น้ำตกฉัตรวาริน","NameE":"CHAT WARIN WATERFALL"}},{"type":"Feature","geometry":{"type":"Point","coordinates":[101.8301562,5.79951043]},"properties":{"name":"น้ำตกสิรินธร","Long":"101.830156","Lat":"5.79951","NameT":"น้ำตกสิรินธร","NameE":"SIRINDHORN WATERFALL"}},{"type":"Feature","geometry":{"type":"Point","coordinates":[101.7924,16.72927]},"properties":{"name":"น้ำตกตาดทิดมี","Long":"101.7924","Lat":"16.72927","NameT":"น้ำตกตาดทิดมี"}},{"type":"Feature","geometry":{"type":"Point","coordinates":[101.7924,16.72927]},"properties":{"name":"น้ำตกตาดทิดมี","Long":"101.7924","Lat":"16.72927","NameT":"น้ำตกตาดทิดมี"}},{"type":"Feature","geometry":{"type":"Point","coordinates":[101.7883,16.74004]},"properties":{"name":"น้ำตกตาดฟ้าภูผาม่าน","Long":"101.7883","Lat":"16.74004","NameT":"น้ำตกตาดฟ้าภูผาม่าน"}},{"type":"Feature","geometry":{"type":"Point","coordinates":[101.7883,16.74004]},"properties":{"name":"น้ำตกตาดฟ้าภูผาม่าน","Long":"101.7883","Lat":"16.74004","NameT":"น้ำตกตาดฟ้าภูผาม่าน"}},{"type":"Feature","geometry":{"type":"Point","coordinates":[101.78611,16.8895]},"properties":{"name":"น้ำตกวังกวาง","Long":"101.78611","Lat":"16.8895","NameT":"น้ำตกวังกวาง"}},{"type":"Feature","geometry":{"type":"Point","coordinates":[101.78611,16.8895]},"properties":{"name":"น้ำตกวังกวาง","Long":"101.78611","Lat":"16.8895","NameT":"น้ำตกวังกวาง"}},{"type":"Feature","geometry":{"type":"Point","coordinates":[101.7844712,16.89129524]},"properties":{"name":"น้ำตกวังกวาง","Long":"101.784471","Lat":"16.891295","NameT":"น้ำตกวังกวาง","NameE":"WANG KWANG WATERFALL"}},{"type":"Feature","geometry":{"type":"Point","coordinates":[101.78291,16.72119]},"properties":{"name":"น้ำตกตาดใหญ่","Long":"101.78291","Lat":"16.72119","NameT":"น้ำตกตาดใหญ่"}},{"type":"Feature","geometry":{"type":"Point","coordinates":[101.78291,16.72119]},"properties":{"name":"น้ำตกตาดใหญ่","Long":"101.78291","Lat":"16.72119","NameT":"น้ำตกตาดใหญ่"}},{"type":"Feature","geometry":{"type":"Point","coordinates":[101.7801593,16.70578456]},"properties":{"name":"น้ำตกตากฟ้า","Long":"101.780159","Lat":"16.705785","NameT":"น้ำตกตากฟ้า","NameE":"TAK FA WATERFALL"}},{"type":"Feature","geometry":{"type":"Point","coordinates":[101.77871,16.88131]},"properties":{"name":"น้ำตกถ้ำใหญ่","Long":"101.77871","Lat":"16.88131","NameT":"น้ำตกถ้ำใหญ่"}},{"type":"Feature","geometry":{"type":"Point","coordinates":[101.77871,16.88131]},"properties":{"name":"น้ำตกถ้ำใหญ่","Long":"101.77871","Lat":"16.88131","NameT":"น้ำตกถ้ำใหญ่"}},{"type":"Feature","geometry":{"type":"Point","coordinates":[101.7782874,16.89241241]},"properties":{"name":"น้ำตกโผนพบ","Long":"101.778287","Lat":"16.892412","NameT":"น้ำตกโผนพบ","NameE":"PHON PHOP WATERFALL"}},{"type":"Feature","geometry":{"type":"Point","coordinates":[101.7781705,16.89672977]},"properties":{"name":"น้ำตกเพ็ญพบใหม่","Long":"101.778171","Lat":"16.89673","NameT":"น้ำตกเพ็ญพบใหม่","NameE":"PHEN PHOP MAI WATERFALL"}},{"type":"Feature","geometry":{"type":"Point","coordinates":[101.777621,12.94735836]},"properties":{"name":"น้ำตกคลองหินเพลิง","Long":"101.777621","Lat":"12.947358","NameT":"น้ำตกคลองหินเพลิง","NameE":"KHLONG HIN PHLOENG WATERFALL"}},{"type":"Feature","geometry":{"type":"Point","coordinates":[101.7773703,16.89007924]},"properties":{"name":"น้ำตกเพ็ญพบ","Long":"101.77737","Lat":"16.890079","NameT":"น้ำตกเพ็ญพบ","NameE":"PHEN PHOP WATERFALL"}},{"type":"Feature","geometry":{"type":"Point","coordinates":[101.77698,16.88913]},"properties":{"name":"น้ำตกเพ็ญพบ","Long":"101.77698","Lat":"16.88913","NameT":"น้ำตกเพ็ญพบ"}},{"type":"Feature","geometry":{"type":"Point","coordinates":[101.77698,16.88913]},"properties":{"name":"น้ำตกเพ็ญพบ","Long":"101.77698","Lat":"16.88913","NameT":"น้ำตกเพ็ญพบ"}},{"type":"Feature","geometry":{"type":"Point","coordinates":[101.77676,16.89108]},"properties":{"name":"น้ำตกโผนพบ","Long":"101.77676","Lat":"16.89108","NameT":"น้ำตกโผนพบ"}},{"type":"Feature","geometry":{"type":"Point","coordinates":[101.77676,16.89108]},"properties":{"name":"น้ำตกโผนพบ","Long":"101.77676","Lat":"16.89108","NameT":"น้ำตกโผนพบ"}},{"type":"Feature","geometry":{"type":"Point","coordinates":[101.77262,16.89659]},"properties":{"name":"น้ำตกเพ็ญพบใหม่","Long":"101.77262","Lat":"16.89659","NameT":"น้ำตกเพ็ญพบใหม่"}},{"type":"Feature","geometry":{"type":"Point","coordinates":[101.77262,16.89659]},"properties":{"name":"น้ำตกเพ็ญพบใหม่","Long":"101.77262","Lat":"16.89659","NameT":"น้ำตกเพ็ญพบใหม่"}},{"type":"Feature","geometry":{"type":"Point","coordinates":[101.7645993,17.04545145]},"properties":{"name":"น้ำตกสวนห้อม","Long":"101.764599","Lat":"17.045451","NameT":"น้ำตกสวนห้อม","NameE":"SUAN HOM WATERFALL"}},{"type":"Feature","geometry":{"type":"Point","coordinates":[101.7586703,14.52124363]},"properties":{"name":"น้ำตกคลองดินดำ","Long":"101.75867","Lat":"14.521244","NameT":"น้ำตกคลองดินดำ","NameE":"KHLONG DIN DAM WATERFALL"}},{"type":"Feature","geometry":{"type":"Point","coordinates":[101.7580542,12.94856284]},"properties":{"name":"น้ำตกเขาชะเมา","Long":"101.758054","Lat":"12.948563","NameT":"น้ำตกเขาชะเมา","NameE":"KHAO CHAMAO WATERFALL"}},{"type":"Feature","geometry":{"type":"Point","coordinates":[101.7512169,17.06482906]},"properties":{"name":"น้ำตกเพียงดิน","Long":"101.751217","Lat":"17.064829","NameT":"น้ำตกเพียงดิน","NameE":"PHIANG DIN WATERFALL"}},{"type":"Feature","geometry":{"type":"Point","coordinates":[101.74848,16.87597]},"properties":{"name":"น้ำตกถ้ำสอเหนือ","Long":"101.74848","Lat":"16.87597","NameT":"น้ำตกถ้ำสอเหนือ"}},{"type":"Feature","geometry":{"type":"Point","coordinates":[101.74848,16.87597]},"properties":{"name":"น้ำตกถ้ำสอเหนือ","Long":"101.74848","Lat":"16.87597","NameT":"น้ำตกถ้ำสอเหนือ"}},{"type":"Feature","geometry":{"type":"Point","coordinates":[101.74799,17.06603]},"properties":{"name":"น้ำตกเพียงดิน","Long":"101.74799","Lat":"17.06603","NameT":"น้ำตกเพียงดิน"}},{"type":"Feature","geometry":{"type":"Point","coordinates":[101.74799,17.06603]},"properties":{"name":"น้ำตกสวนห้อม","Long":"101.74799","Lat":"17.06603","NameT":"น้ำตกสวนห้อม"}},{"type":"Feature","geometry":{"type":"Point","coordinates":[101.74799,17.06603]},"properties":{"name":"น้ำตกเพียงดิน","Long":"101.74799","Lat":"17.06603","NameT":"น้ำตกเพียงดิน"}},{"type":"Feature","geometry":{"type":"Point","coordinates":[101.74799,17.06603]},"properties":{"name":"น้ำตกสวนห้อม","Long":"101.74799","Lat":"17.06603","NameT":"น้ำตกสวนห้อม"}},{"type":"Feature","geometry":{"type":"Point","coordinates":[101.7468833,16.87669472]},"properties":{"name":"น้ำตกสอเหนือ","Long":"101.746883","Lat":"16.876695","NameT":"น้ำตกสอเหนือ","NameE":"SO NUEA WATERFALL"}},{"type":"Feature","geometry":{"type":"Point","coordinates":[101.74249,12.91782]},"properties":{"name":"น้ำตกเขาชะเมา (น้ำตกคลองน้ำใส) ","Long":"101.74249","Lat":"12.91782","NameT":"น้ำตกเขาชะเมา (น้ำตกคลองน้ำใส)"}},{"type":"Feature","geometry":{"type":"Point","coordinates":[101.74249,12.91782]},"properties":{"name":"น้ำตกเขาชะเมา (น้ำตกคลองน้ำใส)","Long":"101.74249","Lat":"12.91782","NameT":"น้ำตกเขาชะเมา (น้ำตกคลองน้ำใส)"}},{"type":"Feature","geometry":{"type":"Point","coordinates":[101.73925,16.90538]},"properties":{"name":"น้ำตกขุนพอง","Long":"101.73925","Lat":"16.90538","NameT":"น้ำตกขุนพอง"}},{"type":"Feature","geometry":{"type":"Point","coordinates":[101.73925,16.90538]},"properties":{"name":"น้ำตกขุนพอง","Long":"101.73925","Lat":"16.90538","NameT":"น้ำตกขุนพอง"}},{"type":"Feature","geometry":{"type":"Point","coordinates":[101.7365512,14.54482916]},"properties":{"name":"น้ำตกคลองกุ่ม","Long":"101.736551","Lat":"14.544829","NameT":"น้ำตกคลองกุ่ม","NameE":"KHLONG KUM WATERFALL"}},{"type":"Feature","geometry":{"type":"Point","coordinates":[101.7281757,16.79778259]},"properties":{"name":"น้ำตกตาดฮอง","Long":"101.728176","Lat":"16.797783","NameT":"น้ำตกตาดฮอง","NameE":"TAT HONG WATERFALL"}},{"type":"Feature","geometry":{"type":"Point","coordinates":[101.72167,12.93122]},"properties":{"name":"น้ำตกคลองปลาก้าง","Long":"101.72167","Lat":"12.93122","NameT":"น้ำตกคลองปลาก้าง"}},{"type":"Feature","geometry":{"type":"Point","coordinates":[101.72167,12.93122]},"properties":{"name":"น้ำตกคลองปลาก้าง","Long":"101.72167","Lat":"12.93122","NameT":"น้ำตกคลองปลาก้าง"}},{"type":"Feature","geometry":{"type":"Point","coordinates":[101.7199284,12.93205095]},"properties":{"name":"น้ำตกคลองปลาก้าง","Long":"101.719928","Lat":"12.932051","NameT":"น้ำตกคลองปลาก้าง","NameE":"KHLONG PLA KANG WATERFALL"}},{"type":"Feature","geometry":{"type":"Point","coordinates":[101.71938,16.80346]},"properties":{"name":"น้ำตกตาดฮ้อง","Long":"101.71938","Lat":"16.80346","NameT":"น้ำตกตาดฮ้อง"}},{"type":"Feature","geometry":{"type":"Point","coordinates":[101.71938,16.80346]},"properties":{"name":"น้ำตกตาดฮ้อง","Long":"101.71938","Lat":"16.80346","NameT":"น้ำตกตาดฮ้อง"}},{"type":"Feature","geometry":{"type":"Point","coordinates":[101.713266,17.06498484]},"properties":{"name":"น้ำตกห้วยเลา","Long":"101.713266","Lat":"17.064985","NameT":"น้ำตกห้วยเลา","NameE":"HUAI LAO WATERFALL"}},{"type":"Feature","geometry":{"type":"Point","coordinates":[101.7125098,14.76214036]},"properties":{"name":"น้ำตกวะภูแก้ว","Long":"101.71251","Lat":"14.76214","NameT":"น้ำตกวะภูแก้ว","NameE":"WA PHU KAEO WATERFALL"}},{"type":"Feature","geometry":{"type":"Point","coordinates":[101.70897,17.06388]},"properties":{"name":"น้ำตกห้วยเลา","Long":"101.70897","Lat":"17.06388","NameT":"น้ำตกห้วยเลา"}},{"type":"Feature","geometry":{"type":"Point","coordinates":[101.70897,17.06388]},"properties":{"name":"น้ำตกห้วยเลา","Long":"101.70897","Lat":"17.06388","NameT":"น้ำตกห้วยเลา"}},{"type":"Feature","geometry":{"type":"Point","coordinates":[101.7081186,16.67198436]},"properties":{"name":"น้ำตกเหวทราย","Long":"101.708119","Lat":"16.671984","NameT":"น้ำตกเหวทราย","NameE":"HEO SAI WATERFALL"}},{"type":"Feature","geometry":{"type":"Point","coordinates":[101.7074856,16.67850296]},"properties":{"name":"น้ำตกทรายทอง","Long":"101.707486","Lat":"16.678503","NameT":"น้ำตกทรายทอง","NameE":"SAI THONG WATERFALL"}},{"type":"Feature","geometry":{"type":"Point","coordinates":[101.70002,16.67772]},"properties":{"name":"น้ำตกเหวทราย","Long":"101.70002","Lat":"16.67772","NameT":"น้ำตกเหวทราย"}},{"type":"Feature","geometry":{"type":"Point","coordinates":[101.70002,16.67772]},"properties":{"name":"น้ำตกเหวทราย","Long":"101.70002","Lat":"16.67772","NameT":"น้ำตกเหวทราย"}},{"type":"Feature","geometry":{"type":"Point","coordinates":[101.69458,16.68128]},"properties":{"name":"น้ำตกทรายทอง","Long":"101.69458","Lat":"16.68128","NameT":"น้ำตกทรายทอง"}},{"type":"Feature","geometry":{"type":"Point","coordinates":[101.69458,16.68128]},"properties":{"name":"น้ำตกทรายทอง","Long":"101.69458","Lat":"16.68128","NameT":"น้ำตกทรายทอง"}},{"type":"Feature","geometry":{"type":"Point","coordinates":[101.6920144,17.03843079]},"properties":{"name":"น้ำตกวิสุทธารา","Long":"101.692014","Lat":"17.038431","NameT":"น้ำตกวิสุทธารา","NameE":"WISUTTHARA WATERFALL"}},{"type":"Feature","geometry":{"type":"Point","coordinates":[101.6800768,14.1325468]},"properties":{"name":"น้ำตกหนองตะแบก","Long":"101.680077","Lat":"14.132547","NameT":"น้ำตกหนองตะแบก","NameE":"NONG TABAEK WATERFALL"}},{"type":"Feature","geometry":{"type":"Point","coordinates":[101.6794,13.65095]},"properties":{"name":"น้ำตกห้วยใหญ่","Long":"101.6794","Lat":"13.65095","NameT":"น้ำตกห้วยใหญ่"}},{"type":"Feature","geometry":{"type":"Point","coordinates":[101.6794,13.65095]},"properties":{"name":"น้ำตกห้วยใหญ่","Long":"101.6794","Lat":"13.65095","NameT":"น้ำตกห้วยใหญ่"}},{"type":"Feature","geometry":{"type":"Point","coordinates":[101.67225,15.87969]},"properties":{"name":"น้ำตกไทรทอง","Long":"101.67225","Lat":"15.87969","NameT":"น้ำตกไทรทอง"}},{"type":"Feature","geometry":{"type":"Point","coordinates":[101.67225,15.87969]},"properties":{"name":"น้ำตกไทรทอง","Long":"101.67225","Lat":"15.87969","NameT":"น้ำตกไทรทอง"}},{"type":"Feature","geometry":{"type":"Point","coordinates":[101.6703991,16.05802015]},"properties":{"name":"น้ำตกแก่งใหญ่","Long":"101.670399","Lat":"16.05802","NameT":"น้ำตกแก่งใหญ่","NameE":"KAENG YAI WATERFALL"}},{"type":"Feature","geometry":{"type":"Point","coordinates":[101.6649964,6.457197125]},"properties":{"name":"น้ำตกปาโจร","Long":"101.664996","Lat":"6.457197","NameT":"น้ำตกปาโจร","NameE":"PACHO WATERFALL"}},{"type":"Feature","geometry":{"type":"Point","coordinates":[101.65081,16.73939]},"properties":{"name":"น้ำตกตาดพรานบา","Long":"101.65081","Lat":"16.73939","NameT":"น้ำตกตาดพรานบา"}},{"type":"Feature","geometry":{"type":"Point","coordinates":[101.65081,16.73939]},"properties":{"name":"น้ำตกตาดพรานบา","Long":"101.65081","Lat":"16.73939","NameT":"น้ำตกตาดพรานบา"}},{"type":"Feature","geometry":{"type":"Point","coordinates":[101.6361464,6.266293114]},"properties":{"name":"น้ำตกซีโป","Long":"101.636146","Lat":"6.266293","NameT":"น้ำตกซีโป","NameE":"SI PO WATERFALL"}},{"type":"Feature","geometry":{"type":"Point","coordinates":[101.6256416,16.12837727]},"properties":{"name":"น้ำตกดาดาด","Long":"101.625642","Lat":"16.128377","NameT":"น้ำตกดาดาด","NameE":"DADAT WATERFALL"}},{"type":"Feature","geometry":{"type":"Point","coordinates":[101.6052756,14.20114335]},"properties":{"name":"น้ำตกแก่งสลัดได","Long":"101.605276","Lat":"14.201143","NameT":"น้ำตกแก่งสลัดได","NameE":"KAENG SALAT DAI WATERFALL"}},{"type":"Feature","geometry":{"type":"Point","coordinates":[101.5964453,14.18411607]},"properties":{"name":"น้ำตกตะคร้อ","Long":"101.596445","Lat":"14.184116","NameT":"น้ำตกตะคร้อ","NameE":"TAKHRO WATERFALL"}},{"type":"Feature","geometry":{"type":"Point","coordinates":[101.5886016,14.18220317]},"properties":{"name":"น้ำตกส้มป่อย","Long":"101.588602","Lat":"14.182203","NameT":"น้ำตกส้มป่อย","NameE":"SOM POI WATERFALL"}},{"type":"Feature","geometry":{"type":"Point","coordinates":[101.5707085,17.07791485]},"properties":{"name":"น้ำตกชื่นชีวัน","Long":"101.570708","Lat":"17.077915","NameT":"น้ำตกชื่นชีวัน","NameE":"CHUEN CHIWAN WATERFALL"}},{"type":"Feature","geometry":{"type":"Point","coordinates":[101.56754,17.07901]},"properties":{"name":"น้ำตกชื่นชีวัน","Long":"101.56754","Lat":"17.07901","NameT":"น้ำตกชื่นชีวัน"}},{"type":"Feature","geometry":{"type":"Point","coordinates":[101.56754,17.07901]},"properties":{"name":"น้ำตกชื่นชีวัน","Long":"101.56754","Lat":"17.07901","NameT":"น้ำตกชื่นชีวัน"}},{"type":"Feature","geometry":{"type":"Point","coordinates":[101.5454608,14.19453149]},"properties":{"name":"น้ำตกธารทิพย์","Long":"101.545461","Lat":"14.194531","NameT":"น้ำตกธารทิพย์","NameE":"THAN THIP WATERFALL"}},{"type":"Feature","geometry":{"type":"Point","coordinates":[101.5328586,15.96981618]},"properties":{"name":"น้ำตกคลองไทร","Long":"101.532859","Lat":"15.969816","NameT":"น้ำตกคลองไทร","NameE":"KHLONG SAI WATERFALL"}},{"type":"Feature","geometry":{"type":"Point","coordinates":[101.5314247,17.04965682]},"properties":{"name":"น้ำตกตาดกกทับ","Long":"101.531425","Lat":"17.049657","NameT":"น้ำตกตาดกกทับ","NameE":"TAT KOK THAP WATERFALL"}},{"type":"Feature","geometry":{"type":"Point","coordinates":[101.52348,14.37348]},"properties":{"name":"น้ำตกไม้ปล้อง","Long":"101.52348","Lat":"14.37348","NameT":"น้ำตกไม้ปล้อง"}},{"type":"Feature","geometry":{"type":"Point","coordinates":[101.52348,14.37348]},"properties":{"name":"น้ำตกไม้ปล้อง","Long":"101.52348","Lat":"14.37348","NameT":"น้ำตกไม้ปล้อง"}},{"type":"Feature","geometry":{"type":"Point","coordinates":[101.468544,17.5267092]},"properties":{"name":"น้ำตกห้วยไคร้","Long":"101.468544","Lat":"17.526709","NameT":"น้ำตกห้วยไคร้","NameE":"HUAI KHRAI WATERFALL"}},{"type":"Feature","geometry":{"type":"Point","coordinates":[101.4667162,14.16441526]},"properties":{"name":"น้ำตกวังบ่อ","Long":"101.466716","Lat":"14.164415","NameT":"น้ำตกวังบ่อ","NameE":"WANG BO WATERFALL"}},{"type":"Feature","geometry":{"type":"Point","coordinates":[101.46348,14.16484]},"properties":{"name":"น้ำตกวังบ่อ","Long":"101.46348","Lat":"14.16484","NameT":"น้ำตกวังบ่อ"}},{"type":"Feature","geometry":{"type":"Point","coordinates":[101.46348,14.16484]},"properties":{"name":"น้ำตกวังบ่อ","Long":"101.46348","Lat":"14.16484","NameT":"น้ำตกวังบ่อ"}},{"type":"Feature","geometry":{"type":"Point","coordinates":[101.4508343,14.16340898]},"properties":{"name":"น้ำตกห้วยเกษียร","Long":"101.450834","Lat":"14.163409","NameT":"น้ำตกห้วยเกษียร","NameE":"HUAI KASIAN WATERFALL"}},{"type":"Feature","geometry":{"type":"Point","coordinates":[101.4317654,13.00326236]},"properties":{"name":"น้ำตกธรรมรส","Long":"101.431765","Lat":"13.003262","NameT":"น้ำตกธรรมรส","NameE":"THAMMAROT WATERFALL"}},{"type":"Feature","geometry":{"type":"Point","coordinates":[101.43041,14.45383]},"properties":{"name":"น้ำตกเหวประทุน","Long":"101.43041","Lat":"14.45383","NameT":"น้ำตกเหวประทุน"}},{"type":"Feature","geometry":{"type":"Point","coordinates":[101.43041,14.45383]},"properties":{"name":"น้ำตกเหวประทุน","Long":"101.43041","Lat":"14.45383","NameT":"น้ำตกเหวประทุน"}},{"type":"Feature","geometry":{"type":"Point","coordinates":[101.42903,15.64723]},"properties":{"name":"น้ำตกเทพนา","Long":"101.42903","Lat":"15.64723","NameT":"น้ำตกเทพนา"}},{"type":"Feature","geometry":{"type":"Point","coordinates":[101.42903,15.64723]},"properties":{"name":"น้ำตกเทพนา","Long":"101.42903","Lat":"15.64723","NameT":"น้ำตกเทพนา"}},{"type":"Feature","geometry":{"type":"Point","coordinates":[101.419433,14.44311565]},"properties":{"name":"น้ำตกเหวประทุน","Long":"101.419433","Lat":"14.443116","NameT":"น้ำตกเหวประทุน","NameE":"HEO PRATHUN WATERFALL"}},{"type":"Feature","geometry":{"type":"Point","coordinates":[101.4188919,15.55594446]},"properties":{"name":"น้ำตกบ้านไร่เทพประทาน","Long":"101.418892","Lat":"15.555944","NameT":"น้ำตกบ้านไร่เทพประทาน","NameE":"BAN RAI THEP PRATHAN WATERFALL"}},{"type":"Feature","geometry":{"type":"Point","coordinates":[101.4172443,14.43380326]},"properties":{"name":"น้ำตกเหวสุวัต","Long":"101.417244","Lat":"14.433803","NameT":"น้ำตกเหวสุวัต","NameE":"HEO SUWAT WATERFALL"}},{"type":"Feature","geometry":{"type":"Point","coordinates":[101.4168076,14.43734688]},"properties":{"name":"น้ำตกเหวไทร","Long":"101.416808","Lat":"14.437347","NameT":"น้ำตกเหวไทร","NameE":"HEO SAI WATERFALL"}},{"type":"Feature","geometry":{"type":"Point","coordinates":[101.4167,14.4333]},"properties":{"name":"น้ำตกเทวสุว","Long":"101.4167","Lat":"14.4333","NameT":"น้ำตกเทวสุว"}},{"type":"Feature","geometry":{"type":"Point","coordinates":[101.4167,14.4333]},"properties":{"name":"น้ำตกเทวสุว","Long":"101.4167","Lat":"14.4333","NameT":"น้ำตกเทวสุว"}},{"type":"Feature","geometry":{"type":"Point","coordinates":[101.41626,15.55755]},"properties":{"name":"น้ำตกเทพประทาน","Long":"101.41626","Lat":"15.55755","NameT":"น้ำตกเทพประทาน"}},{"type":"Feature","geometry":{"type":"Point","coordinates":[101.41626,15.55755]},"properties":{"name":"น้ำตกเทพประทาน","Long":"101.41626","Lat":"15.55755","NameT":"น้ำตกเทพประทาน"}},{"type":"Feature","geometry":{"type":"Point","coordinates":[101.41545,14.43559]},"properties":{"name":"น้ำตกผากล้วยไม้","Long":"101.41545","Lat":"14.43559","NameT":"น้ำตกผากล้วยไม้"}},{"type":"Feature","geometry":{"type":"Point","coordinates":[101.41545,14.43559]},"properties":{"name":"น้ำตกผากล้วยไม้","Long":"101.41545","Lat":"14.43559","NameT":"น้ำตกผากล้วยไม้"}},{"type":"Feature","geometry":{"type":"Point","coordinates":[101.41354,14.43535]},"properties":{"name":"น้ำตกเหวสุวัต","Long":"101.41354","Lat":"14.43535","NameT":"น้ำตกเหวสุวัต"}},{"type":"Feature","geometry":{"type":"Point","coordinates":[101.41354,14.43535]},"properties":{"name":"น้ำตกเหวสุวัต","Long":"101.41354","Lat":"14.43535","NameT":"น้ำตกเหวสุวัต"}},{"type":"Feature","geometry":{"type":"Point","coordinates":[101.4127052,14.14986356]},"properties":{"name":"น้ำตกเขาอีโต้","Long":"101.412705","Lat":"14.149864","NameT":"น้ำตกเขาอีโต้","NameE":"KHAO I TO WATERFALL"}},{"type":"Feature","geometry":{"type":"Point","coordinates":[101.4112984,14.42600274]},"properties":{"name":"น้ำตกผากล้วยไม้","Long":"101.411298","Lat":"14.426003","NameT":"น้ำตกผากล้วยไม้","NameE":"PHA KLUAI MAI WATERFALL"}},{"type":"Feature","geometry":{"type":"Point","coordinates":[101.41035,14.15122]},"properties":{"name":"น้ำตกเขาอีโต้","Long":"101.41035","Lat":"14.15122","NameT":"น้ำตกเขาอีโต้"}},{"type":"Feature","geometry":{"type":"Point","coordinates":[101.41035,14.15122]},"properties":{"name":"น้ำตกเขาอีโต้","Long":"101.41035","Lat":"14.15122","NameT":"น้ำตกเขาอีโต้"}},{"type":"Feature","geometry":{"type":"Point","coordinates":[101.40953,17.35081]},"properties":{"name":"น้ำตกสองคอน","Long":"101.40953","Lat":"17.35081","NameT":"น้ำตกสองคอน"}},{"type":"Feature","geometry":{"type":"Point","coordinates":[101.40953,17.35081]},"properties":{"name":"น้ำตกสองคอน","Long":"101.40953","Lat":"17.35081","NameT":"น้ำตกสองคอน"}},{"type":"Feature","geometry":{"type":"Point","coordinates":[101.4037349,12.6758049]},"properties":{"name":"น้ำตกเขายายดา","Long":"101.403735","Lat":"12.675805","NameT":"น้ำตกเขายายดา","NameE":"KHAO YAI DA WATERFALL"}},{"type":"Feature","geometry":{"type":"Point","coordinates":[101.4,13.0167]},"properties":{"name":"น้ำตกธรรมรส","Long":"101.4","Lat":"13.0167","NameT":"น้ำตกธรรมรส"}},{"type":"Feature","geometry":{"type":"Point","coordinates":[101.4,13.0167]},"properties":{"name":"น้ำตกธรรมรส","Long":"101.4","Lat":"13.0167","NameT":"น้ำตกธรรมรส"}},{"type":"Feature","geometry":{"type":"Point","coordinates":[101.3991598,15.38321291]},"properties":{"name":"น้ำตกเทพประทาน","Long":"101.39916","Lat":"15.383213","NameT":"น้ำตกเทพประทาน","NameE":"THEP PRATHAN WATERFALL"}},{"type":"Feature","geometry":{"type":"Point","coordinates":[101.3958947,15.57987618]},"properties":{"name":"น้ำตกวังภราดร","Long":"101.395895","Lat":"15.579876","NameT":"น้ำตกวังภราดร","NameE":"WANG PHARADON WATERFALL"}},{"type":"Feature","geometry":{"type":"Point","coordinates":[101.3956804,14.28595224]},"properties":{"name":"น้ำตกเหวนรก","Long":"101.39568","Lat":"14.285952","NameT":"น้ำตกเหวนรก","NameE":"HEO NAROK WATERFALL"}},{"type":"Feature","geometry":{"type":"Point","coordinates":[101.39203,14.16629]},"properties":{"name":"น้ำตกไทรทอง","Long":"101.39203","Lat":"14.16629","NameT":"น้ำตกไทรทอง"}},{"type":"Feature","geometry":{"type":"Point","coordinates":[101.39203,14.16629]},"properties":{"name":"น้ำตกไทรทอง","Long":"101.39203","Lat":"14.16629","NameT":"น้ำตกไทรทอง"}},{"type":"Feature","geometry":{"type":"Point","coordinates":[101.38998,14.15621]},"properties":{"name":"น้ำตกไผ่ข้าวหลาม","Long":"101.38998","Lat":"14.15621","NameT":"น้ำตกไผ่ข้าวหลาม"}},{"type":"Feature","geometry":{"type":"Point","coordinates":[101.38998,14.15621]},"properties":{"name":"น้ำตกไผ่ข้าวหลาม","Long":"101.38998","Lat":"14.15621","NameT":"น้ำตกไผ่ข้าวหลาม"}},{"type":"Feature","geometry":{"type":"Point","coordinates":[101.3885,14.29546]},"properties":{"name":"น้ำตกเหวนรก","Long":"101.3885","Lat":"14.29546","NameT":"น้ำตกเหวนรก"}},{"type":"Feature","geometry":{"type":"Point","coordinates":[101.3885,14.29546]},"properties":{"name":"น้ำตกเหวนรก","Long":"101.3885","Lat":"14.29546","NameT":"น้ำตกเหวนรก"}},{"type":"Feature","geometry":{"type":"Point","coordinates":[101.3842954,14.24984649]},"properties":{"name":"น้ำตกธารรัตนา","Long":"101.384295","Lat":"14.249846","NameT":"น้ำตกธารรัตนา","NameE":"THAN RATTANA WATERFALL"}},{"type":"Feature","geometry":{"type":"Point","coordinates":[101.38157,14.25121]},"properties":{"name":"น้ำตกธารรัตนา","Long":"101.38157","Lat":"14.25121","NameT":"น้ำตกธารรัตนา"}},{"type":"Feature","geometry":{"type":"Point","coordinates":[101.38157,14.25121]},"properties":{"name":"น้ำตกธารรัตนา","Long":"101.38157","Lat":"14.25121","NameT":"น้ำตกธารรัตนา"}},{"type":"Feature","geometry":{"type":"Point","coordinates":[101.37828,16.373]},"properties":{"name":"น้ำตกตาดหมอกและน้ำตกสองนาง","Long":"101.37828","Lat":"16.373","NameT":"น้ำตกตาดหมอกและน้ำตกสองนาง"}},{"type":"Feature","geometry":{"type":"Point","coordinates":[101.37828,16.373]},"properties":{"name":"น้ำตกตาดหมอกและน้ำตกสองนาง","Long":"101.37828","Lat":"16.373","NameT":"น้ำตกตาดหมอกและน้ำตกสองนาง"}},{"type":"Feature","geometry":{"type":"Point","coordinates":[101.3764071,14.43729764]},"properties":{"name":"น้ำตกกองแก้ว","Long":"101.376407","Lat":"14.437298","NameT":"น้ำตกกองแก้ว","NameE":"KONG KAEO WATERFALL"}},{"type":"Feature","geometry":{"type":"Point","coordinates":[101.3747986,14.41046036]},"properties":{"name":"น้ำตกตาดตาภู่","Long":"101.374799","Lat":"14.41046","NameT":"น้ำตกตาดตาภู่","NameE":"TAT TA PHU WATERFALL"}},{"type":"Feature","geometry":{"type":"Point","coordinates":[101.3741877,17.39025158]},"properties":{"name":"น้ำตกปลาบ่า","Long":"101.374188","Lat":"17.390252","NameT":"น้ำตกปลาบ่า","NameE":"PLA BA WATERFALL"}},{"type":"Feature","geometry":{"type":"Point","coordinates":[101.37417,17.38854]},"properties":{"name":"น้ำตกปลาบ่า","Long":"101.37417","Lat":"17.38854","NameT":"น้ำตกปลาบ่า"}},{"type":"Feature","geometry":{"type":"Point","coordinates":[101.37417,17.38854]},"properties":{"name":"น้ำตกปลาบ่า","Long":"101.37417","Lat":"17.38854","NameT":"น้ำตกปลาบ่า"}},{"type":"Feature","geometry":{"type":"Point","coordinates":[101.3667,14.7333]},"properties":{"name":"น้ำตกหลังเห","Long":"101.3667","Lat":"14.7333","NameT":"น้ำตกหลังเห"}},{"type":"Feature","geometry":{"type":"Point","coordinates":[101.3667,14.7333]},"properties":{"name":"น้ำตกหลังเห","Long":"101.3667","Lat":"14.7333","NameT":"น้ำตกหลังเห"}},{"type":"Feature","geometry":{"type":"Point","coordinates":[101.3619977,6.314183808]},"properties":{"name":"น้ำตกกือลอง (น้ำตกสุทาลั","Long":"101.361998","Lat":"6.314184","NameT":"น้ำตกกือลอง (น้ำตกสุทาลั","NameE":"KUE LONG WATERFALL (SUTHALAI WATERFALL)"}},{"type":"Feature","geometry":{"type":"Point","coordinates":[101.3489149,14.36215783]},"properties":{"name":"น้ำตกผาตะแบก","Long":"101.348915","Lat":"14.362158","NameT":"น้ำตกผาตะแบก","NameE":"PHA TABAEK WATERFALL"}},{"type":"Feature","geometry":{"type":"Point","coordinates":[101.3479002,15.25862798]},"properties":{"name":"น้ำตกวังแสนดี","Long":"101.3479","Lat":"15.258628","NameT":"น้ำตกวังแสนดี","NameE":"WANG SAEN DI WATERFALL"}},{"type":"Feature","geometry":{"type":"Point","coordinates":[101.3471733,14.2372475]},"properties":{"name":"น้ำตกวังม่วง","Long":"101.347173","Lat":"14.237248","NameT":"น้ำตกวังม่วง","NameE":"WANG MUANG WATERFALL"}},{"type":"Feature","geometry":{"type":"Point","coordinates":[101.346828,6.42489077]},"properties":{"name":"น้ำตกตะวันรัศมี (น้ำตกบู","Long":"101.346828","Lat":"6.424891","NameT":"น้ำตกตะวันรัศมี (น้ำตกบู","NameE":"TAWAN RATSAMI WATERFALL (BU KE PI LO WATERFALL)"}},{"type":"Feature","geometry":{"type":"Point","coordinates":[101.3243362,14.33075982]},"properties":{"name":"น้ำตกนางรอง","Long":"101.324336","Lat":"14.33076","NameT":"น้ำตกนางรอง","NameE":"NANG RONG WATERFALL"}},{"type":"Feature","geometry":{"type":"Point","coordinates":[101.3231513,17.42048495]},"properties":{"name":"น้ำตกตาดสาน","Long":"101.323151","Lat":"17.420485","NameT":"น้ำตกตาดสาน","NameE":"TAT SAN WATERFALL"}},{"type":"Feature","geometry":{"type":"Point","coordinates":[101.30953,16.3493828]},"properties":{"name":"น้ำตกตาดหมอก","Long":"101.30953","Lat":"16.349383","NameT":"น้ำตกตาดหมอก","NameE":"TAT MOK WATERFALL"}},{"type":"Feature","geometry":{"type":"Point","coordinates":[101.3,17.05]},"properties":{"name":"น้ำตกตาดหมอ","Long":"101.3","Lat":"17.05","NameT":"น้ำตกตาดหมอ"}},{"type":"Feature","geometry":{"type":"Point","coordinates":[101.3,17.05]},"properties":{"name":"น้ำตกตาดหมอ","Long":"101.3","Lat":"17.05","NameT":"น้ำตกตาดหมอ"}},{"type":"Feature","geometry":{"type":"Point","coordinates":[101.2992794,15.7779008]},"properties":{"name":"น้ำตกซับผุด","Long":"101.299279","Lat":"15.777901","NameT":"น้ำตกซับผุด","NameE":"SAP PHUT WATERFALL"}},{"type":"Feature","geometry":{"type":"Point","coordinates":[101.29708,15.78052]},"properties":{"name":"น้ำตกซับผุด","Long":"101.29708","Lat":"15.78052","NameT":"น้ำตกซับผุด"}},{"type":"Feature","geometry":{"type":"Point","coordinates":[101.29708,15.78052]},"properties":{"name":"น้ำตกซับผุด","Long":"101.29708","Lat":"15.78052","NameT":"น้ำตกซับผุด"}},{"type":"Feature","geometry":{"type":"Point","coordinates":[101.2702967,16.35360076]},"properties":{"name":"น้ำตกธาราเอราวัณ","Long":"101.270297","Lat":"16.353601","NameT":"น้ำตกธาราเอราวัณ","NameE":"THARA ERAWAN WATERFALL"}},{"type":"Feature","geometry":{"type":"Point","coordinates":[101.2686445,17.50863525]},"properties":{"name":"น้ำตกแก่งสุข","Long":"101.268644","Lat":"17.508635","NameT":"น้ำตกแก่งสุข","NameE":"KAENG SUK WATERFALL"}},{"type":"Feature","geometry":{"type":"Point","coordinates":[101.2578779,14.30635895]},"properties":{"name":"น้ำตกสาริกา","Long":"101.257878","Lat":"14.306359","NameT":"น้ำตกสาริกา","NameE":"SARIKA WATERFALL"}},{"type":"Feature","geometry":{"type":"Point","coordinates":[101.2521161,14.29030526]},"properties":{"name":"น้ำตกลานรัก","Long":"101.252116","Lat":"14.290305","NameT":"น้ำตกลานรัก","NameE":"LANRAK WATERFALL"}},{"type":"Feature","geometry":{"type":"Point","coordinates":[101.2193882,14.91859098]},"properties":{"name":"น้ำตกสวนมะเดื่อ","Long":"101.219388","Lat":"14.918591","NameT":"น้ำตกสวนมะเดื่อ","NameE":"SUAN MADUEA WATERFALL"}},{"type":"Feature","geometry":{"type":"Point","coordinates":[101.21604,14.92005]},"properties":{"name":"น้ำตกสวนมะเดื่อ","Long":"101.21604","Lat":"14.92005","NameT":"น้ำตกสวนมะเดื่อ"}},{"type":"Feature","geometry":{"type":"Point","coordinates":[101.21604,14.92005]},"properties":{"name":"น้ำตกสวนมะเดื่อ","Long":"101.21604","Lat":"14.92005","NameT":"น้ำตกสวนมะเดื่อ"}},{"type":"Feature","geometry":{"type":"Point","coordinates":[101.2073839,14.64142138]},"properties":{"name":"น้ำตกมวกเหล็ก","Long":"101.207384","Lat":"14.641421","NameT":"น้ำตกมวกเหล็ก","NameE":"MUAK LEK WATERFALL"}},{"type":"Feature","geometry":{"type":"Point","coordinates":[101.20494,14.6435]},"properties":{"name":"น้ำตกมวกเหล็ก","Long":"101.20494","Lat":"14.6435","NameT":"น้ำตกมวกเหล็ก"}},{"type":"Feature","geometry":{"type":"Point","coordinates":[101.20494,14.6435]},"properties":{"name":"น้ำตกมวกเหล็ก","Long":"101.20494","Lat":"14.6435","NameT":"น้ำตกมวกเหล็ก"}},{"type":"Feature","geometry":{"type":"Point","coordinates":[101.2025868,19.19157846]},"properties":{"name":"น้ำตกสะปัน","Long":"101.202587","Lat":"19.191578","NameT":"น้ำตกสะปัน","NameE":"SAPAN WATERFALL"}},{"type":"Feature","geometry":{"type":"Point","coordinates":[101.2003171,14.74818567]},"properties":{"name":"น้ำตกปากคลอง","Long":"101.200317","Lat":"14.748186","NameT":"น้ำตกปากคลอง","NameE":"PAK KHLONG WATERFALL"}},{"type":"Feature","geometry":{"type":"Point","coordinates":[101.198461,14.45731629]},"properties":{"name":"น้ำตกโกรกอีดก","Long":"101.198461","Lat":"14.457316","NameT":"น้ำตกโกรกอีดก","NameE":"KROK IDOK WATERFALL"}},{"type":"Feature","geometry":{"type":"Point","coordinates":[101.195509,14.73438556]},"properties":{"name":"น้ำตกดงพญาเย็น","Long":"101.195509","Lat":"14.734386","NameT":"น้ำตกดงพญาเย็น","NameE":"DONG PHAYA YEN WATERFALL"}},{"type":"Feature","geometry":{"type":"Point","coordinates":[101.19453,13.64872]},"properties":{"name":"น้ำตกห้วยขมิ้น","Long":"101.19453","Lat":"13.64872","NameT":"น้ำตกห้วยขมิ้น"}},{"type":"Feature","geometry":{"type":"Point","coordinates":[101.19453,13.64872]},"properties":{"name":"น้ำตกห้วยขมิ้น","Long":"101.19453","Lat":"13.64872","NameT":"น้ำตกห้วยขมิ้น"}},{"type":"Feature","geometry":{"type":"Point","coordinates":[101.1945297,14.74186853]},"properties":{"name":"น้ำตกสาวน้อยชัยปิติ","Long":"101.19453","Lat":"14.741869","NameT":"น้ำตกสาวน้อยชัยปิติ","NameE":"SAO NOI CHAIPITI WATERFALL"}},{"type":"Feature","geometry":{"type":"Point","coordinates":[101.1944215,14.73203449]},"properties":{"name":"น้ำตกเกาะสีชัง","Long":"101.194422","Lat":"14.732034","NameT":"น้ำตกเกาะสีชัง","NameE":"KO SI CHANG WATERFALL"}},{"type":"Feature","geometry":{"type":"Point","coordinates":[101.19304,14.73459]},"properties":{"name":"น้ำตกดงพญาเย็น","Long":"101.19304","Lat":"14.73459","NameT":"น้ำตกดงพญาเย็น"}},{"type":"Feature","geometry":{"type":"Point","coordinates":[101.19304,14.73459]},"properties":{"name":"น้ำตกดงพญาเย็น","Long":"101.19304","Lat":"14.73459","NameT":"น้ำตกดงพญาเย็น"}},{"type":"Feature","geometry":{"type":"Point","coordinates":[101.1918079,14.71391533]},"properties":{"name":"น้ำตกไร่กุสุมา","Long":"101.191808","Lat":"14.713915","NameT":"น้ำตกไร่กุสุมา","NameE":"RAI KUSUMA WATERFALL"}},{"type":"Feature","geometry":{"type":"Point","coordinates":[101.19068,14.72489]},"properties":{"name":"น้ำตกเจ็ดสาวน้อย","Long":"101.19068","Lat":"14.72489","NameT":"น้ำตกเจ็ดสาวน้อย"}},{"type":"Feature","geometry":{"type":"Point","coordinates":[101.19068,14.72489]},"properties":{"name":"น้ำตกเจ็ดสาวน้อย","Long":"101.19068","Lat":"14.72489","NameT":"น้ำตกเจ็ดสาวน้อย"}},{"type":"Feature","geometry":{"type":"Point","coordinates":[101.1892138,5.995751124]},"properties":{"name":"น้ำตกละอองรุ้ง","Long":"101.189214","Lat":"5.995751","NameT":"น้ำตกละอองรุ้ง","NameE":"LA-ONG RUNG WATERFALL"}},{"type":"Feature","geometry":{"type":"Point","coordinates":[101.1704934,14.47121233]},"properties":{"name":"น้ำตกเจ็ดคต","Long":"101.170493","Lat":"14.471212","NameT":"น้ำตกเจ็ดคต","NameE":"CHET KHOT WATERFALL"}},{"type":"Feature","geometry":{"type":"Point","coordinates":[101.16937,14.48186]},"properties":{"name":"น้ำตกเจ็ดคตใหญ่","Long":"101.16937","Lat":"14.48186","NameT":"น้ำตกเจ็ดคตใหญ่"}},{"type":"Feature","geometry":{"type":"Point","coordinates":[101.16937,14.48186]},"properties":{"name":"น้ำตกเจ็ดคตใหญ่","Long":"101.16937","Lat":"14.48186","NameT":"น้ำตกเจ็ดคตใหญ่"}},{"type":"Feature","geometry":{"type":"Point","coordinates":[101.1614321,6.190506678]},"properties":{"name":"น้ำตกธารโต","Long":"101.161432","Lat":"6.190507","NameT":"น้ำตกธารโต","NameE":"THAN TO WATERFALL"}},{"type":"Feature","geometry":{"type":"Point","coordinates":[101.1547649,6.623544883]},"properties":{"name":"น้ำตกโผงโผง","Long":"101.154765","Lat":"6.623545","NameT":"น้ำตกโผงโผง","NameE":"PHONG PHONG WATERFALL"}},{"type":"Feature","geometry":{"type":"Point","coordinates":[101.1498057,6.639998943]},"properties":{"name":"น้ำตกอรัญวาริน","Long":"101.149806","Lat":"6.639999","NameT":"น้ำตกอรัญวาริน","NameE":"ARANYA WARIN WATERFALL"}},{"type":"Feature","geometry":{"type":"Point","coordinates":[101.1483752,14.89408395]},"properties":{"name":"น้ำตกป่าลานหินดาด","Long":"101.148375","Lat":"14.894084","NameT":"น้ำตกป่าลานหินดาด","NameE":"PA LAN HIN DAT WATERFALL"}},{"type":"Feature","geometry":{"type":"Point","coordinates":[101.14614,14.90937]},"properties":{"name":"น้ำตกสุขสำราญ","Long":"101.14614","Lat":"14.90937","NameT":"น้ำตกสุขสำราญ"}},{"type":"Feature","geometry":{"type":"Point","coordinates":[101.14614,14.90937]},"properties":{"name":"น้ำตกสุขสำราญ","Long":"101.14614","Lat":"14.90937","NameT":"น้ำตกสุขสำราญ"}},{"type":"Feature","geometry":{"type":"Point","coordinates":[101.1360325,14.34125997]},"properties":{"name":"น้ำตกกะอาง","Long":"101.136033","Lat":"14.34126","NameT":"น้ำตกกะอาง","NameE":"KA-ANG WATERFALL"}},{"type":"Feature","geometry":{"type":"Point","coordinates":[101.1288997,17.25938532]},"properties":{"name":"น้ำตกแก่งสองคอน","Long":"101.1289","Lat":"17.259385","NameT":"น้ำตกแก่งสองคอน","NameE":"KAENG SONG KHON WATERFALL"}},{"type":"Feature","geometry":{"type":"Point","coordinates":[101.12663,16.6545]},"properties":{"name":"น้ำตกธารทิพย์ (เขตอุทยานแห่งชา","Long":"101.12663","Lat":"16.6545","NameT":"น้ำตกธารทิพย์ (เขตอุทยานแห่งชา"}},{"type":"Feature","geometry":{"type":"Point","coordinates":[101.12663,16.6545]},"properties":{"name":"น้ำตกธารทิพย์ (เขตอุทยานแห่งชา","Long":"101.12663","Lat":"16.6545","NameT":"น้ำตกธารทิพย์ (เขตอุทยานแห่งชา"}},{"type":"Feature","geometry":{"type":"Point","coordinates":[101.1151551,15.11220838]},"properties":{"name":"น้ำตกวังก้านเหลือง","Long":"101.115155","Lat":"15.112208","NameT":"น้ำตกวังก้านเหลือง","NameE":"WANG KAN LUEANG WATERFALL"}},{"type":"Feature","geometry":{"type":"Point","coordinates":[101.11221,15.11249]},"properties":{"name":"น้ำตกวังก้านเหลือง","Long":"101.11221","Lat":"15.11249","NameT":"น้ำตกวังก้านเหลือง"}},{"type":"Feature","geometry":{"type":"Point","coordinates":[101.11221,15.11249]},"properties":{"name":"น้ำตกวังก้านเหลือง","Long":"101.11221","Lat":"15.11249","NameT":"น้ำตกวังก้านเหลือง"}},{"type":"Feature","geometry":{"type":"Point","coordinates":[101.1092716,14.87871299]},"properties":{"name":"น้ำตกป่าลานหินตัด","Long":"101.109272","Lat":"14.878713","NameT":"น้ำตกป่าลานหินตัด","NameE":"PA LAN HIN TAT WATERFALL"}},{"type":"Feature","geometry":{"type":"Point","coordinates":[101.1078224,19.5578089]},"properties":{"name":"น้ำตกวังเปียน","Long":"101.107822","Lat":"19.557809","NameT":"น้ำตกวังเปียน","NameE":"WANG PIAN WATERFALL"}},{"type":"Feature","geometry":{"type":"Point","coordinates":[101.1006514,14.44143852]},"properties":{"name":"น้ำตกบันดาล","Long":"101.100651","Lat":"14.441439","NameT":"น้ำตกบันดาล","NameE":"BAN DAN WATERFALL"}},{"type":"Feature","geometry":{"type":"Point","coordinates":[101.0990126,6.654246135]},"properties":{"name":"น้ำตกทรายขาว","Long":"101.099013","Lat":"6.654246","NameT":"น้ำตกทรายขาว","NameE":"SAI KHAO WATERFALL"}},{"type":"Feature","geometry":{"type":"Point","coordinates":[101.0979273,17.32305274]},"properties":{"name":"น้ำตกผาผึ้งผาจอม","Long":"101.097927","Lat":"17.323053","NameT":"น้ำตกผาผึ้งผาจอม","NameE":"PHA PHUENG PHA CHOM WATERFALL"}},{"type":"Feature","geometry":{"type":"Point","coordinates":[101.0857053,16.53997876]},"properties":{"name":"น้ำตกสามสิบคต","Long":"101.085705","Lat":"16.539979","NameT":"น้ำตกสามสิบคต","NameE":"SAM SIP KHOT WATERFALL"}},{"type":"Feature","geometry":{"type":"Point","coordinates":[101.0676972,16.95232645]},"properties":{"name":"น้ำตกหมันแดง","Long":"101.067697","Lat":"16.952326","NameT":"น้ำตกหมันแดง","NameE":"MAN DAENG WATERFALL"}},{"type":"Feature","geometry":{"type":"Point","coordinates":[101.06346,17.18372]},"properties":{"name":"น้ำตกแก่งโตน","Long":"101.06346","Lat":"17.18372","NameT":"น้ำตกแก่งโตน"}},{"type":"Feature","geometry":{"type":"Point","coordinates":[101.06346,17.18372]},"properties":{"name":"น้ำตกแก่งโตน","Long":"101.06346","Lat":"17.18372","NameT":"น้ำตกแก่งโตน"}},{"type":"Feature","geometry":{"type":"Point","coordinates":[101.06261,17.48828]},"properties":{"name":"น้ำตกธารสวรรค์","Long":"101.06261","Lat":"17.48828","NameT":"น้ำตกธารสวรรค์"}},{"type":"Feature","geometry":{"type":"Point","coordinates":[101.06261,17.48828]},"properties":{"name":"น้ำตกธารสวรรค์","Long":"101.06261","Lat":"17.48828","NameT":"น้ำตกธารสวรรค์"}},{"type":"Feature","geometry":{"type":"Point","coordinates":[101.0466391,13.23779048]},"properties":{"name":"น้ำตกชันตาเถร","Long":"101.046639","Lat":"13.23779","NameT":"น้ำตกชันตาเถร","NameE":"CHAN TA THEN WATERFALL"}},{"type":"Feature","geometry":{"type":"Point","coordinates":[101.0261275,16.86490249]},"properties":{"name":"น้ำตกสันติสุข","Long":"101.026128","Lat":"16.864902","NameT":"น้ำตกสันติสุข","NameE":"SANTI SUK WATERFALL"}},{"type":"Feature","geometry":{"type":"Point","coordinates":[101.0210769,16.99409566]},"properties":{"name":"น้ำตกร่มเกล้า-ภราดร","Long":"101.021077","Lat":"16.994096","NameT":"น้ำตกร่มเกล้า-ภราดร","NameE":"ROM KLAO-PHARADON WATERFALL"}},{"type":"Feature","geometry":{"type":"Point","coordinates":[101.0134772,16.9962875]},"properties":{"name":"น้ำตกห้วยขมิ้นน้อย","Long":"101.013477","Lat":"16.996288","NameT":"น้ำตกห้วยขมิ้นน้อย","NameE":"HUAI KHAMIN NOI WATERFALL"}},{"type":"Feature","geometry":{"type":"Point","coordinates":[100.9947,17.56126]},"properties":{"name":"น้ำตกตาดเหือง","Long":"100.9947","Lat":"17.56126","NameT":"น้ำตกตาดเหือง"}},{"type":"Feature","geometry":{"type":"Point","coordinates":[100.9947,17.56126]},"properties":{"name":"น้ำตกตาดเหือง","Long":"100.9947","Lat":"17.56126","NameT":"น้ำตกตาดเหือง"}},{"type":"Feature","geometry":{"type":"Point","coordinates":[100.9868759,14.42715669]},"properties":{"name":"น้ำตกแผงม้า","Long":"100.986876","Lat":"14.427157","NameT":"น้ำตกแผงม้า","NameE":"PHAENG MA WATERFALL"}},{"type":"Feature","geometry":{"type":"Point","coordinates":[100.9802195,14.43423889]},"properties":{"name":"น้ำตกโตนรากไทร","Long":"100.98022","Lat":"14.434239","NameT":"น้ำตกโตนรากไทร","NameE":"TON RAK SAI WATERFALL"}},{"type":"Feature","geometry":{"type":"Point","coordinates":[100.9792473,17.47540034]},"properties":{"name":"น้ำตกคิ้ง","Long":"100.979247","Lat":"17.4754","NameT":"น้ำตกคิ้ง","NameE":"KHING WATERFALL"}},{"type":"Feature","geometry":{"type":"Point","coordinates":[100.9757863,14.42727473]},"properties":{"name":"น้ำตกสามหลั่น","Long":"100.975786","Lat":"14.427275","NameT":"น้ำตกสามหลั่น","NameE":"SAM LAN WATERFALL"}},{"type":"Feature","geometry":{"type":"Point","coordinates":[100.9747316,17.47713158]},"properties":{"name":"น้ำตกช้างตก","Long":"100.974732","Lat":"17.477132","NameT":"น้ำตกช้างตก","NameE":"CHANG TOK WATERFALL"}},{"type":"Feature","geometry":{"type":"Point","coordinates":[100.970585,14.43959596]},"properties":{"name":"น้ำตกโพธิ์หินดาด","Long":"100.970585","Lat":"14.439596","NameT":"น้ำตกโพธิ์หินดาด","NameE":"PHO HIN DAT WATERFALL"}},{"type":"Feature","geometry":{"type":"Point","coordinates":[100.96584,14.43797]},"properties":{"name":"น้ำตกโพธิหินดาษ","Long":"100.96584","Lat":"14.43797","NameT":"น้ำตกโพธิหินดาษ"}},{"type":"Feature","geometry":{"type":"Point","coordinates":[100.96584,14.43797]},"properties":{"name":"น้ำตกโพธิหินดาษ","Long":"100.96584","Lat":"14.43797","NameT":"น้ำตกโพธิหินดาษ"}},{"type":"Feature","geometry":{"type":"Point","coordinates":[100.9656863,15.92749829]},"properties":{"name":"น้ำตกซับชมพู","Long":"100.965686","Lat":"15.927498","NameT":"น้ำตกซับชมพู","NameE":"SAP CHOMPHU WATERFALL"}},{"type":"Feature","geometry":{"type":"Point","coordinates":[100.9636537,17.47701665]},"properties":{"name":"น้ำตกวังตาด","Long":"100.963654","Lat":"17.477017","NameT":"น้ำตกวังตาด","NameE":"WANG TAT WATERFALL"}},{"type":"Feature","geometry":{"type":"Point","coordinates":[100.96323,14.44063]},"properties":{"name":"น้ำตกโตนรากไทร","Long":"100.96323","Lat":"14.44063","NameT":"น้ำตกโตนรากไทร"}},{"type":"Feature","geometry":{"type":"Point","coordinates":[100.96323,14.44063]},"properties":{"name":"น้ำตกโตนรากไทร","Long":"100.96323","Lat":"14.44063","NameT":"น้ำตกโตนรากไทร"}},{"type":"Feature","geometry":{"type":"Point","coordinates":[100.96188,14.43463]},"properties":{"name":"น้ำตกสามหลั่น","Long":"100.96188","Lat":"14.43463","NameT":"น้ำตกสามหลั่น"}},{"type":"Feature","geometry":{"type":"Point","coordinates":[100.96188,14.43463]},"properties":{"name":"น้ำตกสามหลั่น","Long":"100.96188","Lat":"14.43463","NameT":"น้ำตกสามหลั่น"}},{"type":"Feature","geometry":{"type":"Point","coordinates":[100.96149,15.92992]},"properties":{"name":"น้ำตกไทรงาม","Long":"100.96149","Lat":"15.92992","NameT":"น้ำตกไทรงาม"}},{"type":"Feature","geometry":{"type":"Point","coordinates":[100.96149,15.92992]},"properties":{"name":"น้ำตกไทรงาม","Long":"100.96149","Lat":"15.92992","NameT":"น้ำตกไทรงาม"}},{"type":"Feature","geometry":{"type":"Point","coordinates":[100.96102,15.92831]},"properties":{"name":"น้ำตกธารงาม","Long":"100.96102","Lat":"15.92831","NameT":"น้ำตกธารงาม"}},{"type":"Feature","geometry":{"type":"Point","coordinates":[100.96102,15.92831]},"properties":{"name":"น้ำตกธารงาม","Long":"100.96102","Lat":"15.92831","NameT":"น้ำตกธารงาม"}},{"type":"Feature","geometry":{"type":"Point","coordinates":[100.96032,15.93074]},"properties":{"name":"น้ำตกหินงาม","Long":"100.96032","Lat":"15.93074","NameT":"น้ำตกหินงาม"}},{"type":"Feature","geometry":{"type":"Point","coordinates":[100.96032,15.93074]},"properties":{"name":"น้ำตกหินงาม","Long":"100.96032","Lat":"15.93074","NameT":"น้ำตกหินงาม"}},{"type":"Feature","geometry":{"type":"Point","coordinates":[100.9557116,17.70378861]},"properties":{"name":"น้ำตกภูสอยดาว","Long":"100.955712","Lat":"17.703789","NameT":"น้ำตกภูสอยดาว","NameE":"PHU SOI DAO WATERFALL"}},{"type":"Feature","geometry":{"type":"Point","coordinates":[100.95562,17.70243]},"properties":{"name":"น้ำตกภูสอยดาว","Long":"100.95562","Lat":"17.70243","NameT":"น้ำตกภูสอยดาว"}},{"type":"Feature","geometry":{"type":"Point","coordinates":[100.95562,17.70243]},"properties":{"name":"น้ำตกภูสอยดาว","Long":"100.95562","Lat":"17.70243","NameT":"น้ำตกภูสอยดาว"}},{"type":"Feature","geometry":{"type":"Point","coordinates":[100.9543684,15.23200677]},"properties":{"name":"น้ำตกเตาต้น","Long":"100.954368","Lat":"15.232007","NameT":"น้ำตกเตาต้น","NameE":"TAO TON WATERFALL"}},{"type":"Feature","geometry":{"type":"Point","coordinates":[100.9532417,19.09315948]},"properties":{"name":"น้ำตกศิลาเพชร","Long":"100.953242","Lat":"19.093159","NameT":"น้ำตกศิลาเพชร","NameE":"SILA PHET WATERFALL"}},{"type":"Feature","geometry":{"type":"Point","coordinates":[100.95181,19.09427]},"properties":{"name":"น้ำตกศิลาเพชร","Long":"100.95181","Lat":"19.09427","NameT":"น้ำตกศิลาเพชร"}},{"type":"Feature","geometry":{"type":"Point","coordinates":[100.95181,19.09427]},"properties":{"name":"น้ำตกศิลาเพชร","Long":"100.95181","Lat":"19.09427","NameT":"น้ำตกศิลาเพชร"}},{"type":"Feature","geometry":{"type":"Point","coordinates":[100.9461551,19.04135778]},"properties":{"name":"น้ำตกตาดหลวง","Long":"100.946155","Lat":"19.041358","NameT":"น้ำตกตาดหลวง","NameE":"TAT LUANG WATERFALL"}},{"type":"Feature","geometry":{"type":"Point","coordinates":[100.9446697,19.07894151]},"properties":{"name":"น้ำตกวังต้นตอง","Long":"100.94467","Lat":"19.078942","NameT":"น้ำตกวังต้นตอง","NameE":"WANG TON TONG WATERFALL"}},{"type":"Feature","geometry":{"type":"Point","coordinates":[100.9426127,16.35405039]},"properties":{"name":"น้ำตกลาดค่า","Long":"100.942613","Lat":"16.35405","NameT":"น้ำตกลาดค่า","NameE":"LAT KHA WATERFALL"}},{"type":"Feature","geometry":{"type":"Point","coordinates":[100.9419633,17.03146114]},"properties":{"name":"น้ำตกผาลาด","Long":"100.941963","Lat":"17.031461","NameT":"น้ำตกผาลาด","NameE":"PHA LAT WATERFALL"}},{"type":"Feature","geometry":{"type":"Point","coordinates":[100.9415125,16.27948643]},"properties":{"name":"น้ำตกแสนสมบูรณ์","Long":"100.941513","Lat":"16.279486","NameT":"น้ำตกแสนสมบูรณ์","NameE":"SAEN SOMBUN WATERFALL"}},{"type":"Feature","geometry":{"type":"Point","coordinates":[100.9413535,16.62960682]},"properties":{"name":"น้ำตกศรีดิษฐ์","Long":"100.941354","Lat":"16.629607","NameT":"น้ำตกศรีดิษฐ์","NameE":"SI DIT WATERFALL"}},{"type":"Feature","geometry":{"type":"Point","coordinates":[100.93961,16.62984]},"properties":{"name":"น้ำตกศรีดิษฐ์","Long":"100.93961","Lat":"16.62984","NameT":"น้ำตกศรีดิษฐ์"}},{"type":"Feature","geometry":{"type":"Point","coordinates":[100.93961,16.62984]},"properties":{"name":"น้ำตกศรีดิษฐ์","Long":"100.93961","Lat":"16.62984","NameT":"น้ำตกศรีดิษฐ์"}},{"type":"Feature","geometry":{"type":"Point","coordinates":[100.9224348,16.95050558]},"properties":{"name":"น้ำตกแก่งลาค","Long":"100.922435","Lat":"16.950506","NameT":"น้ำตกแก่งลาค","NameE":"KAENG LAK WATERFALL"}},{"type":"Feature","geometry":{"type":"Point","coordinates":[100.91658,19.28414]},"properties":{"name":"น้ำตกผานางอิง","Long":"100.91658","Lat":"19.28414","NameT":"น้ำตกผานางอิง"}},{"type":"Feature","geometry":{"type":"Point","coordinates":[100.91658,19.28414]},"properties":{"name":"น้ำตกผานางอิง","Long":"100.91658","Lat":"19.28414","NameT":"น้ำตกผานางอิง"}},{"type":"Feature","geometry":{"type":"Point","coordinates":[100.8919,19.11455]},"properties":{"name":"น้ำตกตาดหลวง","Long":"100.8919","Lat":"19.11455","NameT":"น้ำตกตาดหลวง"}},{"type":"Feature","geometry":{"type":"Point","coordinates":[100.8919,19.11455]},"properties":{"name":"น้ำตกตาดหลวง","Long":"100.8919","Lat":"19.11455","NameT":"น้ำตกตาดหลวง"}},{"type":"Feature","geometry":{"type":"Point","coordinates":[100.8802694,16.39428757]},"properties":{"name":"น้ำตกนกนางแอ่น","Long":"100.880269","Lat":"16.394288","NameT":"น้ำตกนกนางแอ่น","NameE":"NOK NANG AEN WATERFALL"}},{"type":"Feature","geometry":{"type":"Point","coordinates":[100.8797464,16.39330078]},"properties":{"name":"น้ำตกสาละนิน","Long":"100.879746","Lat":"16.393301","NameT":"น้ำตกสาละนิน","NameE":"SALANIN WATERFALL"}},{"type":"Feature","geometry":{"type":"Point","coordinates":[100.8735082,16.38542488]},"properties":{"name":"น้ำตกบ่อย่า","Long":"100.873508","Lat":"16.385425","NameT":"น้ำตกบ่อย่า","NameE":"BO YA WATERFALL"}},{"type":"Feature","geometry":{"type":"Point","coordinates":[100.8702061,17.06153764]},"properties":{"name":"น้ำตกแก่งหัวแตก","Long":"100.870206","Lat":"17.061538","NameT":"น้ำตกแก่งหัวแตก","NameE":"KAENG HUA TAEK WATERFALL"}},{"type":"Feature","geometry":{"type":"Point","coordinates":[100.86687,17.06252]},"properties":{"name":"น้ำตกแก่งหัวแตก","Long":"100.86687","Lat":"17.06252","NameT":"น้ำตกแก่งหัวแตก"}},{"type":"Feature","geometry":{"type":"Point","coordinates":[100.86687,17.06252]},"properties":{"name":"น้ำตกแก่งหัวแตก","Long":"100.86687","Lat":"17.06252","NameT":"น้ำตกแก่งหัวแตก"}},{"type":"Feature","geometry":{"type":"Point","coordinates":[100.840725,16.86903048]},"properties":{"name":"น้ำตกแก่งโสภา","Long":"100.840725","Lat":"16.86903","NameT":"น้ำตกแก่งโสภา","NameE":"KAENG SOPHA WATERFALL"}},{"type":"Feature","geometry":{"type":"Point","coordinates":[100.8333,16.8667]},"properties":{"name":"น้ำตกแก่งโส","Long":"100.8333","Lat":"16.8667","NameT":"น้ำตกแก่งโส"}},{"type":"Feature","geometry":{"type":"Point","coordinates":[100.8333,16.8667]},"properties":{"name":"น้ำตกแก่งโส","Long":"100.8333","Lat":"16.8667","NameT":"น้ำตกแก่งโส"}},{"type":"Feature","geometry":{"type":"Point","coordinates":[100.7900525,19.28666108]},"properties":{"name":"น้ำตกตาดม่าน","Long":"100.790053","Lat":"19.286661","NameT":"น้ำตกตาดม่าน","NameE":"TAT MAN WATERFALL"}},{"type":"Feature","geometry":{"type":"Point","coordinates":[100.78926,19.29317]},"properties":{"name":"น้ำตกตาดม่าน","Long":"100.78926","Lat":"19.29317","NameT":"น้ำตกตาดม่าน"}},{"type":"Feature","geometry":{"type":"Point","coordinates":[100.78926,19.29317]},"properties":{"name":"น้ำตกตาดม่าน","Long":"100.78926","Lat":"19.29317","NameT":"น้ำตกตาดม่าน"}},{"type":"Feature","geometry":{"type":"Point","coordinates":[100.7558442,16.84437284]},"properties":{"name":"น้ำตกปอย","Long":"100.755844","Lat":"16.844373","NameT":"น้ำตกปอย","NameE":"POI WATERFALL"}},{"type":"Feature","geometry":{"type":"Point","coordinates":[100.75,16.8333]},"properties":{"name":"น้ำตกปอย","Long":"100.75","Lat":"16.8333","NameT":"น้ำตกปอย"}},{"type":"Feature","geometry":{"type":"Point","coordinates":[100.75,16.8333]},"properties":{"name":"น้ำตกปอย","Long":"100.75","Lat":"16.8333","NameT":"น้ำตกปอย"}},{"type":"Feature","geometry":{"type":"Point","coordinates":[100.74361,17.59991]},"properties":{"name":"น้ำตกคลองตรอน","Long":"100.74361","Lat":"17.59991","NameT":"น้ำตกคลองตรอน"}},{"type":"Feature","geometry":{"type":"Point","coordinates":[100.74361,17.59991]},"properties":{"name":"น้ำตกคลองตรอน","Long":"100.74361","Lat":"17.59991","NameT":"น้ำตกคลองตรอน"}},{"type":"Feature","geometry":{"type":"Point","coordinates":[100.7216632,17.62161103]},"properties":{"name":"น้ำตกคลองตรอน","Long":"100.721663","Lat":"17.621611","NameT":"น้ำตกคลองตรอน","NameE":"KHLONG TRON WATERFALL"}},{"type":"Feature","geometry":{"type":"Point","coordinates":[100.715447,19.129658]},"properties":{"name":"น้ำตกสันติสุข","Long":"100.715447","Lat":"19.129658","NameT":"น้ำตกสันติสุข","NameE":"SANTI SUK WATERFALL"}},{"type":"Feature","geometry":{"type":"Point","coordinates":[100.7060593,19.38372447]},"properties":{"name":"น้ำตกตาดทอง","Long":"100.706059","Lat":"19.383724","NameT":"น้ำตกตาดทอง","NameE":"TAT THONG WATERFALL"}},{"type":"Feature","geometry":{"type":"Point","coordinates":[100.7028686,17.29783867]},"properties":{"name":"น้ำตกชาติตระการ","Long":"100.702869","Lat":"17.297839","NameT":"น้ำตกชาติตระการ","NameE":"CHAT TRAKAN WATERFALL"}},{"type":"Feature","geometry":{"type":"Point","coordinates":[100.68256,17.29885]},"properties":{"name":"น้ำตกชาติตระการ","Long":"100.68256","Lat":"17.29885","NameT":"น้ำตกชาติตระการ"}},{"type":"Feature","geometry":{"type":"Point","coordinates":[100.68256,17.29885]},"properties":{"name":"น้ำตกชาติตระการ","Long":"100.68256","Lat":"17.29885","NameT":"น้ำตกชาติตระการ"}},{"type":"Feature","geometry":{"type":"Point","coordinates":[100.6558274,16.88606436]},"properties":{"name":"น้ำตกแก่งซาง","Long":"100.655827","Lat":"16.886064","NameT":"น้ำตกแก่งซาง","NameE":"KAENG SANG WATERFALL"}},{"type":"Feature","geometry":{"type":"Point","coordinates":[100.6505659,16.75226464]},"properties":{"name":"น้ำตกรักไทย","Long":"100.650566","Lat":"16.752265","NameT":"น้ำตกรักไทย","NameE":"RAK THAI WATERFALL"}},{"type":"Feature","geometry":{"type":"Point","coordinates":[100.6493688,19.12961915]},"properties":{"name":"น้ำตกนันทบุรี","Long":"100.649369","Lat":"19.129619","NameT":"น้ำตกนันทบุรี","NameE":"NANTHABURI WATERFALL"}},{"type":"Feature","geometry":{"type":"Point","coordinates":[100.6358319,18.86163282]},"properties":{"name":"น้ำตกสองแคว","Long":"100.635832","Lat":"18.861633","NameT":"น้ำตกสองแคว","NameE":"SONG KHWAE WATERFALL"}},{"type":"Feature","geometry":{"type":"Point","coordinates":[100.634954,16.86549932]},"properties":{"name":"น้ำตกแก่งซอง","Long":"100.634954","Lat":"16.865499","NameT":"น้ำตกแก่งซอง","NameE":"KAENG SONG WATERFALL"}},{"type":"Feature","geometry":{"type":"Point","coordinates":[100.6310859,18.76846786]},"properties":{"name":"น้ำตกดอยหมอก","Long":"100.631086","Lat":"18.768468","NameT":"น้ำตกดอยหมอก","NameE":"DOI MOK WATERFALL"}},{"type":"Feature","geometry":{"type":"Point","coordinates":[100.6278544,18.7203714]},"properties":{"name":"น้ำตกห้วยซ้อน","Long":"100.627854","Lat":"18.720371","NameT":"น้ำตกห้วยซ้อน","NameE":"HUAI SON WATERFALL"}},{"type":"Feature","geometry":{"type":"Point","coordinates":[100.5921349,6.596335357]},"properties":{"name":"น้ำตกโตนลาด","Long":"100.592135","Lat":"6.596335","NameT":"น้ำตกโตนลาด","NameE":"TON LAT WATERFALL"}},{"type":"Feature","geometry":{"type":"Point","coordinates":[100.5859811,6.574447074]},"properties":{"name":"น้ำตกพรุชิง","Long":"100.585981","Lat":"6.574447","NameT":"น้ำตกพรุชิง","NameE":"PHRU CHING WATERFALL"}},{"type":"Feature","geometry":{"type":"Point","coordinates":[100.5834847,19.39639603]},"properties":{"name":"น้ำตกห้วยหาด","Long":"100.583485","Lat":"19.396396","NameT":"น้ำตกห้วยหาด","NameE":"HUAI HAT WATERFALL"}},{"type":"Feature","geometry":{"type":"Point","coordinates":[100.5830508,18.88381843]},"properties":{"name":"น้ำตกสะเนียน","Long":"100.583051","Lat":"18.883818","NameT":"น้ำตกสะเนียน","NameE":"SANIAN WATERFALL"}},{"type":"Feature","geometry":{"type":"Point","coordinates":[100.5808806,6.595472271]},"properties":{"name":"น้ำตกโตนดาดฟ้า","Long":"100.580881","Lat":"6.595472","NameT":"น้ำตกโตนดาดฟ้า","NameE":"TON DAT FA WATERFALL"}},{"type":"Feature","geometry":{"type":"Point","coordinates":[100.5632348,15.33443098]},"properties":{"name":"น้ำตกวังน้ำวิ่ง","Long":"100.563235","Lat":"15.334431","NameT":"น้ำตกวังน้ำวิ่ง","NameE":"WANG NAM WING WATERFALL"}},{"type":"Feature","geometry":{"type":"Point","coordinates":[100.5606023,18.28284125]},"properties":{"name":"น้ำตกแมนสรวง","Long":"100.560602","Lat":"18.282841","NameT":"น้ำตกแมนสรวง","NameE":"MAEN SUANG WATERFALL"}},{"type":"Feature","geometry":{"type":"Point","coordinates":[100.55988,15.33598]},"properties":{"name":"น้ำตกวังน้ำวิ่ง","Long":"100.55988","Lat":"15.33598","NameT":"น้ำตกวังน้ำวิ่ง"}},{"type":"Feature","geometry":{"type":"Point","coordinates":[100.55988,15.33598]},"properties":{"name":"น้ำตกวังน้ำวิ่ง","Long":"100.55988","Lat":"15.33598","NameT":"น้ำตกวังน้ำวิ่ง"}},{"type":"Feature","geometry":{"type":"Point","coordinates":[100.5440761,19.36547382]},"properties":{"name":"น้ำตกเขาสะเกิน","Long":"100.544076","Lat":"19.365474","NameT":"น้ำตกเขาสะเกิน","NameE":"KHAO SAKOEN WATERFALL"}},{"type":"Feature","geometry":{"type":"Point","coordinates":[100.534602,16.83559263]},"properties":{"name":"น้ำตกสกุโณทยาน","Long":"100.534602","Lat":"16.835593","NameT":"น้ำตกสกุโณทยาน","NameE":"SAKUNO THAYAN WATERFALL"}},{"type":"Feature","geometry":{"type":"Point","coordinates":[100.5303239,17.09915715]},"properties":{"name":"น้ำตกถ้ำหมี","Long":"100.530324","Lat":"17.099157","NameT":"น้ำตกถ้ำหมี","NameE":"THAM MI WATERFALL"}},{"type":"Feature","geometry":{"type":"Point","coordinates":[100.5233381,18.2300431]},"properties":{"name":"น้ำตกหมอก","Long":"100.523338","Lat":"18.230043","NameT":"น้ำตกหมอก","NameE":"MOK WATERFALL"}},{"type":"Feature","geometry":{"type":"Point","coordinates":[100.523223,16.84320947]},"properties":{"name":"น้ำตกวังนกแอ่น (สวนรุกขช","Long":"100.523223","Lat":"16.843209","NameT":"น้ำตกวังนกแอ่น (สวนรุกขช","NameE":"WANG NOK AEN WATERFALL (SAKUNOTHAYAN ARBORETUM)"}},{"type":"Feature","geometry":{"type":"Point","coordinates":[100.51868,18.23183]},"properties":{"name":"น้ำตกตาดหมอก","Long":"100.51868","Lat":"18.23183","NameT":"น้ำตกตาดหมอก"}},{"type":"Feature","geometry":{"type":"Point","coordinates":[100.51868,18.23183]},"properties":{"name":"น้ำตกตาดหมอก","Long":"100.51868","Lat":"18.23183","NameT":"น้ำตกตาดหมอก"}},{"type":"Feature","geometry":{"type":"Point","coordinates":[100.5169565,20.05459475]},"properties":{"name":"น้ำตกห้วยติ้ว","Long":"100.516957","Lat":"20.054595","NameT":"น้ำตกห้วยติ้ว","NameE":"HUAI TIO WATERFALL"}},{"type":"Feature","geometry":{"type":"Point","coordinates":[100.4981475,18.21871621]},"properties":{"name":"น้ำตกวังพระง่าง","Long":"100.498148","Lat":"18.218716","NameT":"น้ำตกวังพระง่าง","NameE":"WANG PHRA NGANG WATERFALL"}},{"type":"Feature","geometry":{"type":"Point","coordinates":[100.4971297,20.00845205]},"properties":{"name":"น้ำตกตาดหมอก","Long":"100.49713","Lat":"20.008452","NameT":"น้ำตกตาดหมอก","NameE":"TAT MOK WATERFALL"}},{"type":"Feature","geometry":{"type":"Point","coordinates":[100.4934177,18.20532079]},"properties":{"name":"น้ำตกนางกวัก","Long":"100.493418","Lat":"18.205321","NameT":"น้ำตกนางกวัก","NameE":"NANG KWAK WATERFALL"}},{"type":"Feature","geometry":{"type":"Point","coordinates":[100.49238,18.20822]},"properties":{"name":"น้ำตกนางกวัก","Long":"100.49238","Lat":"18.20822","NameT":"น้ำตกนางกวัก"}},{"type":"Feature","geometry":{"type":"Point","coordinates":[100.49238,18.20822]},"properties":{"name":"น้ำตกนางกวัก","Long":"100.49238","Lat":"18.20822","NameT":"น้ำตกนางกวัก"}},{"type":"Feature","geometry":{"type":"Point","coordinates":[100.48295,19.41755]},"properties":{"name":"น้ำตกคะแนงขวา","Long":"100.48295","Lat":"19.41755","NameT":"น้ำตกคะแนงขวา"}},{"type":"Feature","geometry":{"type":"Point","coordinates":[100.48295,19.41755]},"properties":{"name":"น้ำตกคะแนงขวา","Long":"100.48295","Lat":"19.41755","NameT":"น้ำตกคะแนงขวา"}},{"type":"Feature","geometry":{"type":"Point","coordinates":[100.47648,19.43929]},"properties":{"name":"น้ำตกผาลาด","Long":"100.47648","Lat":"19.43929","NameT":"น้ำตกผาลาด"}},{"type":"Feature","geometry":{"type":"Point","coordinates":[100.47648,19.43929]},"properties":{"name":"น้ำตกผาลาด","Long":"100.47648","Lat":"19.43929","NameT":"น้ำตกผาลาด"}},{"type":"Feature","geometry":{"type":"Point","coordinates":[100.47625,19.414]},"properties":{"name":"น้ำตกคะแนงซ้าย","Long":"100.47625","Lat":"19.414","NameT":"น้ำตกคะแนงซ้าย"}},{"type":"Feature","geometry":{"type":"Point","coordinates":[100.47625,19.414]},"properties":{"name":"น้ำตกคะแนงซ้าย","Long":"100.47625","Lat":"19.414","NameT":"น้ำตกคะแนงซ้าย"}},{"type":"Feature","geometry":{"type":"Point","coordinates":[100.4728899,19.42318736]},"properties":{"name":"น้ำตกคะแนง","Long":"100.47289","Lat":"19.423187","NameT":"น้ำตกคะแนง","NameE":"KHANAENG WATERFALL"}},{"type":"Feature","geometry":{"type":"Point","coordinates":[100.4669014,18.91666859]},"properties":{"name":"น้ำตกห้วยพริกหลวง","Long":"100.466901","Lat":"18.916669","NameT":"น้ำตกห้วยพริกหลวง","NameE":"HUAI PHRIK LUANG WATERFALL"}},{"type":"Feature","geometry":{"type":"Point","coordinates":[100.4584577,16.93958692]},"properties":{"name":"น้ำตกแม่ตะเคียนทอง","Long":"100.458458","Lat":"16.939587","NameT":"น้ำตกแม่ตะเคียนทอง","NameE":"MAE TAKHIAN THONG WATERFALL"}},{"type":"Feature","geometry":{"type":"Point","coordinates":[100.453314,18.44050576]},"properties":{"name":"น้ำตกห้วยโรง","Long":"100.453314","Lat":"18.440506","NameT":"น้ำตกห้วยโรง","NameE":"HUAI RONG WATERFALL"}},{"type":"Feature","geometry":{"type":"Point","coordinates":[100.44994,18.44272]},"properties":{"name":"น้ำตกห้วยโรง","Long":"100.44994","Lat":"18.44272","NameT":"น้ำตกห้วยโรง"}},{"type":"Feature","geometry":{"type":"Point","coordinates":[100.44994,18.44272]},"properties":{"name":"น้ำตกห้วยโรง","Long":"100.44994","Lat":"18.44272","NameT":"น้ำตกห้วยโรง"}},{"type":"Feature","geometry":{"type":"Point","coordinates":[100.444166,17.14060575]},"properties":{"name":"น้ำตกแก่งเจ็ดแคว","Long":"100.444166","Lat":"17.140606","NameT":"น้ำตกแก่งเจ็ดแคว","NameE":"KAENG CHET KHWAE WATERFALL"}},{"type":"Feature","geometry":{"type":"Point","coordinates":[100.4429757,19.44758062]},"properties":{"name":"น้ำตกน้ำมิน","Long":"100.442976","Lat":"19.447581","NameT":"น้ำตกน้ำมิน","NameE":"NAM MIN WATERFALL"}},{"type":"Feature","geometry":{"type":"Point","coordinates":[100.4400687,17.14173899]},"properties":{"name":"น้ำตกแก่งไทร","Long":"100.440069","Lat":"17.141739","NameT":"น้ำตกแก่งไทร","NameE":"KAENG SAI WATERFALL"}},{"type":"Feature","geometry":{"type":"Point","coordinates":[100.43996,19.44708]},"properties":{"name":"น้ำตกน้ำมิน","Long":"100.43996","Lat":"19.44708","NameT":"น้ำตกน้ำมิน"}},{"type":"Feature","geometry":{"type":"Point","coordinates":[100.43996,19.44708]},"properties":{"name":"น้ำตกน้ำมิน","Long":"100.43996","Lat":"19.44708","NameT":"น้ำตกน้ำมิน"}},{"type":"Feature","geometry":{"type":"Point","coordinates":[100.43947,19.34635]},"properties":{"name":"น้ำตกวังพญานาค","Long":"100.43947","Lat":"19.34635","NameT":"น้ำตกวังพญานาค"}},{"type":"Feature","geometry":{"type":"Point","coordinates":[100.43947,19.34635]},"properties":{"name":"น้ำตกวังพญานาค","Long":"100.43947","Lat":"19.34635","NameT":"น้ำตกวังพญานาค"}},{"type":"Feature","geometry":{"type":"Point","coordinates":[100.4200974,17.17758069]},"properties":{"name":"น้ำตกน้ำโจน","Long":"100.420097","Lat":"17.177581","NameT":"น้ำตกน้ำโจน","NameE":"NAM CHON WATERFALL"}},{"type":"Feature","geometry":{"type":"Point","coordinates":[100.4049108,19.69482428]},"properties":{"name":"น้ำตกห้วยโป่งผา","Long":"100.404911","Lat":"19.694824","NameT":"น้ำตกห้วยโป่งผา","NameE":"HUAI PONG PHA WATERFALL"}},{"type":"Feature","geometry":{"type":"Point","coordinates":[100.39969,19.70192]},"properties":{"name":"น้ำตกห้วยโป่งผา","Long":"100.39969","Lat":"19.70192","NameT":"น้ำตกห้วยโป่งผา"}},{"type":"Feature","geometry":{"type":"Point","coordinates":[100.39969,19.70192]},"properties":{"name":"น้ำตกห้วยโป่งผา","Long":"100.39969","Lat":"19.70192","NameT":"น้ำตกห้วยโป่งผา"}},{"type":"Feature","geometry":{"type":"Point","coordinates":[100.39742,17.18672]},"properties":{"name":"น้ำตกสันตะเคียน","Long":"100.39742","Lat":"17.18672","NameT":"น้ำตกสันตะเคียน"}},{"type":"Feature","geometry":{"type":"Point","coordinates":[100.39742,17.18672]},"properties":{"name":"น้ำตกสันตะเคียน","Long":"100.39742","Lat":"17.18672","NameT":"น้ำตกสันตะเคียน"}},{"type":"Feature","geometry":{"type":"Point","coordinates":[100.3833,19.6667]},"properties":{"name":"น้ำตกภูซาง","Long":"100.3833","Lat":"19.6667","NameT":"น้ำตกภูซาง"}},{"type":"Feature","geometry":{"type":"Point","coordinates":[100.3833,19.6667]},"properties":{"name":"น้ำตกภูซาง","Long":"100.3833","Lat":"19.6667","NameT":"น้ำตกภูซาง"}},{"type":"Feature","geometry":{"type":"Point","coordinates":[100.3802887,19.66262963]},"properties":{"name":"น้ำตกภูซาง","Long":"100.380289","Lat":"19.66263","NameT":"น้ำตกภูซาง","NameE":"PHU SANG WATERFALL"}},{"type":"Feature","geometry":{"type":"Point","coordinates":[100.37911,19.66348]},"properties":{"name":"น้ำตกภูซางและบ่อซับน้ำอุ่น","Long":"100.37911","Lat":"19.66348","NameT":"น้ำตกภูซางและบ่อซับน้ำอุ่น"}},{"type":"Feature","geometry":{"type":"Point","coordinates":[100.37911,19.66348]},"properties":{"name":"น้ำตกภูซางและบ่อซับน้ำอุ่น","Long":"100.37911","Lat":"19.66348","NameT":"น้ำตกภูซางและบ่อซับน้ำอุ่น"}},{"type":"Feature","geometry":{"type":"Point","coordinates":[100.3578229,18.15834774]},"properties":{"name":"น้ำตกซาววา","Long":"100.357823","Lat":"18.158348","NameT":"น้ำตกซาววา","NameE":"SAO WA WATERFALL"}},{"type":"Feature","geometry":{"type":"Point","coordinates":[100.35105,20.29122]},"properties":{"name":"น้ำตกห้วยแม่สัก","Long":"100.35105","Lat":"20.29122","NameT":"น้ำตกห้วยแม่สัก"}},{"type":"Feature","geometry":{"type":"Point","coordinates":[100.35105,20.29122]},"properties":{"name":"น้ำตกห้วยแม่สัก","Long":"100.35105","Lat":"20.29122","NameT":"น้ำตกห้วยแม่สัก"}},{"type":"Feature","geometry":{"type":"Point","coordinates":[100.34938,19.99144]},"properties":{"name":"น้ำตกภูแกง","Long":"100.34938","Lat":"19.99144","NameT":"น้ำตกภูแกง"}},{"type":"Feature","geometry":{"type":"Point","coordinates":[100.34938,19.99144]},"properties":{"name":"น้ำตกภูแกง","Long":"100.34938","Lat":"19.99144","NameT":"น้ำตกภูแกง"}},{"type":"Feature","geometry":{"type":"Point","coordinates":[100.34808,20.29501]},"properties":{"name":"น้ำตกห้วยเม็ง","Long":"100.34808","Lat":"20.29501","NameT":"น้ำตกห้วยเม็ง"}},{"type":"Feature","geometry":{"type":"Point","coordinates":[100.34808,20.29501]},"properties":{"name":"น้ำตกห้วยเม็ง","Long":"100.34808","Lat":"20.29501","NameT":"น้ำตกห้วยเม็ง"}},{"type":"Feature","geometry":{"type":"Point","coordinates":[100.34771,20.00417]},"properties":{"name":"น้ำตกห้วยหก","Long":"100.34771","Lat":"20.00417","NameT":"น้ำตกห้วยหก"}},{"type":"Feature","geometry":{"type":"Point","coordinates":[100.34771,20.00417]},