{"type":"FeatureCollection","features":[{"type":"Feature","geometry":{"type":"Point","coordinates":[98.8533153,8.791028824]},"properties":{"name":"ธารน้ำร้อน","Long":"98.853315","Lat":"8.791029","NameT":"ธารน้ำร้อน","NameE":"THAN NAM RON"}},{"type":"Feature","geometry":{"type":"Point","coordinates":[99.24699741,13.51891093]},"properties":{"name":"ธารน้ำร้อนบ่อคลึง","Long":"99.246997","Lat":"13.518911","NameT":"ธารน้ำร้อนบ่อคลึง","NameE":"BO KHLUENG HOT WATER"}},{"type":"Feature","geometry":{"type":"Point","coordinates":[98.86627585,8.822382201]},"properties":{"name":"ธารน้ำวน","Long":"98.866276","Lat":"8.822382","NameT":"ธารน้ำวน","NameE":"THAN NAM WON"}},{"type":"Feature","geometry":{"type":"Point","coordinates":[101.8269286,16.57222713]},"properties":{"name":"น้ำผุดทับลาว","Long":"101.826929","Lat":"16.572227","NameT":"น้ำผุดทับลาว","NameE":"NAM PHUT TAP LAO"}},{"type":"Feature","geometry":{"type":"Point","coordinates":[101.9005858,16.59067246]},"properties":{"name":"น้ำผุดนาเลา","Long":"101.900586","Lat":"16.590672","NameT":"น้ำผุดนาเลา","NameE":"NAM PHUT NA LAO"}},{"type":"Feature","geometry":{"type":"Point","coordinates":[99.50075973,19.31816536]},"properties":{"name":"น้ำพุร้อนทุ่งเทวี","Long":"99.50076","Lat":"19.318165","NameT":"น้ำพุร้อนทุ่งเทวี","NameE":"THUNG THEWI HOT SPRING"}},{"type":"Feature","geometry":{"type":"Point","coordinates":[99.80194047,20.11610338]},"properties":{"name":"น้ำพุร้อนบ้านป่าตึง","Long":"99.80194","Lat":"20.116103","NameT":"น้ำพุร้อนบ้านป่าตึง","NameE":"BAN PA TUENG HOT SPRING"}},{"type":"Feature","geometry":{"type":"Point","coordinates":[99.09221428,19.71376572]},"properties":{"name":"น้ำพุร้อนบ้านใหม่หนองบั","Long":"99.092214","Lat":"19.713766","NameT":"น้ำพุร้อนบ้านใหม่หนองบั","NameE":"BAN MAI NONG BUA HOT SPRING"}},{"type":"Feature","geometry":{"type":"Point","coordinates":[98.68625587,19.24170383]},"properties":{"name":"น้ำพุร้อนโป่งเดือด","Long":"98.686256","Lat":"19.241704","NameT":"น้ำพุร้อนโป่งเดือด","NameE":"PONG DUEAT HOT SPRING"}},{"type":"Feature","geometry":{"type":"Point","coordinates":[99.83613132,19.97651759]},"properties":{"name":"น้ำพุร้อนโป่งพระบาท","Long":"99.836131","Lat":"19.976518","NameT":"น้ำพุร้อนโป่งพระบาท","NameE":"PONG PHRABAT HOT SPRING"}},{"type":"Feature","geometry":{"type":"Point","coordinates":[99.49738214,20.08421282]},"properties":{"name":"น้ำพุร้อนมะลิกา","Long":"99.497382","Lat":"20.084213","NameT":"น้ำพุร้อนมะลิกา","NameE":"MALIKA HOT SPRING"}},{"type":"Feature","geometry":{"type":"Point","coordinates":[98.3740923,19.21313513]},"properties":{"name":"น้ำพุร้อนเมืองแปง","Long":"98.374092","Lat":"19.213135","NameT":"น้ำพุร้อนเมืองแปง","NameE":"MUEANG PAENG HOT SPRING"}},{"type":"Feature","geometry":{"type":"Point","coordinates":[99.51836184,15.34005243]},"properties":{"name":"น้ำพุร้อนสมอทอง","Long":"99.518362","Lat":"15.340052","NameT":"น้ำพุร้อนสมอทอง","NameE":"SAMO THONG HOT SPRING"}},{"type":"Feature","geometry":{"type":"Point","coordinates":[98.76383033,14.54463005]},"properties":{"name":"น้ำพุร้อนหนองเจริญ","Long":"98.76383","Lat":"14.54463","NameT":"น้ำพุร้อนหนองเจริญ","NameE":"NONG CHAROEN HOT SPRING"}},{"type":"Feature","geometry":{"type":"Point","coordinates":[97.96311608,18.66563915]},"properties":{"name":"น้ำพุร้อนหนองแห้ง","Long":"97.963116","Lat":"18.665639","NameT":"น้ำพุร้อนหนองแห้ง","NameE":"NONG HAENG HOT SPRING"}},{"type":"Feature","geometry":{"type":"Point","coordinates":[98.74392556,14.62968245]},"properties":{"name":"น้ำพุร้อนหินดาด","Long":"98.743926","Lat":"14.629682","NameT":"น้ำพุร้อนหินดาด","NameE":"HIN DAT HOT SPRING"}},{"type":"Feature","geometry":{"type":"Point","coordinates":[101.23731,14.65629]},"properties":{"name":"น้ำผุด","Long":"101.23731","Lat":"14.65629","NameT":"น้ำผุด","NameE":"Nam Phu"}},{"type":"Feature","geometry":{"type":"Point","coordinates":[98.90218,8.37298]},"properties":{"name":"น้ำผุดเขาแก้ว","Long":"98.90218","Lat":"8.37298","NameT":"น้ำผุดเขาแก้ว","NameE":"Nam Phut Khao Kaeo"}},{"type":"Feature","geometry":{"type":"Point","coordinates":[101.90192,16.56571]},"properties":{"name":"น้ำผุดทราย","Long":"101.90192","Lat":"16.56571","NameT":"น้ำผุดทราย","NameE":"Nam Phut Sai"}},{"type":"Feature","geometry":{"type":"Point","coordinates":[101.85199,16.54388]},"properties":{"name":"น้ำผุดทับลาว","Long":"101.85199","Lat":"16.54388","NameT":"น้ำผุดทับลาว","NameE":"Nam Phut Thap Lao"}},{"type":"Feature","geometry":{"type":"Point","coordinates":[101.84924,16.6834]},"properties":{"name":"น้ำผุดธาตุเต่า","Long":"101.84924","Lat":"16.6834","NameT":"น้ำผุดธาตุเต่า","NameE":"Nam Phut That Tao"}},{"type":"Feature","geometry":{"type":"Point","coordinates":[101.89716,16.59221]},"properties":{"name":"น้ำผุดนาลาว","Long":"101.89716","Lat":"16.59221","NameT":"น้ำผุดนาลาว","NameE":"Nam Phut Na Lao"}},{"type":"Feature","geometry":{"type":"Point","coordinates":[101.86724,16.58147]},"properties":{"name":"น้ำผุดน้ำอูน","Long":"101.86724","Lat":"16.58147","NameT":"น้ำผุดน้ำอูน","NameE":"Nam Phut Nam Un"}},{"type":"Feature","geometry":{"type":"Point","coordinates":[101.89559,16.67699]},"properties":{"name":"น้ำผุดสามเเปป","Long":"101.89559","Lat":"16.67699","NameT":"น้ำผุดสามเเปป","NameE":"Nam Phut Sam Poep"}},{"type":"Feature","geometry":{"type":"Point","coordinates":[101.89991,16.5742]},"properties":{"name":"น้ำผุดหน้าวงเดือน","Long":"101.89991","Lat":"16.5742","NameT":"น้ำผุดหน้าวงเดือน","NameE":"Nam Phut Na Wong Duan"}},{"type":"Feature","geometry":{"type":"Point","coordinates":[101.89465,16.61572]},"properties":{"name":"น้ำผุดหินลาด","Long":"101.89465","Lat":"16.61572","NameT":"น้ำผุดหินลาด","NameE":"Nam Phut Hin Lat"}},{"type":"Feature","geometry":{"type":"Point","coordinates":[101.1202,15.11129]},"properties":{"name":"น้ำพุน้ำตกวังกันหลวง","Long":"101.1202","Lat":"15.11129","NameT":"น้ำพุน้ำตกวังกันหลวง","NameE":"Wang Kan Luang Waterfall Spring"}},{"type":"Feature","geometry":{"type":"Point","coordinates":[98.62784,16.86412]},"properties":{"name":"น้ำพุร้อนน้ำตกแม่กาษา","Long":"98.62784","Lat":"16.86412","NameT":"น้ำพุร้อนน้ำตกแม่กาษา","NameE":"Mae Kasa Waterfall Hot Spring"}},{"type":"Feature","geometry":{"type":"Point","coordinates":[98.63574,16.88564]},"properties":{"name":"น้ำพุร้อนแม่กาษา","Long":"98.63574","Lat":"16.88564","NameT":"น้ำพุร้อนแม่กาษา","NameE":"Mae Kasa Hot Spring"}},{"type":"Feature","geometry":{"type":"Point","coordinates":[99.10834,19.65775]},"properties":{"name":"น้ำรูตะเคียน","Long":"99.10834","Lat":"19.65775","NameT":"น้ำรูตะเคียน","NameE":"Nam Ru Takhien"}},{"type":"Feature","geometry":{"type":"Point","coordinates":[99.10452,19.65594]},"properties":{"name":"น้ำรูหลวง","Long":"99.10452","Lat":"19.65594","NameT":"น้ำรูหลวง","NameE":"Nam Ru Luang"}},{"type":"Feature","geometry":{"type":"Point","coordinates":[98.16787,19.53216]},"properties":{"name":"บ่อน้ำพี้","Long":"98.16787","Lat":"19.53216","NameT":"บ่อน้ำพี้","NameE":"Bor Nam Phi"}},{"type":"Feature","geometry":{"type":"Point","coordinates":[100.37419,19.66863]},"properties":{"name":"บ่อน้ำร้อนน้ำตกภูซาง","Long":"100.37419","Lat":"19.66863","NameT":"บ่อน้ำร้อนน้ำตกภูซาง","NameE":"Nam Tok Phu Sang Hot Spring"}},{"type":"Feature","geometry":{"type":"Point","coordinates":[101.84901,16.68366]},"properties":{"name":"น้ำผุดตาดเต่า","Long":"101.84901","Lat":"16.68366","NameT":"น้ำผุดตาดเต่า"}},{"type":"Feature","geometry":{"type":"Point","coordinates":[101.85186,16.54425]},"properties":{"name":"น้ำผุดทัพลาว","Long":"101.85186","Lat":"16.54425","NameT":"น้ำผุดทัพลาว"}},{"type":"Feature","geometry":{"type":"Point","coordinates":[101.89718,16.59233]},"properties":{"name":"น้ำผุดนาเลา","Long":"101.89718","Lat":"16.59233","NameT":"น้ำผุดนาเลา"}},{"type":"Feature","geometry":{"type":"Point","coordinates":[99.57919,17.94124]},"properties":{"name":"น้ำพร้อนปันเจน","Long":"99.57919","Lat":"17.94124","NameT":"น้ำพร้อนปันเจน"}},{"type":"Feature","geometry":{"type":"Point","coordinates":[99.08193,19.06933]},"properties":{"name":"น้ำพุเจ็ดสี","Long":"99.08193","Lat":"19.06933","NameT":"น้ำพุเจ็ดสี"}},{"type":"Feature","geometry":{"type":"Point","coordinates":[101.22701,15.8269]},"properties":{"name":"น้ำพุร้อน บ้านน้ำเดือด","Long":"101.22701","Lat":"15.8269","NameT":"น้ำพุร้อน บ้านน้ำเดือด"}},{"type":"Feature","geometry":{"type":"Point","coordinates":[101.04935,15.56158]},"properties":{"name":"น้ำพุร้อน บ้านพุขาม","Long":"101.04935","Lat":"15.56158","NameT":"น้ำพุร้อน บ้านพุขาม"}},{"type":"Feature","geometry":{"type":"Point","coordinates":[100.13363,7.44647]},"properties":{"name":"น้ำพุร้อนเขาชัยสน","Long":"100.13363","Lat":"7.44647","NameT":"น้ำพุร้อนเขาชัยสน"}},{"type":"Feature","geometry":{"type":"Point","coordinates":[99.18686,9.35318]},"properties":{"name":"น้ำพุร้อนเขาน้ำร้อนใน","Long":"99.18686","Lat":"9.35318","NameT":"น้ำพุร้อนเขาน้ำร้อนใน"}},{"type":"Feature","geometry":{"type":"Point","coordinates":[101.29623,15.1725]},"properties":{"name":"น้ำพุร้อนเขาสมโภชน์","Long":"101.29623","Lat":"15.1725","NameT":"น้ำพุร้อนเขาสมโภชน์"}},{"type":"Feature","geometry":{"type":"Point","coordinates":[99.00166,8.06724]},"properties":{"name":"น้ำพุร้อนคลองบ่อน้ำร้อน","Long":"99.00166","Lat":"8.06724","NameT":"น้ำพุร้อนคลองบ่อน้ำร้อน"}},{"type":"Feature","geometry":{"type":"Point","coordinates":[98.65602,9.89909]},"properties":{"name":"น้ำพุร้อนคลองบางริ้น","Long":"98.65602","Lat":"9.89909","NameT":"น้ำพุร้อนคลองบางริ้น"}},{"type":"Feature","geometry":{"type":"Point","coordinates":[98.46781,8.69168]},"properties":{"name":"น้ำพุร้อนคลองปลายพู่","Long":"98.46781","Lat":"8.69168","NameT":"น้ำพุร้อนคลองปลายพู่"}},{"type":"Feature","geometry":{"type":"Point","coordinates":[99.47202,18.83666]},"properties":{"name":"น้ำพุร้อนแจ้ซ้อน","Long":"99.47202","Lat":"18.83666","NameT":"น้ำพุร้อนแจ้ซ้อน"}},{"type":"Feature","geometry":{"type":"Point","coordinates":[99.24617,18.91024]},"properties":{"name":"น้ำพุร้อนดอยสะเก็ด","Long":"99.24617","Lat":"18.91024","NameT":"น้ำพุร้อนดอยสะเก็ด"}},{"type":"Feature","geometry":{"type":"Point","coordinates":[101.07384,6.14095]},"properties":{"name":"น้ำพุร้อนตะเนาะแมเราะ","Long":"101.07384","Lat":"6.14095","NameT":"น้ำพุร้อนตะเนาะแมเราะ"}},{"type":"Feature","geometry":{"type":"Point","coordinates":[99.0102,14.27011]},"properties":{"name":"น้ำพุร้อนท้องช้าง","Long":"99.0102","Lat":"14.27011","NameT":"น้ำพุร้อนท้องช้าง"}},{"type":"Feature","geometry":{"type":"Point","coordinates":[99.49688,19.32162]},"properties":{"name":"น้ำพุร้อนทุ่งเทวี","Long":"99.49688","Lat":"19.32162","NameT":"น้ำพุร้อนทุ่งเทวี"}},{"type":"Feature","geometry":{"type":"Point","coordinates":[98.39926,18.26854]},"properties":{"name":"น้ำพุร้อนเทพนม","Long":"98.39926","Lat":"18.26854","NameT":"น้ำพุร้อนเทพนม"}},{"type":"Feature","geometry":{"type":"Point","coordinates":[99.80462,20.21762]},"properties":{"name":"น้ำพุร้อนนาโป่ง","Long":"99.80462","Lat":"20.21762","NameT":"น้ำพุร้อนนาโป่ง"}},{"type":"Feature","geometry":{"type":"Point","coordinates":[99.67545,17.73075]},"properties":{"name":"น้ำพุร้อนบ่อน้ำร้อน","Long":"99.67545","Lat":"17.73075","NameT":"น้ำพุร้อนบ่อน้ำร้อน"}},{"type":"Feature","geometry":{"type":"Point","coordinates":[99.09495,8.03547]},"properties":{"name":"น้ำพุร้อนบางผึ้ง","Long":"99.09495","Lat":"8.03547","NameT":"น้ำพุร้อนบางผึ้ง"}},{"type":"Feature","geometry":{"type":"Point","coordinates":[100.96595,13.20698]},"properties":{"name":"น้ำพุร้อนบางพระ","Long":"100.96595","Lat":"13.20698","NameT":"น้ำพุร้อนบางพระ"}},{"type":"Feature","geometry":{"type":"Point","coordinates":[98.63193,9.90563]},"properties":{"name":"น้ำพุร้อนบางริ้น","Long":"98.63193","Lat":"9.90563","NameT":"น้ำพุร้อนบางริ้น"}},{"type":"Feature","geometry":{"type":"Point","coordinates":[99.27284,8.86556]},"properties":{"name":"น้ำพุร้อนบ้านเขาครู","Long":"99.27284","Lat":"8.86556","NameT":"น้ำพุร้อนบ้านเขาครู"}},{"type":"Feature","geometry":{"type":"Point","coordinates":[99.02821,9.02666]},"properties":{"name":"น้ำพุร้อนบ้านเขาน้อย","Long":"99.02821","Lat":"9.02666","NameT":"น้ำพุร้อนบ้านเขาน้อย"}},{"type":"Feature","geometry":{"type":"Point","coordinates":[99.03466,14.20863]},"properties":{"name":"น้ำพุร้อนบ้านเขาพัง","Long":"99.03466","Lat":"14.20863","NameT":"น้ำพุร้อนบ้านเขาพัง"}},{"type":"Feature","geometry":{"type":"Point","coordinates":[99.66798,7.26317]},"properties":{"name":"น้ำพุร้อนบ้านควนสระ","Long":"99.66798","Lat":"7.26317","NameT":"น้ำพุร้อนบ้านควนสระ"}},{"type":"Feature","geometry":{"type":"Point","coordinates":[99.36405,14.65591]},"properties":{"name":"น้ำพุร้อนบ้านต้นลำใย","Long":"99.36405","Lat":"14.65591","NameT":"น้ำพุร้อนบ้านต้นลำใย"}},{"type":"Feature","geometry":{"type":"Point","coordinates":[100.15884,6.84086]},"properties":{"name":"น้ำพุร้อนบ้านโตนปาหนัน","Long":"100.15884","Lat":"6.84086","NameT":"น้ำพุร้อนบ้านโตนปาหนัน"}},{"type":"Feature","geometry":{"type":"Point","coordinates":[98.63513,9.90291]},"properties":{"name":"น้ำพุร้อนบ้านทุ่งยอ","Long":"98.63513","Lat":"9.90291","NameT":"น้ำพุร้อนบ้านทุ่งยอ"}},{"type":"Feature","geometry":{"type":"Point","coordinates":[99.94679,7.3851]},"properties":{"name":"น้ำพุร้อนบ้านนาทุ่งโพธิ์","Long":"99.94679","Lat":"7.3851","NameT":"น้ำพุร้อนบ้านนาทุ่งโพธิ์"}},{"type":"Feature","geometry":{"type":"Point","coordinates":[98.76236,14.553]},"properties":{"name":"น้ำพุร้อนบ้านน้ำพุร้อน","Long":"98.76236","Lat":"14.553","NameT":"น้ำพุร้อนบ้านน้ำพุร้อน"}},{"type":"Feature","geometry":{"type":"Point","coordinates":[99.08342,13.92418]},"properties":{"name":"น้ำพุร้อนบ้านน้ำพุร้อน","Long":"99.08342","Lat":"13.92418","NameT":"น้ำพุร้อนบ้านน้ำพุร้อน"}},{"type":"Feature","geometry":{"type":"Point","coordinates":[99.19249,9.36199]},"properties":{"name":"น้ำพุร้อนบ้านน้ำพุร้อน","Long":"99.19249","Lat":"9.36199","NameT":"น้ำพุร้อนบ้านน้ำพุร้อน"}},{"type":"Feature","geometry":{"type":"Point","coordinates":[99.42095,13.26383]},"properties":{"name":"น้ำพุร้อนบ้านน้ำพุร้อน","Long":"99.42095","Lat":"13.26383","NameT":"น้ำพุร้อนบ้านน้ำพุร้อน"}},{"type":"Feature","geometry":{"type":"Point","coordinates":[99.577,14.78685]},"properties":{"name":"น้ำพุร้อนบ้านน้ำพุร้อน","Long":"99.577","Lat":"14.78685","NameT":"น้ำพุร้อนบ้านน้ำพุร้อน"}},{"type":"Feature","geometry":{"type":"Point","coordinates":[99.11185,7.90209]},"properties":{"name":"น้ำพุร้อนบ้านน้ำร้อน","Long":"99.11185","Lat":"7.90209","NameT":"น้ำพุร้อนบ้านน้ำร้อน"}},{"type":"Feature","geometry":{"type":"Point","coordinates":[101.18847,16.33113]},"properties":{"name":"น้ำพุร้อนบ้านน้ำร้อน","Long":"101.18847","Lat":"16.33113","NameT":"น้ำพุร้อนบ้านน้ำร้อน"}},{"type":"Feature","geometry":{"type":"Point","coordinates":[99.252,13.51651]},"properties":{"name":"น้ำพุร้อนบ้านบ่อคลึง","Long":"99.252","Lat":"13.51651","NameT":"น้ำพุร้อนบ้านบ่อคลึง"}},{"type":"Feature","geometry":{"type":"Point","coordinates":[98.27802,8.30453]},"properties":{"name":"น้ำพุร้อนบ้านบ่อดาน","Long":"98.27802","Lat":"8.30453","NameT":"น้ำพุร้อนบ้านบ่อดาน"}},{"type":"Feature","geometry":{"type":"Point","coordinates":[99.50174,9.13216]},"properties":{"name":"น้ำพุร้อนบ้านบ่อน้ำร้อน","Long":"99.50174","Lat":"9.13216","NameT":"น้ำพุร้อนบ้านบ่อน้ำร้อน"}},{"type":"Feature","geometry":{"type":"Point","coordinates":[99.21023,7.93273]},"properties":{"name":"น้ำพุร้อนบ้านบางคราม","Long":"99.21023","Lat":"7.93273","NameT":"น้ำพุร้อนบ้านบางคราม"}},{"type":"Feature","geometry":{"type":"Point","coordinates":[99.18649,19.23915]},"properties":{"name":"น้ำพุร้อนบ้านประดู่","Long":"99.18649","Lat":"19.23915","NameT":"น้ำพุร้อนบ้านประดู่"}},{"type":"Feature","geometry":{"type":"Point","coordinates":[99.17361,19.37199]},"properties":{"name":"น้ำพุร้อนบ้านโป่ง","Long":"99.17361","Lat":"19.37199","NameT":"น้ำพุร้อนบ้านโป่ง"}},{"type":"Feature","geometry":{"type":"Point","coordinates":[99.34523,18.22849]},"properties":{"name":"น้ำพุร้อนบ้านโป่งน้ำร้อน","Long":"99.34523","Lat":"18.22849","NameT":"น้ำพุร้อนบ้านโป่งน้ำร้อน"}},{"type":"Feature","geometry":{"type":"Point","coordinates":[98.92478,19.35943]},"properties":{"name":"น้ำพุร้อนบ้านโป่งโรงวัว","Long":"98.92478","Lat":"19.35943","NameT":"น้ำพุร้อนบ้านโป่งโรงวัว"}},{"type":"Feature","geometry":{"type":"Point","coordinates":[98.94851,19.5935]},"properties":{"name":"น้ำพุร้อนบ้านโป่งอ่าง","Long":"98.94851","Lat":"19.5935","NameT":"น้ำพุร้อนบ้านโป่งอ่าง"}},{"type":"Feature","geometry":{"type":"Point","coordinates":[98.64454,9.89116]},"properties":{"name":"น้ำพุร้อนบ้านพรรั้ง","Long":"98.64454","Lat":"9.89116","NameT":"น้ำพุร้อนบ้านพรรั้ง"}},{"type":"Feature","geometry":{"type":"Point","coordinates":[101.0524,15.54587]},"properties":{"name":"น้ำพุร้อนบ้านพุขาม","Long":"101.0524","Lat":"15.54587","NameT":"น้ำพุร้อนบ้านพุขาม"}},{"type":"Feature","geometry":{"type":"Point","coordinates":[101.06833,15.57229]},"properties":{"name":"น้ำพุร้อนบ้านพุเตย","Long":"101.06833","Lat":"15.57229","NameT":"น้ำพุร้อนบ้านพุเตย"}},{"type":"Feature","geometry":{"type":"Point","coordinates":[98.63906,16.88301]},"properties":{"name":"น้ำพุร้อนบ้านแม่กาษา","Long":"98.63906","Lat":"16.88301","NameT":"น้ำพุร้อนบ้านแม่กาษา"}},{"type":"Feature","geometry":{"type":"Point","coordinates":[98.92669,19.33232]},"properties":{"name":"น้ำพุร้อนบ้านยางทุ่งโป่ง","Long":"98.92669","Lat":"19.33232","NameT":"น้ำพุร้อนบ้านยางทุ่งโป่ง"}},{"type":"Feature","geometry":{"type":"Point","coordinates":[100.04874,7.69311]},"properties":{"name":"น้ำพุร้อนบ้านระหว่างควน","Long":"100.04874","Lat":"7.69311","NameT":"น้ำพุร้อนบ้านระหว่างควน"}},{"type":"Feature","geometry":{"type":"Point","coordinates":[99.98701,7.32754]},"properties":{"name":"น้ำพุร้อนบ้านโล๊ะจังกระ","Long":"99.98701","Lat":"7.32754","NameT":"น้ำพุร้อนบ้านโล๊ะจังกระ"}},{"type":"Feature","geometry":{"type":"Point","coordinates":[101.03553,15.42106]},"properties":{"name":"น้ำพุร้อนบ้านวังขาม","Long":"101.03553","Lat":"15.42106","NameT":"น้ำพุร้อนบ้านวังขาม"}},{"type":"Feature","geometry":{"type":"Point","coordinates":[99.41734,8.80155]},"properties":{"name":"น้ำพุร้อนบ้านวังหิน","Long":"99.41734","Lat":"8.80155","NameT":"น้ำพุร้อนบ้านวังหิน"}},{"type":"Feature","geometry":{"type":"Point","coordinates":[99.51879,15.33917]},"properties":{"name":"น้ำพุร้อนบ้านสมอทอง","Long":"99.51879","Lat":"15.33917","NameT":"น้ำพุร้อนบ้านสมอทอง"}},{"type":"Feature","geometry":{"type":"Point","coordinates":[99.89002,14.97181]},"properties":{"name":"น้ำพุร้อนบ้านสมอทอง","Long":"99.89002","Lat":"14.97181","NameT":"น้ำพุร้อนบ้านสมอทอง"}},{"type":"Feature","geometry":{"type":"Point","coordinates":[99.16652,19.25092]},"properties":{"name":"น้ำพุร้อนบ้านห้วยงู","Long":"99.16652","Lat":"19.25092","NameT":"น้ำพุร้อนบ้านห้วยงู"}},{"type":"Feature","geometry":{"type":"Point","coordinates":[98.99657,8.14601]},"properties":{"name":"น้ำพุร้อนบ้านห้วยยูงตก","Long":"98.99657","Lat":"8.14601","NameT":"น้ำพุร้อนบ้านห้วยยูงตก"}},{"type":"Feature","geometry":{"type":"Point","coordinates":[98.69495,10.05467]},"properties":{"name":"น้ำพุร้อนบ้านหาดยาย","Long":"98.69495","Lat":"10.05467","NameT":"น้ำพุร้อนบ้านหาดยาย"}},{"type":"Feature","geometry":{"type":"Point","coordinates":[99.57917,17.94131]},"properties":{"name":"น้ำพุร้อนปันเจน","Long":"99.57917","Lat":"17.94131","NameT":"น้ำพุร้อนปันเจน"}},{"type":"Feature","geometry":{"type":"Point","coordinates":[98.68574,19.24621]},"properties":{"name":"น้ำพุร้อนป่าแป๋","Long":"98.68574","Lat":"19.24621","NameT":"น้ำพุร้อนป่าแป๋"}},{"type":"Feature","geometry":{"type":"Point","coordinates":[98.98989,19.45739]},"properties":{"name":"น้ำพุร้อนปิงโค้ง","Long":"98.98989","Lat":"19.45739","NameT":"น้ำพุร้อนปิงโค้ง"}},{"type":"Feature","geometry":{"type":"Point","coordinates":[98.99333,19.45524]},"properties":{"name":"น้ำพุร้อนปิงโค้ง","Long":"98.99333","Lat":"19.45524","NameT":"น้ำพุร้อนปิงโค้ง"}},{"type":"Feature","geometry":{"type":"Point","coordinates":[99.40999,13.25791]},"properties":{"name":"น้ำพุร้อนโป่งกระทิง","Long":"99.40999","Lat":"13.25791","NameT":"น้ำพุร้อนโป่งกระทิง"}},{"type":"Feature","geometry":{"type":"Point","coordinates":[98.2645,19.24319]},"properties":{"name":"น้ำพุร้อนโป่งจ๊ะจา","Long":"98.2645","Lat":"19.24319","NameT":"น้ำพุร้อนโป่งจ๊ะจา"}},{"type":"Feature","geometry":{"type":"Point","coordinates":[99.72656,19.91757]},"properties":{"name":"น้ำพุร้อนโป่งนาคำ","Long":"99.72656","Lat":"19.91757","NameT":"น้ำพุร้อนโป่งนาคำ"}},{"type":"Feature","geometry":{"type":"Point","coordinates":[99.10966,18.1411]},"properties":{"name":"น้ำพุร้อนโป่งน้ำร้อน","Long":"99.10966","Lat":"18.1411","NameT":"น้ำพุร้อนโป่งน้ำร้อน"}},{"type":"Feature","geometry":{"type":"Point","coordinates":[99.27885,16.3331]},"properties":{"name":"น้ำพุร้อนโป่งน้ำร้อน","Long":"99.27885","Lat":"16.3331","NameT":"น้ำพุร้อนโป่งน้ำร้อน"}},{"type":"Feature","geometry":{"type":"Point","coordinates":[99.28762,18.37967]},"properties":{"name":"น้ำพุร้อนโป่งน้ำร้อน","Long":"99.28762","Lat":"18.37967","NameT":"น้ำพุร้อนโป่งน้ำร้อน"}},{"type":"Feature","geometry":{"type":"Point","coordinates":[99.69315,19.95522]},"properties":{"name":"น้ำพุร้อนโป่งน้ำร้อน","Long":"99.69315","Lat":"19.95522","NameT":"น้ำพุร้อนโป่งน้ำร้อน"}},{"type":"Feature","geometry":{"type":"Point","coordinates":[99.90472,18.02969]},"properties":{"name":"น้ำพุร้อนโป่งน้ำร้อน","Long":"99.90472","Lat":"18.02969","NameT":"น้ำพุร้อนโป่งน้ำร้อน"}},{"type":"Feature","geometry":{"type":"Point","coordinates":[102.37311,12.91548]},"properties":{"name":"น้ำพุร้อนโป่งน้ำร้อน","Long":"102.37311","Lat":"12.91548","NameT":"น้ำพุร้อนโป่งน้ำร้อน"}},{"type":"Feature","geometry":{"type":"Point","coordinates":[99.53409,19.64815]},"properties":{"name":"น้ำพุร้อนโป่งน้ำร้อน (ผาเสริฐ) ","Long":"99.53409","Lat":"19.64815","NameT":"น้ำพุร้อนโป่งน้ำร้อน (ผาเสริฐ)"}},{"type":"Feature","geometry":{"type":"Point","coordinates":[99.24545,18.90921]},"properties":{"name":"น้ำพุร้อนโป่งบัวบาน","Long":"99.24545","Lat":"18.90921","NameT":"น้ำพุร้อนโป่งบัวบาน"}},{"type":"Feature","geometry":{"type":"Point","coordinates":[98.45553,19.43587]},"properties":{"name":"น้ำพุร้อนโป่งปะ","Long":"98.45553","Lat":"19.43587","NameT":"น้ำพุร้อนโป่งปะ"}},{"type":"Feature","geometry":{"type":"Point","coordinates":[99.58304,19.71275]},"properties":{"name":"น้ำพุร้อนโป่งปู่เฟือง","Long":"99.58304","Lat":"19.71275","NameT":"น้ำพุร้อนโป่งปู่เฟือง"}},{"type":"Feature","geometry":{"type":"Point","coordinates":[99.83264,19.96248]},"properties":{"name":"น้ำพุร้อนโป่งพระบาท","Long":"99.83264","Lat":"19.96248","NameT":"น้ำพุร้อนโป่งพระบาท"}},{"type":"Feature","geometry":{"type":"Point","coordinates":[99.7167,20.00377]},"properties":{"name":"น้ำพุร้อนโป่งฟูเฟือง","Long":"99.7167","Lat":"20.00377","NameT":"น้ำพุร้อนโป่งฟูเฟือง"}},{"type":"Feature","geometry":{"type":"Point","coordinates":[99.16115,19.43979]},"properties":{"name":"น้ำพุร้อนโป่งเย็น","Long":"99.16115","Lat":"19.43979","NameT":"น้ำพุร้อนโป่งเย็น"}},{"type":"Feature","geometry":{"type":"Point","coordinates":[99.17242,19.43166]},"properties":{"name":"น้ำพุร้อนโป่งเย็น","Long":"99.17242","Lat":"19.43166","NameT":"น้ำพุร้อนโป่งเย็น"}},{"type":"Feature","geometry":{"type":"Point","coordinates":[99.70474,17.67901]},"properties":{"name":"น้ำพุร้อนโป่งลำปาง","Long":"99.70474","Lat":"17.67901","NameT":"น้ำพุร้อนโป่งลำปาง"}},{"type":"Feature","geometry":{"type":"Point","coordinates":[98.45798,19.43093]},"properties":{"name":"น้ำพุร้อนโป่งสัก","Long":"98.45798","Lat":"19.43093","NameT":"น้ำพุร้อนโป่งสัก"}},{"type":"Feature","geometry":{"type":"Point","coordinates":[98.44794,18.43046]},"properties":{"name":"น้ำพุร้อนโป่งเหม็น","Long":"98.44794","Lat":"18.43046","NameT":"น้ำพุร้อนโป่งเหม็น"}},{"type":"Feature","geometry":{"type":"Point","coordinates":[99.2677,18.40342]},"properties":{"name":"น้ำพุร้อนโป่งเหม็น","Long":"99.2677","Lat":"18.40342","NameT":"น้ำพุร้อนโป่งเหม็น"}},{"type":"Feature","geometry":{"type":"Point","coordinates":[98.47606,19.307]},"properties":{"name":"น้ำพุร้อนโป่งไหม้","Long":"98.47606","Lat":"19.307","NameT":"น้ำพุร้อนโป่งไหม้"}},{"type":"Feature","geometry":{"type":"Point","coordinates":[99.83302,19.97716]},"properties":{"name":"น้ำพุร้อนโปร่งพระบาท","Long":"99.83302","Lat":"19.97716","NameT":"น้ำพุร้อนโปร่งพระบาท"}},{"type":"Feature","geometry":{"type":"Point","coordinates":[97.98309,19.20841]},"properties":{"name":"น้ำพุร้อนผาบ่อง","Long":"97.98309","Lat":"19.20841","NameT":"น้ำพุร้อนผาบ่อง"}},{"type":"Feature","geometry":{"type":"Point","coordinates":[99.15674,19.96395]},"properties":{"name":"น้ำพุร้อนฝาง","Long":"99.15674","Lat":"19.96395","NameT":"น้ำพุร้อนฝาง"}},{"type":"Feature","geometry":{"type":"Point","coordinates":[98.64185,9.89423]},"properties":{"name":"น้ำพุร้อนพรรั้ง","Long":"98.64185","Lat":"9.89423","NameT":"น้ำพุร้อนพรรั้ง"}},{"type":"Feature","geometry":{"type":"Point","coordinates":[99.47016,16.65738]},"properties":{"name":"น้ำพุร้อนพระร่วง","Long":"99.47016","Lat":"16.65738","NameT":"น้ำพุร้อนพระร่วง"}},{"type":"Feature","geometry":{"type":"Point","coordinates":[97.95497,19.42357]},"properties":{"name":"น้ำพุร้อนภูโคลน","Long":"97.95497","Lat":"19.42357","NameT":"น้ำพุร้อนภูโคลน"}},{"type":"Feature","geometry":{"type":"Point","coordinates":[99.49832,20.08419]},"properties":{"name":"น้ำพุร้อนมะลิกา","Long":"99.49832","Lat":"20.08419","NameT":"น้ำพุร้อนมะลิกา"}},{"type":"Feature","geometry":{"type":"Point","coordinates":[98.37704,19.19056]},"properties":{"name":"น้ำพุร้อนเมืองแปง","Long":"98.37704","Lat":"19.19056","NameT":"น้ำพุร้อนเมืองแปง"}},{"type":"Feature","geometry":{"type":"Point","coordinates":[98.63574,16.88546]},"properties":{"name":"น้ำพุร้อนแม่กาษา","Long":"98.63574","Lat":"16.88546","NameT":"น้ำพุร้อนแม่กาษา"}},{"type":"Feature","geometry":{"type":"Point","coordinates":[99.63745,17.9785]},"properties":{"name":"น้ำพุร้อนแม่จอก","Long":"99.63745","Lat":"17.9785","NameT":"น้ำพุร้อนแม่จอก"}},{"type":"Feature","geometry":{"type":"Point","coordinates":[99.80125,20.11537]},"properties":{"name":"น้ำพุร้อนแม่จัน","Long":"99.80125","Lat":"20.11537","NameT":"น้ำพุร้อนแม่จัน"}},{"type":"Feature","geometry":{"type":"Point","coordinates":[99.79878,20.11811]},"properties":{"name":"น้ำพุร้อนแม่จัน (ป่าตึง) ","Long":"99.79878","Lat":"20.11811","NameT":"น้ำพุร้อนแม่จัน (ป่าตึง)"}},{"type":"Feature","geometry":{"type":"Point","coordinates":[98.38359,19.4551]},"properties":{"name":"น้ำพุร้อนแม่นะ","Long":"98.38359","Lat":"19.4551","NameT":"น้ำพุร้อนแม่นะ"}},{"type":"Feature","geometry":{"type":"Point","coordinates":[98.42349,19.45926]},"properties":{"name":"น้ำพุร้อนแม่นะ","Long":"98.42349","Lat":"19.45926","NameT":"น้ำพุร้อนแม่นะ"}},{"type":"Feature","geometry":{"type":"Point","coordinates":[97.99947,18.20541]},"properties":{"name":"น้ำพุร้อนแม่อุมลองหลวง","Long":"97.99947","Lat":"18.20541","NameT":"น้ำพุร้อนแม่อุมลองหลวง"}},{"type":"Feature","geometry":{"type":"Point","coordinates":[98.45637,19.34237]},"properties":{"name":"น้ำพุร้อนแม่ฮี้","Long":"98.45637","Lat":"19.34237","NameT":"น้ำพุร้อนแม่ฮี้"}},{"type":"Feature","geometry":{"type":"Point","coordinates":[97.96535,18.38928]},"properties":{"name":"น้ำพุร้อนแม่ฮุ","Long":"97.96535","Lat":"18.38928","NameT":"น้ำพุร้อนแม่ฮุ"}},{"type":"Feature","geometry":{"type":"Point","coordinates":[98.92259,19.36259]},"properties":{"name":"น้ำพุร้อนยางปูโต๊ะ","Long":"98.92259","Lat":"19.36259","NameT":"น้ำพุร้อนยางปูโต๊ะ"}},{"type":"Feature","geometry":{"type":"Point","coordinates":[99.68221,19.96032]},"properties":{"name":"น้ำพุร้อนยางผาเคียว","Long":"99.68221","Lat":"19.96032","NameT":"น้ำพุร้อนยางผาเคียว"}},{"type":"Feature","geometry":{"type":"Point","coordinates":[98.43502,8.82278]},"properties":{"name":"น้ำพุร้อนรมณีย์","Long":"98.43502","Lat":"8.82278","NameT":"น้ำพุร้อนรมณีย์"}},{"type":"Feature","geometry":{"type":"Point","coordinates":[99.26762,8.97316]},"properties":{"name":"น้ำพุร้อนรัตนโกสัย","Long":"99.26762","Lat":"8.97316","NameT":"น้ำพุร้อนรัตนโกสัย"}},{"type":"Feature","geometry":{"type":"Point","coordinates":[98.60069,9.71565]},"properties":{"name":"น้ำพุร้อนราชกรูด","Long":"98.60069","Lat":"9.71565","NameT":"น้ำพุร้อนราชกรูด"}},{"type":"Feature","geometry":{"type":"Point","coordinates":[99.11143,9.72504]},"properties":{"name":"น้ำพุร้อนละแม","Long":"99.11143","Lat":"9.72504","NameT":"น้ำพุร้อนละแม"}},{"type":"Feature","geometry":{"type":"Point","coordinates":[98.65486,9.95554]},"properties":{"name":"น้ำพุร้อนวัดตโปทาราม","Long":"98.65486","Lat":"9.95554","NameT":"น้ำพุร้อนวัดตโปทาราม"}},{"type":"Feature","geometry":{"type":"Point","coordinates":[99.20409,9.33105]},"properties":{"name":"น้ำพุร้อนวัดธารน้ำร้อน","Long":"99.20409","Lat":"9.33105","NameT":"น้ำพุร้อนวัดธารน้ำร้อน"}},{"type":"Feature","geometry":{"type":"Point","coordinates":[99.82913,18.09284]},"properties":{"name":"น้ำพุร้อนวัดสะแล่ง","Long":"99.82913","Lat":"18.09284","NameT":"น้ำพุร้อนวัดสะแล่ง"}},{"type":"Feature","geometry":{"type":"Point","coordinates":[99.25167,18.28197]},"properties":{"name":"น้ำพุร้อนเวียงเหนือ","Long":"99.25167","Lat":"18.28197","NameT":"น้ำพุร้อนเวียงเหนือ"}},{"type":"Feature","geometry":{"type":"Point","coordinates":[99.46491,19.11033]},"properties":{"name":"น้ำพุร้อนสบโป่ง","Long":"99.46491","Lat":"19.11033","NameT":"น้ำพุร้อนสบโป่ง"}},{"type":"Feature","geometry":{"type":"Point","coordinates":[98.65136,9.9584]},"properties":{"name":"น้ำพุร้อนสวนสาธารณะรักษะว","Long":"98.65136","Lat":"9.9584","NameT":"น้ำพุร้อนสวนสาธารณะรักษะว"}},{"type":"Feature","geometry":{"type":"Point","coordinates":[99.38817,18.81416]},"properties":{"name":"น้ำพุร้อนสันกำแพง","Long":"99.38817","Lat":"18.81416","NameT":"น้ำพุร้อนสันกำแพง"}},{"type":"Feature","geometry":{"type":"Point","coordinates":[99.15139,19.41848]},"properties":{"name":"น้ำพุร้อนหนองครก","Long":"99.15139","Lat":"19.41848","NameT":"น้ำพุร้อนหนองครก"}},{"type":"Feature","geometry":{"type":"Point","coordinates":[99.60145,13.15146]},"properties":{"name":"น้ำพุร้อนหนองหญ้าปล้อง","Long":"99.60145","Lat":"13.15146","NameT":"น้ำพุร้อนหนองหญ้าปล้อง"}},{"type":"Feature","geometry":{"type":"Point","coordinates":[99.02179,18.51984]},"properties":{"name":"น้ำพุร้อนหนองหล่ม","Long":"99.02179","Lat":"18.51984","NameT":"น้ำพุร้อนหนองหล่ม"}},{"type":"Feature","geometry":{"type":"Point","coordinates":[99.0585,18.47655]},"properties":{"name":"น้ำพุร้อนหนองหล่ม","Long":"99.0585","Lat":"18.47655","NameT":"น้ำพุร้อนหนองหล่ม"}},{"type":"Feature","geometry":{"type":"Point","coordinates":[97.94852,18.65428]},"properties":{"name":"น้ำพุร้อนหนองแห้ง","Long":"97.94852","Lat":"18.65428","NameT":"น้ำพุร้อนหนองแห้ง"}},{"type":"Feature","geometry":{"type":"Point","coordinates":[99.74632,19.63398]},"properties":{"name":"น้ำพุร้อนห้วยทรายขาว","Long":"99.74632","Lat":"19.63398","NameT":"น้ำพุร้อนห้วยทรายขาว"}},{"type":"Feature","geometry":{"type":"Point","coordinates":[98.66476,16.43477]},"properties":{"name":"น้ำพุร้อนห้วยน้ำนัก","Long":"98.66476","Lat":"16.43477","NameT":"น้ำพุร้อนห้วยน้ำนัก"}},{"type":"Feature","geometry":{"type":"Point","coordinates":[100.08225,18.63745]},"properties":{"name":"น้ำพุร้อนห้วยน้ำร้อน","Long":"100.08225","Lat":"18.63745","NameT":"น้ำพุร้อนห้วยน้ำร้อน"}},{"type":"Feature","geometry":{"type":"Point","coordinates":[100.53009,18.50599]},"properties":{"name":"น้ำพุร้อนห้วยน้ำอุ่น","Long":"100.53009","Lat":"18.50599","NameT":"น้ำพุร้อนห้วยน้ำอุ่น"}},{"type":"Feature","geometry":{"type":"Point","coordinates":[98.51998,17.05914]},"properties":{"name":"น้ำพุร้อนห้วยโป่งร้อน","Long":"98.51998","Lat":"17.05914","NameT":"น้ำพุร้อนห้วยโป่งร้อน"}},{"type":"Feature","geometry":{"type":"Point","coordinates":[98.84297,16.01047]},"properties":{"name":"น้ำพุร้อนห้วยแม่กลอง","Long":"98.84297","Lat":"16.01047","NameT":"น้ำพุร้อนห้วยแม่กลอง"}},{"type":"Feature","geometry":{"type":"Point","coordinates":[99.04951,15.88938]},"properties":{"name":"น้ำพุร้อนห้วยแม่แล","Long":"99.04951","Lat":"15.88938","NameT":"น้ำพุร้อนห้วยแม่แล"}},{"type":"Feature","geometry":{"type":"Point","coordinates":[99.68026,19.96313]},"properties":{"name":"น้ำพุร้อนห้วยหมากเหลี่ยม (ผาเค","Long":"99.68026","Lat":"19.96313","NameT":"น้ำพุร้อนห้วยหมากเหลี่ยม (ผาเค"}},{"type":"Feature","geometry":{"type":"Point","coordinates":[98.72408,14.62525]},"properties":{"name":"น้ำพุร้อนหินดาด","Long":"98.72408","Lat":"14.62525","NameT":"น้ำพุร้อนหินดาด"}},{"type":"Feature","geometry":{"type":"Point","coordinates":[98.72775,14.62258]},"properties":{"name":"น้ำพุร้อนหินดาด","Long":"98.72775","Lat":"14.62258","NameT":"น้ำพุร้อนหินดาด"}},{"type":"Feature","geometry":{"type":"Point","coordinates":[99.00284,18.43398]},"properties":{"name":"น้ำพุร้อนเหมืองเทพนิธิ","Long":"99.00284","Lat":"18.43398","NameT":"น้ำพุร้อนเหมืองเทพนิธิ"}},{"type":"Feature","geometry":{"type":"Point","coordinates":[98.44533,19.22756]},"properties":{"name":"น้ำพุร้อนเหมืองแร่","Long":"98.44533","Lat":"19.22756","NameT":"น้ำพุร้อนเหมืองแร่"}},{"type":"Feature","geometry":{"type":"Point","coordinates":[99.5701,8.01288]},"properties":{"name":"น้ำพุร้อนอุทยานบ่อน้ำร้อน","Long":"99.5701","Lat":"8.01288","NameT":"น้ำพุร้อนอุทยานบ่อน้ำร้อน"}},{"type":"Feature","geometry":{"type":"Point","coordinates":[98.99132,14.61697]},"properties":{"name":"น้ำพุร้อนอุทยานแห่งชาติเขื่อน","Long":"98.99132","Lat":"14.61697","NameT":"น้ำพุร้อนอุทยานแห่งชาติเขื่อน"}},{"type":"Feature","geometry":{"type":"Point","coordinates":[99.23529,16.03746]},"properties":{"name":"น้ำพุร้อนอุทยานแห่งชาติแม่","Long":"99.23529","Lat":"16.03746","NameT":"น้ำพุร้อนอุทยานแห่งชาติแม่"}},{"type":"Feature","geometry":{"type":"Point","coordinates":[101.03562,16.5481]},"properties":{"name":"เนินมหัศจรรย์","Long":"101.03562","Lat":"16.5481","NameT":"เนินมหัศจรรย์"}},{"type":"Feature","geometry":{"type":"Point","coordinates":[99.94961,12.13947]},"properties":{"name":"แนวรอยเลื่อนคลองเขาแดง","Long":"99.94961","Lat":"12.13947","NameT":"แนวรอยเลื่อนคลองเขาแดง"}},{"type":"Feature","geometry":{"type":"Point","coordinates":[101.04929,17.23164]},"properties":{"name":"บ่อเกลือพันปี","Long":"101.04929","Lat":"17.23164","NameT":"บ่อเกลือพันปี"}},{"type":"Feature","geometry":{"type":"Point","coordinates":[101.15937,14.91538]},"properties":{"name":"บ่อน้ำเดือด","Long":"101.15937","Lat":"14.91538","NameT":"บ่อน้ำเดือด"}},{"type":"Feature","geometry":{"type":"Point","coordinates":[101.876,17.56175]},"properties":{"name":"บ่อน้ำไผ่ร้อง","Long":"101.876","Lat":"17.56175","NameT":"บ่อน้ำไผ่ร้อง"}},{"type":"Feature","geometry":{"type":"Point","coordinates":[98.65,9.95]},"properties":{"name":"บ่อน้ำร้อนแ","Long":"98.65","Lat":"9.95","NameT":"บ่อน้ำร้อนแ"}},{"type":"Feature","geometry":{"type":"Point","coordinates":[99.65933,8.7482]},"properties":{"name":"บ่อน้ำร้อนกรุงชิง","Long":"99.65933","Lat":"8.7482","NameT":"บ่อน้ำร้อนกรุงชิง"}},{"type":"Feature","geometry":{"type":"Point","coordinates":[100.13093,7.44968]},"properties":{"name":"บ่อน้ำร้อนเขาชัยสน","Long":"100.13093","Lat":"7.44968","NameT":"บ่อน้ำร้อนเขาชัยสน"}},{"type":"Feature","geometry":{"type":"Point","coordinates":[99.46322,7.40981]},"properties":{"name":"บ่อน้ำร้อนควนแดง","Long":"99.46322","Lat":"7.40981","NameT":"บ่อน้ำร้อนควนแดง"}},{"type":"Feature","geometry":{"type":"Point","coordinates":[99.10815,9.72713]},"properties":{"name":"บ่อน้ำร้อนถ้ำเขาพลู","Long":"99.10815","Lat":"9.72713","NameT":"บ่อน้ำร้อนถ้ำเขาพลู"}},{"type":"Feature","geometry":{"type":"Point","coordinates":[99.34417,18.23414]},"properties":{"name":"บ่อน้ำร้อนบ้านโป่งน้ำร้อน","Long":"99.34417","Lat":"18.23414","NameT":"บ่อน้ำร้อนบ้านโป่งน้ำร้อน"}},{"type":"Feature","geometry":{"type":"Point","coordinates":[99.15,19.9667]},"properties":{"name":"บ่อน้ำร้อนฝ","Long":"99.15","Lat":"19.9667","NameT":"บ่อน้ำร้อนฝ"}},{"type":"Feature","geometry":{"type":"Point","coordinates":[98.66343,16.4353]},"properties":{"name":"บ่อน้ำร้อนห้วยน้ำนัก","Long":"98.66343","Lat":"16.4353","NameT":"บ่อน้ำร้อนห้วยน้ำนัก"}},{"type":"Feature","geometry":{"type":"Point","coordinates":[98.68421,19.24384]},"properties":{"name":"โป่งเดือด (ป่าแป๋) /จุดชมวิวดอยม่","Long":"98.68421","Lat":"19.24384","NameT":"โป่งเดือด (ป่าแป๋) /จุดชมวิวดอยม่"}},{"type":"Feature","geometry":{"type":"Point","coordinates":[99.49701,17.54961]},"properties":{"name":"โป่งน้ำเดือด","Long":"99.49701","Lat":"17.54961","NameT":"โป่งน้ำเดือด"}},{"type":"Feature","geometry":{"type":"Point","coordinates":[99.10673,18.14418]},"properties":{"name":"โป่งน้ำร้อนบ้านโป่งน้ำร้อน","Long":"99.10673","Lat":"18.14418","NameT":"โป่งน้ำร้อนบ้านโป่งน้ำร้อน"}},{"type":"Feature","geometry":{"type":"Point","coordinates":[99.28762,18.37967]},"properties":{"name":"โป่งน้ำร้อนบ้านห้วยเรียน","Long":"99.28762","Lat":"18.37967","NameT":"โป่งน้ำร้อนบ้านห้วยเรียน"}},{"type":"Feature","geometry":{"type":"Point","coordinates":[99.25167,18.28197]},"properties":{"name":"โป่งน้ำร้อนเวียงเหนือ","Long":"99.25167","Lat":"18.28197","NameT":"โป่งน้ำร้อนเวียงเหนือ"}},{"type":"Feature","geometry":{"type":"Point","coordinates":[100.08225,18.63745]},"properties":{"name":"โป่งน้ำร้อนห้วยน้ำร้อน","Long":"100.08225","Lat":"18.63745","NameT":"โป่งน้ำร้อนห้วยน้ำร้อน"}},{"type":"Feature","geometry":{"type":"Point","coordinates":[98.46399,8.69147]},"properties":{"name":"ธารน้ำร้อนคลองปลายพู่","Long":"98.46399","Lat":"8.69147","NameT":"ธารน้ำร้อนคลองปลายพู่"}},{"type":"Feature","geometry":{"type":"Point","coordinates":[99.2733,13.52843]},"properties":{"name":"ธารน้ำร้อนบ่อคลึง","Long":"99.2733","Lat":"13.52843","NameT":"ธารน้ำร้อนบ่อคลึง"}}]}