{"type":"FeatureCollection","features":[{"type":"Feature","geometry":{"type":"Point","coordinates":[98.665236,8.885247]},"properties":{"name":"ถ้ำปลา (วัดถ้ำวราราม)","longitude":"98.665236","latitude":"8.885247","NameThai":"ถ้ำปลา (วัดถ้ำวราราม)"}},{"type":"Feature","geometry":{"type":"Point","coordinates":[98.673962,8.880117]},"properties":{"name":"ถ้ำแก้ว","longitude":"98.673962","latitude":"8.880117","NameThai":"ถ้ำแก้ว"}},{"type":"Feature","geometry":{"type":"Point","coordinates":[99.2833,14.6833]},"properties":{"name":"ถ้ำธารลอด","longitude":"99.2833","latitude":"14.6833","NameThai":"ถ้ำธารลอด"}},{"type":"Feature","geometry":{"type":"Point","coordinates":[99.286067,14.670936]},"properties":{"name":"ถ้ำธารลอดใหญ่","longitude":"99.286067","latitude":"14.670936","NameThai":"ถ้ำธารลอดใหญ่"}},{"type":"Feature","geometry":{"type":"Point","coordinates":[99.291387,14.995646]},"properties":{"name":"ถ้ำตะเพินทอง","longitude":"99.291387","latitude":"14.995646","NameThai":"ถ้ำตะเพินทอง"}},{"type":"Feature","geometry":{"type":"Point","coordinates":[99.37974,8.424014]},"properties":{"name":"วัดถ้ำทองพรรณรา","longitude":"99.37974","latitude":"8.424014","NameThai":"วัดถ้ำทองพรรณรา"}},{"type":"Feature","geometry":{"type":"Point","coordinates":[99.476722,17.650512]},"properties":{"name":"ถ้ำค้างคาว","longitude":"99.476722","latitude":"17.650512","NameThai":"ถ้ำค้างคาว"}},{"type":"Feature","geometry":{"type":"Point","coordinates":[99.513709,15.716596]},"properties":{"name":"ถ้ำแต้ม-ถ้ำภาพเขียนสี","longitude":"99.513709","latitude":"15.716596","NameThai":"ถ้ำแต้ม-ถ้ำภาพเขียนสี"}},{"type":"Feature","geometry":{"type":"Point","coordinates":[99.668985,7.590054]},"properties":{"name":"ถ้ำช้างหาย","longitude":"99.668985","latitude":"7.590054","NameThai":"ถ้ำช้างหาย"}},{"type":"Feature","geometry":{"type":"Point","coordinates":[99.681411,16.861638]},"properties":{"name":"ถ้ำพระนารายณ์","longitude":"99.681411","latitude":"16.861638","NameThai":"ถ้ำพระนารายณ์"}},{"type":"Feature","geometry":{"type":"Point","coordinates":[99.721959,12.595527]},"properties":{"name":"ถ้ำดาว","longitude":"99.721959","latitude":"12.595527","NameThai":"ถ้ำดาว"}},{"type":"Feature","geometry":{"type":"Point","coordinates":[99.740205,13.643412]},"properties":{"name":"วัดถ้ำสาริกา","longitude":"99.740205","latitude":"13.643412","NameThai":"วัดถ้ำสาริกา"}},{"type":"Feature","geometry":{"type":"Point","coordinates":[99.779117,6.894568]},"properties":{"name":"ถ้ำเข้","longitude":"99.779117","latitude":"6.894568","NameThai":"ถ้ำเข้"}},{"type":"Feature","geometry":{"type":"Point","coordinates":[99.866545,20.328921]},"properties":{"name":"ถ้ำปลา","longitude":"99.866545","latitude":"20.328921","NameThai":"ถ้ำปลา"}},{"type":"Feature","geometry":{"type":"Point","coordinates":[100.521176,14.940048]},"properties":{"name":"วัดถ้ำโพธิญาณ","longitude":"100.521176","latitude":"14.940048","NameThai":"วัดถ้ำโพธิญาณ"}},{"type":"Feature","geometry":{"type":"Point","coordinates":[100.579061,15.325385]},"properties":{"name":"วัดถ้ำพรสวรรค์","longitude":"100.579061","latitude":"15.325385","NameThai":"วัดถ้ำพรสวรรค์"}},{"type":"Feature","geometry":{"type":"Point","coordinates":[100.688011,14.836477]},"properties":{"name":"สำนักสงฆ์ถ้ำเขาเขียว","longitude":"100.688011","latitude":"14.836477","NameThai":"สำนักสงฆ์ถ้ำเขาเขียว"}},{"type":"Feature","geometry":{"type":"Point","coordinates":[100.707719,14.783234]},"properties":{"name":"วัดถ้ำคูหาสวรรค์","longitude":"100.707719","latitude":"14.783234","NameThai":"วัดถ้ำคูหาสวรรค์"}},{"type":"Feature","geometry":{"type":"Point","coordinates":[100.995639,15.483274]},"properties":{"name":"ถ้ำประทุน (เขาสะแกสี่)","longitude":"100.995639","latitude":"15.483274","NameThai":"ถ้ำประทุน (เขาสะแกสี่)"}},{"type":"Feature","geometry":{"type":"Point","coordinates":[101.111454,16.548682]},"properties":{"name":"ถ้ำพระเขาถมอรัตน์","longitude":"101.111454","latitude":"16.548682","NameThai":"ถ้ำพระเขาถมอรัตน์"}},{"type":"Feature","geometry":{"type":"Point","coordinates":[101.357592,14.634561]},"properties":{"name":"วัดถ้ำไตรรัตน์","longitude":"101.357592","latitude":"14.634561","NameThai":"วัดถ้ำไตรรัตน์"}},{"type":"Feature","geometry":{"type":"Point","coordinates":[101.988196,16.721285]},"properties":{"name":"ถ้ำห้ามเข้า","longitude":"101.988196","latitude":"16.721285","NameThai":"ถ้ำห้ามเข้า"}},{"type":"Feature","geometry":{"type":"Point","coordinates":[102.295002,13.581639]},"properties":{"name":"ถ้ำวัวแดง","longitude":"102.295002","latitude":"13.581639","NameThai":"ถ้ำวัวแดง"}},{"type":"Feature","geometry":{"type":"Point","coordinates":[103.856682,16.791535]},"properties":{"name":"ถ้ำพระ","longitude":"103.856682","latitude":"16.791535","NameThai":"ถ้ำพระ"}},{"type":"Feature","geometry":{"type":"Point","coordinates":[105.392701,15.553611]},"properties":{"name":"ถ้ำขาม-รอยเกวียนโบราณ","longitude":"105.392701","latitude":"15.553611","NameThai":"ถ้ำขาม-รอยเกวียนโบราณ"}},{"type":"Feature","geometry":{"type":"Point","coordinates":[100.69436,16.56965]},"properties":{"name":"แอ่งถ้ำยุบอาศรมพระรถ","longitude":"100.69436","latitude":"16.56965","NameThai":"แอ่งถ้ำยุบอาศรมพระรถ","NameEnglish":"Asom Rot Phra Tham Sink"}},{"type":"Feature","geometry":{"type":"Point","coordinates":[98.69999,8.51665]},"properties":{"name":"ถ้ำบ้านบางน้ำ","longitude":"98.69999","latitude":"8.51665","NameThai":"ถ้ำบ้านบางน้ำ","NameEnglish":"Ban Bang Nam Tham"}},{"type":"Feature","geometry":{"type":"Point","coordinates":[99.76304,15.96109]},"properties":{"name":"บ้านบ่อถ้ำ","longitude":"99.76304","latitude":"15.96109","NameThai":"บ้านบ่อถ้ำ","NameEnglish":"Ban Bo Tham"}},{"type":"Feature","geometry":{"type":"Point","coordinates":[99.69999,13.48332]},"properties":{"name":"บ้านเขาถ้ำ","longitude":"99.69999","latitude":"13.48332","NameThai":"บ้านเขาถ้ำ","NameEnglish":"Ban Khao Tham"}},{"type":"Feature","geometry":{"type":"Point","coordinates":[100.81709,6.92078]},"properties":{"name":"บ้านเมืองถ้ำ","longitude":"100.81709","latitude":"6.92078","NameThai":"บ้านเมืองถ้ำ","NameEnglish":"Ban Muang Tham"}},{"type":"Feature","geometry":{"type":"Point","coordinates":[99.16666,10.24999]},"properties":{"name":"บ้านนาถ้ำ","longitude":"99.16666","latitude":"10.24999","NameThai":"บ้านนาถ้ำ","NameEnglish":"Ban Na Tham"}},{"type":"Feature","geometry":{"type":"Point","coordinates":[100.74166,19.24167]},"properties":{"name":"บ้านน้ำถ้ำ","longitude":"100.74166","latitude":"19.24167","NameThai":"บ้านน้ำถ้ำ","NameEnglish":"Ban Nam Tham"}},{"type":"Feature","geometry":{"type":"Point","coordinates":[100.23,14.62999]},"properties":{"name":"บ้านหนองถ้ำ","longitude":"100.23","latitude":"14.62999","NameThai":"บ้านหนองถ้ำ","NameEnglish":"Ban Nong Tham"}},{"type":"Feature","geometry":{"type":"Point","coordinates":[100.40259,16.52297]},"properties":{"name":"บ้านหนองถ้ำ","longitude":"100.40259","latitude":"16.52297","NameThai":"บ้านหนองถ้ำ","NameEnglish":"Ban Nong Tham"}},{"type":"Feature","geometry":{"type":"Point","coordinates":[100.7664,14.82851]},"properties":{"name":"บ้านหนองถ้ำ","longitude":"100.7664","latitude":"14.82851","NameThai":"บ้านหนองถ้ำ","NameEnglish":"Ban Nong Tham"}},{"type":"Feature","geometry":{"type":"Point","coordinates":[104.75001,15.5]},"properties":{"name":"บ้านหนองถ้ำ","longitude":"104.75001","latitude":"15.5","NameThai":"บ้านหนองถ้ำ","NameEnglish":"Ban Nong Tham"}},{"type":"Feature","geometry":{"type":"Point","coordinates":[99.99681,16.04283]},"properties":{"name":"บ้านปางถ้ำหน้า","longitude":"99.99681","latitude":"16.04283","NameThai":"บ้านปางถ้ำหน้า","NameEnglish":"Ban Pang Tham Na"}},{"type":"Feature","geometry":{"type":"Point","coordinates":[99.03784,19.72934]},"properties":{"name":"แอ่งถ้ำยุบบ้านสินชัยเหนือ","longitude":"99.03784","latitude":"19.72934","NameThai":"แอ่งถ้ำยุบบ้านสินชัยเหนือ","NameEnglish":"Ban Sin Chai Nuea Sink"}},{"type":"Feature","geometry":{"type":"Point","coordinates":[99.49675,18.68616]},"properties":{"name":"บ้านสบห้วยธรรม","longitude":"99.49675","latitude":"18.68616","NameThai":"บ้านสบห้วยธรรม","NameEnglish":"Ban Sop Huai Tham"}},{"type":"Feature","geometry":{"type":"Point","coordinates":[98.79671,18.57958]},"properties":{"name":"บ้านถ้ำ","longitude":"98.79671","latitude":"18.57958","NameThai":"บ้านถ้ำ","NameEnglish":"Ban Tham"}},{"type":"Feature","geometry":{"type":"Point","coordinates":[99.08009,18.43615]},"properties":{"name":"บ้านถ้ำ","longitude":"99.08009","latitude":"18.43615","NameThai":"บ้านถ้ำ","NameEnglish":"Ban Tham"}},{"type":"Feature","geometry":{"type":"Point","coordinates":[99.68449,19.61278]},"properties":{"name":"บ้านถ้ำ","longitude":"99.68449","latitude":"19.61278","NameThai":"บ้านถ้ำ","NameEnglish":"Ban Tham"}},{"type":"Feature","geometry":{"type":"Point","coordinates":[102.06666,12.73332]},"properties":{"name":"บ้านถ้ำ","longitude":"102.06666","latitude":"12.73332","NameThai":"บ้านถ้ำ","NameEnglish":"Ban Tham"}},{"type":"Feature","geometry":{"type":"Point","coordinates":[104.83334,15.08333]},"properties":{"name":"บ้านถ้ำ","longitude":"104.83334","latitude":"15.08333","NameThai":"บ้านถ้ำ","NameEnglish":"Ban Tham"}},{"type":"Feature","geometry":{"type":"Point","coordinates":[98.59843,8.53537]},"properties":{"name":"เพิงผาบ้านถ้ำทองหลาง","longitude":"98.59843","latitude":"8.53537","NameThai":"เพิงผาบ้านถ้ำทองหลาง","NameEnglish":"Ban Tham Thong Lang Rock Shelter"}},{"type":"Feature","geometry":{"type":"Point","coordinates":[100.32014,16.49783]},"properties":{"name":"บ้านวังถ้ำ","longitude":"100.32014","latitude":"16.49783","NameThai":"บ้านวังถ้ำ","NameEnglish":"Ban Wang Tham"}},{"type":"Feature","geometry":{"type":"Point","coordinates":[100.49677,18.91951]},"properties":{"name":"บ้านวังถ้ำ","longitude":"100.49677","latitude":"18.91951","NameThai":"บ้านวังถ้ำ","NameEnglish":"Ban Wang Tham"}},{"type":"Feature","geometry":{"type":"Point","coordinates":[99.09861,19.6695]},"properties":{"name":"ถ้ำกระดูกค้างคาว","longitude":"99.09861","latitude":"19.6695","NameThai":"ถ้ำกระดูกค้างคาว","NameEnglish":"Bat Bone Cave"}},{"type":"Feature","geometry":{"type":"Point","coordinates":[98.80924,15.99153]},"properties":{"name":"ถ้ำค้างคาว 1","longitude":"98.80924","latitude":"15.99153","NameThai":"ถ้ำค้างคาว 1","NameEnglish":"Bat Cave 1"}},{"type":"Feature","geometry":{"type":"Point","coordinates":[98.87317,14.86783]},"properties":{"name":"แอ่งถ้ำยุบแคมป์สตรีม","longitude":"98.87317","latitude":"14.86783","NameThai":"แอ่งถ้ำยุบแคมป์สตรีม","NameEnglish":"Camp Stream Sink"}},{"type":"Feature","geometry":{"type":"Point","coordinates":[101.52849,16.91786]},"properties":{"name":"ถ้ำ 10","longitude":"101.52849","latitude":"16.91786","NameThai":"ถ้ำ 10","NameEnglish":"Cave 10"}},{"type":"Feature","geometry":{"type":"Point","coordinates":[101.54455,16.91608]},"properties":{"name":"ถ้ำ 17","longitude":"101.54455","latitude":"16.91608","NameThai":"ถ้ำ 17","NameEnglish":"Cave 17"}},{"type":"Feature","geometry":{"type":"Point","coordinates":[101.51317,16.94027]},"properties":{"name":"ถ้ำ 18","longitude":"101.51317","latitude":"16.94027","NameThai":"ถ้ำ 18","NameEnglish":"Cave 18"}},{"type":"Feature","geometry":{"type":"Point","coordinates":[101.53352,16.91466]},"properties":{"name":"ถ้ำ 19","longitude":"101.53352","latitude":"16.91466","NameThai":"ถ้ำ 19","NameEnglish":"Cave 19"}},{"type":"Feature","geometry":{"type":"Point","coordinates":[101.53006,16.91964]},"properties":{"name":"ถ้ำ 23","longitude":"101.53006","latitude":"16.91964","NameThai":"ถ้ำ 23","NameEnglish":"Cave 23"}},{"type":"Feature","geometry":{"type":"Point","coordinates":[98.73171,16.01824]},"properties":{"name":"ถ้ำ A2","longitude":"98.73171","latitude":"16.01824","NameThai":"ถ้ำ A2","NameEnglish":"Cave A2"}},{"type":"Feature","geometry":{"type":"Point","coordinates":[98.72806,16.01995]},"properties":{"name":"ถ้ำ A4","longitude":"98.72806","latitude":"16.01995","NameThai":"ถ้ำ A4","NameEnglish":"Cave A4"}},{"type":"Feature","geometry":{"type":"Point","coordinates":[98.72318,16.00934]},"properties":{"name":"ถ้ำ B10","longitude":"98.72318","latitude":"16.00934","NameThai":"ถ้ำ B10","NameEnglish":"Cave B10"}},{"type":"Feature","geometry":{"type":"Point","coordinates":[103.95507,18.19704]},"properties":{"name":"ถ้ำ BK0006","longitude":"103.95507","latitude":"18.19704","NameThai":"ถ้ำ BK0006","NameEnglish":"Cave BK0006"}},{"type":"Feature","geometry":{"type":"Point","coordinates":[101.83049,16.58596]},"properties":{"name":"ถ้ำ CH0005","longitude":"101.83049","latitude":"16.58596","NameThai":"ถ้ำ CH0005","NameEnglish":"Cave CH0005"}},{"type":"Feature","geometry":{"type":"Point","coordinates":[101.49082,16.38009]},"properties":{"name":"ถ้ำ CH0031","longitude":"101.49082","latitude":"16.38009","NameThai":"ถ้ำ CH0031","NameEnglish":"Cave CH0031"}},{"type":"Feature","geometry":{"type":"Point","coordinates":[101.50704,16.36884]},"properties":{"name":"ถ้ำ CH0046","longitude":"101.50704","latitude":"16.36884","NameThai":"ถ้ำ CH0046","NameEnglish":"Cave CH0046"}},{"type":"Feature","geometry":{"type":"Point","coordinates":[101.82435,16.57365]},"properties":{"name":"ถ้ำ CH0053","longitude":"101.82435","latitude":"16.57365","NameThai":"ถ้ำ CH0053","NameEnglish":"Cave CH0053"}},{"type":"Feature","geometry":{"type":"Point","coordinates":[101.87709,16.57376]},"properties":{"name":"ถ้ำ CH0061","longitude":"101.87709","latitude":"16.57376","NameThai":"ถ้ำ CH0061","NameEnglish":"Cave CH0061"}},{"type":"Feature","geometry":{"type":"Point","coordinates":[101.80418,16.49714]},"properties":{"name":"ถ้ำ CH0068","longitude":"101.80418","latitude":"16.49714","NameThai":"ถ้ำ CH0068","NameEnglish":"Cave CH0068"}},{"type":"Feature","geometry":{"type":"Point","coordinates":[101.43323,16.07827]},"properties":{"name":"ถ้ำ CH0078","longitude":"101.43323","latitude":"16.07827","NameThai":"ถ้ำ CH0078","NameEnglish":"Cave CH0078"}},{"type":"Feature","geometry":{"type":"Point","coordinates":[101.81785,16.57836]},"properties":{"name":"ถ้ำ CH0107","longitude":"101.81785","latitude":"16.57836","NameThai":"ถ้ำ CH0107","NameEnglish":"Cave CH0107"}},{"type":"Feature","geometry":{"type":"Point","coordinates":[101.84986,16.59374]},"properties":{"name":"ถ้ำ CH0108","longitude":"101.84986","latitude":"16.59374","NameThai":"ถ้ำ CH0108","NameEnglish":"Cave CH0108"}},{"type":"Feature","geometry":{"type":"Point","coordinates":[101.4499,16.06666]},"properties":{"name":"ถ้ำ CH0110","longitude":"101.4499","latitude":"16.06666","NameThai":"ถ้ำ CH0110","NameEnglish":"Cave CH0110"}},{"type":"Feature","geometry":{"type":"Point","coordinates":[98.84405,19.40991]},"properties":{"name":"ถ้ำ CHD05","longitude":"98.84405","latitude":"19.40991","NameThai":"ถ้ำ CHD05","NameEnglish":"Cave CHD05"}},{"type":"Feature","geometry":{"type":"Point","coordinates":[98.87912,19.39006]},"properties":{"name":"ถ้ำ CHD10","longitude":"98.87912","latitude":"19.39006","NameThai":"ถ้ำ CHD10","NameEnglish":"Cave CHD10"}},{"type":"Feature","geometry":{"type":"Point","coordinates":[98.92981,19.40385]},"properties":{"name":"ถ้ำ CHD14","longitude":"98.92981","latitude":"19.40385","NameThai":"ถ้ำ CHD14","NameEnglish":"Cave CHD14"}},{"type":"Feature","geometry":{"type":"Point","coordinates":[98.58298,18.5831]},"properties":{"name":"ถ้ำ CM0265","longitude":"98.58298","latitude":"18.5831","NameThai":"ถ้ำ CM0265","NameEnglish":"Cave CM0265"}},{"type":"Feature","geometry":{"type":"Point","coordinates":[98.82391,19.435]},"properties":{"name":"ถ้ำ CM0275","longitude":"98.82391","latitude":"19.435","NameThai":"ถ้ำ CM0275","NameEnglish":"Cave CM0275"}},{"type":"Feature","geometry":{"type":"Point","coordinates":[99.15896,19.53089]},"properties":{"name":"ถ้ำ CM0277","longitude":"99.15896","latitude":"19.53089","NameThai":"ถ้ำ CM0277","NameEnglish":"Cave CM0277"}},{"type":"Feature","geometry":{"type":"Point","coordinates":[98.8495,19.53348]},"properties":{"name":"ถ้ำ CM0281","longitude":"98.8495","latitude":"19.53348","NameThai":"ถ้ำ CM0281","NameEnglish":"Cave CM0281"}},{"type":"Feature","geometry":{"type":"Point","coordinates":[99.01852,19.75257]},"properties":{"name":"ถ้ำ CM0282","longitude":"99.01852","latitude":"19.75257","NameThai":"ถ้ำ CM0282","NameEnglish":"Cave CM0282"}},{"type":"Feature","geometry":{"type":"Point","coordinates":[99.03631,19.7271]},"properties":{"name":"ถ้ำ CM0286","longitude":"99.03631","latitude":"19.7271","NameThai":"ถ้ำ CM0286","NameEnglish":"Cave CM0286"}},{"type":"Feature","geometry":{"type":"Point","coordinates":[99.03385,19.72427]},"properties":{"name":"ถ้ำ CM0290","longitude":"99.03385","latitude":"19.72427","NameThai":"ถ้ำ CM0290","NameEnglish":"Cave CM0290"}},{"type":"Feature","geometry":{"type":"Point","coordinates":[99.11665,10.46665]},"properties":{"name":"ถ้ำ CP0008","longitude":"99.11665","latitude":"10.46665","NameThai":"ถ้ำ CP0008","NameEnglish":"Cave CP0008"}},{"type":"Feature","geometry":{"type":"Point","coordinates":[98.93879,10.16105]},"properties":{"name":"ถ้ำ CP0010","longitude":"98.93879","latitude":"10.16105","NameThai":"ถ้ำ CP0010","NameEnglish":"Cave CP0010"}},{"type":"Feature","geometry":{"type":"Point","coordinates":[98.93333,10.1638]},"properties":{"name":"ถ้ำ CP0014","longitude":"98.93333","latitude":"10.1638","NameThai":"ถ้ำ CP0014","NameEnglish":"Cave CP0014"}},{"type":"Feature","geometry":{"type":"Point","coordinates":[98.92727,14.3127]},"properties":{"name":"ถ้ำ D06","longitude":"98.92727","latitude":"14.3127","NameThai":"ถ้ำ D06","NameEnglish":"Cave D06"}},{"type":"Feature","geometry":{"type":"Point","coordinates":[98.80292,14.42113]},"properties":{"name":"ถ้ำ D11","longitude":"98.80292","latitude":"14.42113","NameThai":"ถ้ำ D11","NameEnglish":"Cave D11"}},{"type":"Feature","geometry":{"type":"Point","coordinates":[98.98291,14.30728]},"properties":{"name":"ถ้ำ D20","longitude":"98.98291","latitude":"14.30728","NameThai":"ถ้ำ D20","NameEnglish":"Cave D20"}},{"type":"Feature","geometry":{"type":"Point","coordinates":[98.98106,14.30819]},"properties":{"name":"ถ้ำ D21","longitude":"98.98106","latitude":"14.30819","NameThai":"ถ้ำ D21","NameEnglish":"Cave D21"}},{"type":"Feature","geometry":{"type":"Point","coordinates":[98.97271,14.3109]},"properties":{"name":"ถ้ำ D22","longitude":"98.97271","latitude":"14.3109","NameThai":"ถ้ำ D22","NameEnglish":"Cave D22"}},{"type":"Feature","geometry":{"type":"Point","coordinates":[98.96251,14.32175]},"properties":{"name":"ถ้ำ D24","longitude":"98.96251","latitude":"14.32175","NameThai":"ถ้ำ D24","NameEnglish":"Cave D24"}},{"type":"Feature","geometry":{"type":"Point","coordinates":[98.96715,14.31813]},"properties":{"name":"ถ้ำ D25","longitude":"98.96715","latitude":"14.31813","NameThai":"ถ้ำ D25","NameEnglish":"Cave D25"}},{"type":"Feature","geometry":{"type":"Point","coordinates":[98.87159,14.40219]},"properties":{"name":"ถ้ำ D26","longitude":"98.87159","latitude":"14.40219","NameThai":"ถ้ำ D26","NameEnglish":"Cave D26"}},{"type":"Feature","geometry":{"type":"Point","coordinates":[98.91984,14.36152]},"properties":{"name":"ถ้ำ D28","longitude":"98.91984","latitude":"14.36152","NameThai":"ถ้ำ D28","NameEnglish":"Cave D28"}},{"type":"Feature","geometry":{"type":"Point","coordinates":[99.20993,14.14082]},"properties":{"name":"ถ้ำ D30","longitude":"99.20993","latitude":"14.14082","NameThai":"ถ้ำ D30","NameEnglish":"Cave D30"}},{"type":"Feature","geometry":{"type":"Point","coordinates":[99.18673,14.09563]},"properties":{"name":"ถ้ำ D43","longitude":"99.18673","latitude":"14.09563","NameThai":"ถ้ำ D43","NameEnglish":"Cave D43"}},{"type":"Feature","geometry":{"type":"Point","coordinates":[99.21636,14.08205]},"properties":{"name":"ถ้ำ D44","longitude":"99.21636","latitude":"14.08205","NameThai":"ถ้ำ D44","NameEnglish":"Cave D44"}},{"type":"Feature","geometry":{"type":"Point","coordinates":[99.25434,14.07568]},"properties":{"name":"ถ้ำ D46","longitude":"99.25434","latitude":"14.07568","NameThai":"ถ้ำ D46","NameEnglish":"Cave D46"}},{"type":"Feature","geometry":{"type":"Point","coordinates":[99.25437,14.1028]},"properties":{"name":"ถ้ำ D47","longitude":"99.25437","latitude":"14.1028","NameThai":"ถ้ำ D47","NameEnglish":"Cave D47"}},{"type":"Feature","geometry":{"type":"Point","coordinates":[99.49999,13.91665]},"properties":{"name":"ถ้ำ KA0011","longitude":"99.49999","latitude":"13.91665","NameThai":"ถ้ำ KA0011","NameEnglish":"Cave KA0011"}},{"type":"Feature","geometry":{"type":"Point","coordinates":[99.06666,14.25]},"properties":{"name":"ถ้ำ KA0090","longitude":"99.06666","latitude":"14.25","NameThai":"ถ้ำ KA0090","NameEnglish":"Cave KA0090"}},{"type":"Feature","geometry":{"type":"Point","coordinates":[98.98697,15.08457]},"properties":{"name":"ถ้ำ KA0217","longitude":"98.98697","latitude":"15.08457","NameThai":"ถ้ำ KA0217","NameEnglish":"Cave KA0217"}},{"type":"Feature","geometry":{"type":"Point","coordinates":[99.5744,14.01623]},"properties":{"name":"ถ้ำ KA0223","longitude":"99.5744","latitude":"14.01623","NameThai":"ถ้ำ KA0223","NameEnglish":"Cave KA0223"}},{"type":"Feature","geometry":{"type":"Point","coordinates":[99.58333,13.99998]},"properties":{"name":"ถ้ำ KA0224","longitude":"99.58333","latitude":"13.99998","NameThai":"ถ้ำ KA0224","NameEnglish":"Cave KA0224"}},{"type":"Feature","geometry":{"type":"Point","coordinates":[98.87412,15.21043]},"properties":{"name":"ถ้ำ KA0446","longitude":"98.87412","latitude":"15.21043","NameThai":"ถ้ำ KA0446","NameEnglish":"Cave KA0446"}},{"type":"Feature","geometry":{"type":"Point","coordinates":[98.63087,14.96527]},"properties":{"name":"ถ้ำ KA0573","longitude":"98.63087","latitude":"14.96527","NameThai":"ถ้ำ KA0573","NameEnglish":"Cave KA0573"}},{"type":"Feature","geometry":{"type":"Point","coordinates":[99.54936,13.96551]},"properties":{"name":"ถ้ำ KA0582","longitude":"99.54936","latitude":"13.96551","NameThai":"ถ้ำ KA0582","NameEnglish":"Cave KA0582"}},{"type":"Feature","geometry":{"type":"Point","coordinates":[101.87758,16.65239]},"properties":{"name":"ถ้ำ KK0075","longitude":"101.87758","latitude":"16.65239","NameThai":"ถ้ำ KK0075","NameEnglish":"Cave KK0075"}},{"type":"Feature","geometry":{"type":"Point","coordinates":[102.63436,16.74226]},"properties":{"name":"ถ้ำ KK0104","longitude":"102.63436","latitude":"16.74226","NameThai":"ถ้ำ KK0104","NameEnglish":"Cave KK0104"}},{"type":"Feature","geometry":{"type":"Point","coordinates":[104.13345,16.54914]},"properties":{"name":"ถ้ำ KL0029","longitude":"104.13345","latitude":"16.54914","NameThai":"ถ้ำ KL0029","NameEnglish":"Cave KL0029"}},{"type":"Feature","geometry":{"type":"Point","coordinates":[98.7395,8.37971]},"properties":{"name":"ถ้ำ KR0004","longitude":"98.7395","latitude":"8.37971","NameThai":"ถ้ำ KR0004","NameEnglish":"Cave KR0004"}},{"type":"Feature","geometry":{"type":"Point","coordinates":[98.73796,8.40416]},"properties":{"name":"ถ้ำ KR0021","longitude":"98.73796","latitude":"8.40416","NameThai":"ถ้ำ KR0021","NameEnglish":"Cave KR0021"}},{"type":"Feature","geometry":{"type":"Point","coordinates":[98.87903,8.10564]},"properties":{"name":"ถ้ำ KR0030","longitude":"98.87903","latitude":"8.10564","NameThai":"ถ้ำ KR0030","NameEnglish":"Cave KR0030"}},{"type":"Feature","geometry":{"type":"Point","coordinates":[98.73432,8.47579]},"properties":{"name":"ถ้ำ KR0046","longitude":"98.73432","latitude":"8.47579","NameThai":"ถ้ำ KR0046","NameEnglish":"Cave KR0046"}},{"type":"Feature","geometry":{"type":"Point","coordinates":[98.8422,8.41072]},"properties":{"name":"ถ้ำ KR0162","longitude":"98.8422","latitude":"8.41072","NameThai":"ถ้ำ KR0162","NameEnglish":"Cave KR0162"}},{"type":"Feature","geometry":{"type":"Point","coordinates":[98.73495,8.38107]},"properties":{"name":"ถ้ำ KR0231","longitude":"98.73495","latitude":"8.38107","NameThai":"ถ้ำ KR0231","NameEnglish":"Cave KR0231"}},{"type":"Feature","geometry":{"type":"Point","coordinates":[98.8818,8.16879]},"properties":{"name":"ถ้ำ KR0303","longitude":"98.8818","latitude":"8.16879","NameThai":"ถ้ำ KR0303","NameEnglish":"Cave KR0303"}},{"type":"Feature","geometry":{"type":"Point","coordinates":[98.75902,8.16516]},"properties":{"name":"ถ้ำ KR0312","longitude":"98.75902","latitude":"8.16516","NameThai":"ถ้ำ KR0312","NameEnglish":"Cave KR0312"}},{"type":"Feature","geometry":{"type":"Point","coordinates":[98.75187,8.13748]},"properties":{"name":"ถ้ำ KR0322","longitude":"98.75187","latitude":"8.13748","NameThai":"ถ้ำ KR0322","NameEnglish":"Cave KR0322"}},{"type":"Feature","geometry":{"type":"Point","coordinates":[98.75403,8.1374]},"properties":{"name":"ถ้ำ KR0323","longitude":"98.75403","latitude":"8.1374","NameThai":"ถ้ำ KR0323","NameEnglish":"Cave KR0323"}},{"type":"Feature","geometry":{"type":"Point","coordinates":[98.7548,8.13735]},"properties":{"name":"ถ้ำ KR0324","longitude":"98.7548","latitude":"8.13735","NameThai":"ถ้ำ KR0324","NameEnglish":"Cave KR0324"}},{"type":"Feature","geometry":{"type":"Point","coordinates":[98.75999,8.1647]},"properties":{"name":"ถ้ำ KR0337","longitude":"98.75999","latitude":"8.1647","NameThai":"ถ้ำ KR0337","NameEnglish":"Cave KR0337"}},{"type":"Feature","geometry":{"type":"Point","coordinates":[98.7585,8.14383]},"properties":{"name":"ถ้ำ KR0340","longitude":"98.7585","latitude":"8.14383","NameThai":"ถ้ำ KR0340","NameEnglish":"Cave KR0340"}},{"type":"Feature","geometry":{"type":"Point","coordinates":[99.53179,18.74679]},"properties":{"name":"ถ้ำ LA0085","longitude":"99.53179","latitude":"18.74679","NameThai":"ถ้ำ LA0085","NameEnglish":"Cave LA0085"}},{"type":"Feature","geometry":{"type":"Point","coordinates":[99.8,18.51666]},"properties":{"name":"ถ้ำ LA0088","longitude":"99.8","latitude":"18.51666","NameThai":"ถ้ำ LA0088","NameEnglish":"Cave LA0088"}},{"type":"Feature","geometry":{"type":"Point","coordinates":[99.82501,18.51113]},"properties":{"name":"ถ้ำ LA0089","longitude":"99.82501","latitude":"18.51113","NameThai":"ถ้ำ LA0089","NameEnglish":"Cave LA0089"}},{"type":"Feature","geometry":{"type":"Point","coordinates":[99.81657,18.5]},"properties":{"name":"ถ้ำ LA0090","longitude":"99.81657","latitude":"18.5","NameThai":"ถ้ำ LA0090","NameEnglish":"Cave LA0090"}},{"type":"Feature","geometry":{"type":"Point","coordinates":[100.81628,14.82228]},"properties":{"name":"ถ้ำ LB0031","longitude":"100.81628","latitude":"14.82228","NameThai":"ถ้ำ LB0031","NameEnglish":"Cave LB0031"}},{"type":"Feature","geometry":{"type":"Point","coordinates":[101.29825,15.11143]},"properties":{"name":"ถ้ำ LB0043","longitude":"101.29825","latitude":"15.11143","NameThai":"ถ้ำ LB0043","NameEnglish":"Cave LB0043"}},{"type":"Feature","geometry":{"type":"Point","coordinates":[100.75584,14.82758]},"properties":{"name":"ถ้ำ LB0126","longitude":"100.75584","latitude":"14.82758","NameThai":"ถ้ำ LB0126","NameEnglish":"Cave LB0126"}},{"type":"Feature","geometry":{"type":"Point","coordinates":[101.82804,17.29152]},"properties":{"name":"ถ้ำ LO0025","longitude":"101.82804","latitude":"17.29152","NameThai":"ถ้ำ LO0025","NameEnglish":"Cave LO0025"}},{"type":"Feature","geometry":{"type":"Point","coordinates":[101.78177,17.08678]},"properties":{"name":"ถ้ำ LO0137","longitude":"101.78177","latitude":"17.08678","NameThai":"ถ้ำ LO0137","NameEnglish":"Cave LO0137"}},{"type":"Feature","geometry":{"type":"Point","coordinates":[101.93364,17.11821]},"properties":{"name":"ถ้ำ LO0139","longitude":"101.93364","latitude":"17.11821","NameThai":"ถ้ำ LO0139","NameEnglish":"Cave LO0139"}},{"type":"Feature","geometry":{"type":"Point","coordinates":[101.96469,17.175]},"properties":{"name":"ถ้ำ LO0142","longitude":"101.96469","latitude":"17.175","NameThai":"ถ้ำ LO0142","NameEnglish":"Cave LO0142"}},{"type":"Feature","geometry":{"type":"Point","coordinates":[101.74729,17.05066]},"properties":{"name":"ถ้ำ LO0177","longitude":"101.74729","latitude":"17.05066","NameThai":"ถ้ำ LO0177","NameEnglish":"Cave LO0177"}},{"type":"Feature","geometry":{"type":"Point","coordinates":[101.86589,17.55616]},"properties":{"name":"ถ้ำ LO0184","longitude":"101.86589","latitude":"17.55616","NameThai":"ถ้ำ LO0184","NameEnglish":"Cave LO0184"}},{"type":"Feature","geometry":{"type":"Point","coordinates":[101.96509,17.18115]},"properties":{"name":"ถ้ำ LO0187","longitude":"101.96509","latitude":"17.18115","NameThai":"ถ้ำ LO0187","NameEnglish":"Cave LO0187"}},{"type":"Feature","geometry":{"type":"Point","coordinates":[101.96494,17.181]},"properties":{"name":"ถ้ำ LO0190","longitude":"101.96494","latitude":"17.181","NameThai":"ถ้ำ LO0190","NameEnglish":"Cave LO0190"}},{"type":"Feature","geometry":{"type":"Point","coordinates":[101.78701,17.07986]},"properties":{"name":"ถ้ำ LO0193","longitude":"101.78701","latitude":"17.07986","NameThai":"ถ้ำ LO0193","NameEnglish":"Cave LO0193"}},{"type":"Feature","geometry":{"type":"Point","coordinates":[98.20671,19.59438]},"properties":{"name":"ถ้ำ MH0047","longitude":"98.20671","latitude":"19.59438","NameThai":"ถ้ำ MH0047","NameEnglish":"Cave MH0047"}},{"type":"Feature","geometry":{"type":"Point","coordinates":[98.11665,19.41667]},"properties":{"name":"ถ้ำ MH0063","longitude":"98.11665","latitude":"19.41667","NameThai":"ถ้ำ MH0063","NameEnglish":"Cave MH0063"}},{"type":"Feature","geometry":{"type":"Point","coordinates":[98.1912,19.59137]},"properties":{"name":"ถ้ำ MH0118","longitude":"98.1912","latitude":"19.59137","NameThai":"ถ้ำ MH0118","NameEnglish":"Cave MH0118"}},{"type":"Feature","geometry":{"type":"Point","coordinates":[98.21666,19.61667]},"properties":{"name":"ถ้ำ MH0223","longitude":"98.21666","latitude":"19.61667","NameThai":"ถ้ำ MH0223","NameEnglish":"Cave MH0223"}},{"type":"Feature","geometry":{"type":"Point","coordinates":[98.20431,19.19559]},"properties":{"name":"ถ้ำ MH0261","longitude":"98.20431","latitude":"19.19559","NameThai":"ถ้ำ MH0261","NameEnglish":"Cave MH0261"}},{"type":"Feature","geometry":{"type":"Point","coordinates":[101.09104,19.27996]},"properties":{"name":"ถ้ำ NA0052","longitude":"101.09104","latitude":"19.27996","NameThai":"ถ้ำ NA0052","NameEnglish":"Cave NA0052"}},{"type":"Feature","geometry":{"type":"Point","coordinates":[101.22572,19.51736]},"properties":{"name":"ถ้ำ NA0062","longitude":"101.22572","latitude":"19.51736","NameThai":"ถ้ำ NA0062","NameEnglish":"Cave NA0062"}},{"type":"Feature","geometry":{"type":"Point","coordinates":[101.0879,19.43639]},"properties":{"name":"ถ้ำ NA0072","longitude":"101.0879","latitude":"19.43639","NameThai":"ถ้ำ NA0072","NameEnglish":"Cave NA0072"}},{"type":"Feature","geometry":{"type":"Point","coordinates":[101.06983,19.42087]},"properties":{"name":"ถ้ำ NA0100","longitude":"101.06983","latitude":"19.42087","NameThai":"ถ้ำ NA0100","NameEnglish":"Cave NA0100"}},{"type":"Feature","geometry":{"type":"Point","coordinates":[101.04795,19.40714]},"properties":{"name":"ถ้ำ NA0103","longitude":"101.04795","latitude":"19.40714","NameThai":"ถ้ำ NA0103","NameEnglish":"Cave NA0103"}},{"type":"Feature","geometry":{"type":"Point","coordinates":[101.07298,19.36236]},"properties":{"name":"ถ้ำ NA0121","longitude":"101.07298","latitude":"19.36236","NameThai":"ถ้ำ NA0121","NameEnglish":"Cave NA0121"}},{"type":"Feature","geometry":{"type":"Point","coordinates":[101.07334,19.36122]},"properties":{"name":"ถ้ำ NA0140","longitude":"101.07334","latitude":"19.36122","NameThai":"ถ้ำ NA0140","NameEnglish":"Cave NA0140"}},{"type":"Feature","geometry":{"type":"Point","coordinates":[101.0701,19.42318]},"properties":{"name":"ถ้ำ NA0141","longitude":"101.0701","latitude":"19.42318","NameThai":"ถ้ำ NA0141","NameEnglish":"Cave NA0141"}},{"type":"Feature","geometry":{"type":"Point","coordinates":[100.75,19.16667]},"properties":{"name":"ถ้ำ NA0163","longitude":"100.75","latitude":"19.16667","NameThai":"ถ้ำ NA0163","NameEnglish":"Cave NA0163"}},{"type":"Feature","geometry":{"type":"Point","coordinates":[101.0836,19.47023]},"properties":{"name":"ถ้ำ NA0165","longitude":"101.0836","latitude":"19.47023","NameThai":"ถ้ำ NA0165","NameEnglish":"Cave NA0165"}},{"type":"Feature","geometry":{"type":"Point","coordinates":[101.07392,19.36095]},"properties":{"name":"ถ้ำ NA0174","longitude":"101.07392","latitude":"19.36095","NameThai":"ถ้ำ NA0174","NameEnglish":"Cave NA0174"}},{"type":"Feature","geometry":{"type":"Point","coordinates":[100.73331,18.88331]},"properties":{"name":"ถ้ำ NA0180","longitude":"100.73331","latitude":"18.88331","NameThai":"ถ้ำ NA0180","NameEnglish":"Cave NA0180"}},{"type":"Feature","geometry":{"type":"Point","coordinates":[101.09137,19.27981]},"properties":{"name":"ถ้ำ NA0193","longitude":"101.09137","latitude":"19.27981","NameThai":"ถ้ำ NA0193","NameEnglish":"Cave NA0193"}},{"type":"Feature","geometry":{"type":"Point","coordinates":[101.07713,19.32165]},"properties":{"name":"ถ้ำ NA0194","longitude":"101.07713","latitude":"19.32165","NameThai":"ถ้ำ NA0194","NameEnglish":"Cave NA0194"}},{"type":"Feature","geometry":{"type":"Point","coordinates":[101.09847,19.262]},"properties":{"name":"ถ้ำ NA0195","longitude":"101.09847","latitude":"19.262","NameThai":"ถ้ำ NA0195","NameEnglish":"Cave NA0195"}},{"type":"Feature","geometry":{"type":"Point","coordinates":[102.08462,17.4308]},"properties":{"name":"ถ้ำ NB0056","longitude":"102.08462","latitude":"17.4308","NameThai":"ถ้ำ NB0056","NameEnglish":"Cave NB0056"}},{"type":"Feature","geometry":{"type":"Point","coordinates":[102.08594,17.43055]},"properties":{"name":"ถ้ำ NB0057","longitude":"102.08594","latitude":"17.43055","NameThai":"ถ้ำ NB0057","NameEnglish":"Cave NB0057"}},{"type":"Feature","geometry":{"type":"Point","coordinates":[101.39686,14.63617]},"properties":{"name":"ถ้ำ NR0008","longitude":"101.39686","latitude":"14.63617","NameThai":"ถ้ำ NR0008","NameEnglish":"Cave NR0008"}},{"type":"Feature","geometry":{"type":"Point","coordinates":[101.39685,14.68617]},"properties":{"name":"ถ้ำ NR0009","longitude":"101.39685","latitude":"14.68617","NameThai":"ถ้ำ NR0009","NameEnglish":"Cave NR0009"}},{"type":"Feature","geometry":{"type":"Point","coordinates":[101.41561,14.65405]},"properties":{"name":"ถ้ำ NR0010","longitude":"101.41561","latitude":"14.65405","NameThai":"ถ้ำ NR0010","NameEnglish":"Cave NR0010"}},{"type":"Feature","geometry":{"type":"Point","coordinates":[99.76666,8.14998]},"properties":{"name":"ถ้ำ NT0023","longitude":"99.76666","latitude":"8.14998","NameThai":"ถ้ำ NT0023","NameEnglish":"Cave NT0023"}},{"type":"Feature","geometry":{"type":"Point","coordinates":[99.74999,8.13331]},"properties":{"name":"ถ้ำ NT0024","longitude":"99.74999","latitude":"8.13331","NameThai":"ถ้ำ NT0024","NameEnglish":"Cave NT0024"}},{"type":"Feature","geometry":{"type":"Point","coordinates":[99.66672,8.1338]},"properties":{"name":"ถ้ำ NT0027","longitude":"99.66672","latitude":"8.1338","NameThai":"ถ้ำ NT0027","NameEnglish":"Cave NT0027"}},{"type":"Feature","geometry":{"type":"Point","coordinates":[99.79231,8.36709]},"properties":{"name":"ถ้ำ NT0040","longitude":"99.79231","latitude":"8.36709","NameThai":"ถ้ำ NT0040","NameEnglish":"Cave NT0040"}},{"type":"Feature","geometry":{"type":"Point","coordinates":[98.83395,15.96702]},"properties":{"name":"ถ้ำ P1","longitude":"98.83395","latitude":"15.96702","NameThai":"ถ้ำ P1","NameEnglish":"Cave P1"}},{"type":"Feature","geometry":{"type":"Point","coordinates":[101.51732,16.93905]},"properties":{"name":"ถ้ำ PE0073","longitude":"101.51732","latitude":"16.93905","NameThai":"ถ้ำ PE0073","NameEnglish":"Cave PE0073"}},{"type":"Feature","geometry":{"type":"Point","coordinates":[100.87256,16.06736]},"properties":{"name":"ถ้ำ PE0147","longitude":"100.87256","latitude":"16.06736","NameThai":"ถ้ำ PE0147","NameEnglish":"Cave PE0147"}},{"type":"Feature","geometry":{"type":"Point","coordinates":[101.50767,16.94449]},"properties":{"name":"ถ้ำ PE0150","longitude":"101.50767","latitude":"16.94449","NameThai":"ถ้ำ PE0150","NameEnglish":"Cave PE0150"}},{"type":"Feature","geometry":{"type":"Point","coordinates":[100.87449,16.06573]},"properties":{"name":"ถ้ำ PE0163","longitude":"100.87449","latitude":"16.06573","NameThai":"ถ้ำ PE0163","NameEnglish":"Cave PE0163"}},{"type":"Feature","geometry":{"type":"Point","coordinates":[99.06343,19.38416]},"properties":{"name":"ถ้ำ PHD14","longitude":"99.06343","latitude":"19.38416","NameThai":"ถ้ำ PHD14","NameEnglish":"Cave PHD14"}},{"type":"Feature","geometry":{"type":"Point","coordinates":[99.06157,19.57915]},"properties":{"name":"ถ้ำ PHD7","longitude":"99.06157","latitude":"19.57915","NameThai":"ถ้ำ PHD7","NameEnglish":"Cave PHD7"}},{"type":"Feature","geometry":{"type":"Point","coordinates":[99.06252,19.57644]},"properties":{"name":"ถ้ำ PHD8","longitude":"99.06252","latitude":"19.57644","NameThai":"ถ้ำ PHD8","NameEnglish":"Cave PHD8"}},{"type":"Feature","geometry":{"type":"Point","coordinates":[99.97173,12.22308]},"properties":{"name":"ถ้ำ PK0068","longitude":"99.97173","latitude":"12.22308","NameThai":"ถ้ำ PK0068","NameEnglish":"Cave PK0068"}},{"type":"Feature","geometry":{"type":"Point","coordinates":[100.08878,7.6327]},"properties":{"name":"ถ้ำ PL0017","longitude":"100.08878","latitude":"7.6327","NameThai":"ถ้ำ PL0017","NameEnglish":"Cave PL0017"}},{"type":"Feature","geometry":{"type":"Point","coordinates":[100.13141,7.44993]},"properties":{"name":"ถ้ำ PL0073","longitude":"100.13141","latitude":"7.44993","NameThai":"ถ้ำ PL0073","NameEnglish":"Cave PL0073"}},{"type":"Feature","geometry":{"type":"Point","coordinates":[99.83609,7.69666]},"properties":{"name":"ถ้ำ PL0080","longitude":"99.83609","latitude":"7.69666","NameThai":"ถ้ำ PL0080","NameEnglish":"Cave PL0080"}},{"type":"Feature","geometry":{"type":"Point","coordinates":[98.88888,19.39342]},"properties":{"name":"ถ้ำ PL12","longitude":"98.88888","latitude":"19.39342","NameThai":"ถ้ำ PL12","NameEnglish":"Cave PL12"}},{"type":"Feature","geometry":{"type":"Point","coordinates":[98.90273,19.39596]},"properties":{"name":"ถ้ำ PL29","longitude":"98.90273","latitude":"19.39596","NameThai":"ถ้ำ PL29","NameEnglish":"Cave PL29"}},{"type":"Feature","geometry":{"type":"Point","coordinates":[100.76676,16.78311]},"properties":{"name":"ถ้ำ PS0101","longitude":"100.76676","latitude":"16.78311","NameThai":"ถ้ำ PS0101","NameEnglish":"Cave PS0101"}},{"type":"Feature","geometry":{"type":"Point","coordinates":[100.68873,16.50542]},"properties":{"name":"ถ้ำ PS0107","longitude":"100.68873","latitude":"16.50542","NameThai":"ถ้ำ PS0107","NameEnglish":"Cave PS0107"}},{"type":"Feature","geometry":{"type":"Point","coordinates":[100.68716,16.50135]},"properties":{"name":"ถ้ำ PS0109","longitude":"100.68716","latitude":"16.50135","NameThai":"ถ้ำ PS0109","NameEnglish":"Cave PS0109"}},{"type":"Feature","geometry":{"type":"Point","coordinates":[100.01833,6.85945]},"properties":{"name":"ถ้ำ SA0087","longitude":"100.01833","latitude":"6.85945","NameThai":"ถ้ำ SA0087","NameEnglish":"Cave SA0087"}},{"type":"Feature","geometry":{"type":"Point","coordinates":[101.12988,14.60168]},"properties":{"name":"ถ้ำ SB0023","longitude":"101.12988","latitude":"14.60168","NameThai":"ถ้ำ SB0023","NameEnglish":"Cave SB0023"}},{"type":"Feature","geometry":{"type":"Point","coordinates":[101.09655,14.65167]},"properties":{"name":"ถ้ำ SB0049","longitude":"101.09655","latitude":"14.65167","NameThai":"ถ้ำ SB0049","NameEnglish":"Cave SB0049"}},{"type":"Feature","geometry":{"type":"Point","coordinates":[101.07997,14.38701]},"properties":{"name":"ถ้ำ SB0150","longitude":"101.07997","latitude":"14.38701","NameThai":"ถ้ำ SB0150","NameEnglish":"Cave SB0150"}},{"type":"Feature","geometry":{"type":"Point","coordinates":[102.09146,13.66215]},"properties":{"name":"ถ้ำ SK0009","longitude":"102.09146","latitude":"13.66215","NameThai":"ถ้ำ SK0009","NameEnglish":"Cave SK0009"}},{"type":"Feature","geometry":{"type":"Point","coordinates":[102.09095,13.66228]},"properties":{"name":"ถ้ำ SK0010","longitude":"102.09095","latitude":"13.66228","NameThai":"ถ้ำ SK0010","NameEnglish":"Cave SK0010"}},{"type":"Feature","geometry":{"type":"Point","coordinates":[102.08894,13.66004]},"properties":{"name":"ถ้ำ SK0012","longitude":"102.08894","latitude":"13.66004","NameThai":"ถ้ำ SK0012","NameEnglish":"Cave SK0012"}},{"type":"Feature","geometry":{"type":"Point","coordinates":[102.08918,13.65991]},"properties":{"name":"ถ้ำ SK0013","longitude":"102.08918","latitude":"13.65991","NameThai":"ถ้ำ SK0013","NameEnglish":"Cave SK0013"}},{"type":"Feature","geometry":{"type":"Point","coordinates":[102.08547,13.6591]},"properties":{"name":"ถ้ำ SK0014","longitude":"102.08547","latitude":"13.6591","NameThai":"ถ้ำ SK0014","NameEnglish":"Cave SK0014"}},{"type":"Feature","geometry":{"type":"Point","coordinates":[102.09805,13.64832]},"properties":{"name":"ถ้ำ SK0017","longitude":"102.09805","latitude":"13.64832","NameThai":"ถ้ำ SK0017","NameEnglish":"Cave SK0017"}},{"type":"Feature","geometry":{"type":"Point","coordinates":[102.09361,13.6511]},"properties":{"name":"ถ้ำ SK0018","longitude":"102.09361","latitude":"13.6511","NameThai":"ถ้ำ SK0018","NameEnglish":"Cave SK0018"}},{"type":"Feature","geometry":{"type":"Point","coordinates":[102.32494,13.33025]},"properties":{"name":"ถ้ำ SK0019","longitude":"102.32494","latitude":"13.33025","NameThai":"ถ้ำ SK0019","NameEnglish":"Cave SK0019"}},{"type":"Feature","geometry":{"type":"Point","coordinates":[102.31843,13.34078]},"properties":{"name":"ถ้ำ SK0020","longitude":"102.31843","latitude":"13.34078","NameThai":"ถ้ำ SK0020","NameEnglish":"Cave SK0020"}},{"type":"Feature","geometry":{"type":"Point","coordinates":[102.28806,13.47305]},"properties":{"name":"ถ้ำ SK0022","longitude":"102.28806","latitude":"13.47305","NameThai":"ถ้ำ SK0022","NameEnglish":"Cave SK0022"}},{"type":"Feature","geometry":{"type":"Point","coordinates":[102.2825,13.48083]},"properties":{"name":"ถ้ำ SK0023","longitude":"102.2825","latitude":"13.48083","NameThai":"ถ้ำ SK0023","NameEnglish":"Cave SK0023"}},{"type":"Feature","geometry":{"type":"Point","coordinates":[100.84049,6.57295]},"properties":{"name":"ถ้ำ SO0028","longitude":"100.84049","latitude":"6.57295","NameThai":"ถ้ำ SO0028","NameEnglish":"Cave SO0028"}},{"type":"Feature","geometry":{"type":"Point","coordinates":[100.83448,6.57203]},"properties":{"name":"ถ้ำ SO0047","longitude":"100.83448","latitude":"6.57203","NameThai":"ถ้ำ SO0047","NameEnglish":"Cave SO0047"}},{"type":"Feature","geometry":{"type":"Point","coordinates":[100.2778,6.70822]},"properties":{"name":"ถ้ำ SO0054","longitude":"100.2778","latitude":"6.70822","NameThai":"ถ้ำ SO0054","NameEnglish":"Cave SO0054"}},{"type":"Feature","geometry":{"type":"Point","coordinates":[100.27538,6.70939]},"properties":{"name":"ถ้ำ SO0055","longitude":"100.27538","latitude":"6.70939","NameThai":"ถ้ำ SO0055","NameEnglish":"Cave SO0055"}},{"type":"Feature","geometry":{"type":"Point","coordinates":[99.18711,9.54104]},"properties":{"name":"ถ้ำ ST0036","longitude":"99.18711","latitude":"9.54104","NameThai":"ถ้ำ ST0036","NameEnglish":"Cave ST0036"}},{"type":"Feature","geometry":{"type":"Point","coordinates":[98.53306,8.90036]},"properties":{"name":"ถ้ำ ST0125","longitude":"98.53306","latitude":"8.90036","NameThai":"ถ้ำ ST0125","NameEnglish":"Cave ST0125"}},{"type":"Feature","geometry":{"type":"Point","coordinates":[98.55185,8.89361]},"properties":{"name":"ถ้ำ ST0137","longitude":"98.55185","latitude":"8.89361","NameThai":"ถ้ำ ST0137","NameEnglish":"Cave ST0137"}},{"type":"Feature","geometry":{"type":"Point","coordinates":[99.00012,9.04596]},"properties":{"name":"ถ้ำ ST0142","longitude":"99.00012","latitude":"9.04596","NameThai":"ถ้ำ ST0142","NameEnglish":"Cave ST0142"}},{"type":"Feature","geometry":{"type":"Point","coordinates":[98.88867,8.87129]},"properties":{"name":"ถ้ำ ST0143","longitude":"98.88867","latitude":"8.87129","NameThai":"ถ้ำ ST0143","NameEnglish":"Cave ST0143"}},{"type":"Feature","geometry":{"type":"Point","coordinates":[98.88932,8.8687]},"properties":{"name":"ถ้ำ ST0145","longitude":"98.88932","latitude":"8.8687","NameThai":"ถ้ำ ST0145","NameEnglish":"Cave ST0145"}},{"type":"Feature","geometry":{"type":"Point","coordinates":[99.38065,8.82796]},"properties":{"name":"ถ้ำ ST0148","longitude":"99.38065","latitude":"8.82796","NameThai":"ถ้ำ ST0148","NameEnglish":"Cave ST0148"}},{"type":"Feature","geometry":{"type":"Point","coordinates":[99.72284,9.12542]},"properties":{"name":"ถ้ำ ST0153","longitude":"99.72284","latitude":"9.12542","NameThai":"ถ้ำ ST0153","NameEnglish":"Cave ST0153"}},{"type":"Feature","geometry":{"type":"Point","coordinates":[99.715,9.079]},"properties":{"name":"ถ้ำ ST0154","longitude":"99.715","latitude":"9.079","NameThai":"ถ้ำ ST0154","NameEnglish":"Cave ST0154"}},{"type":"Feature","geometry":{"type":"Point","coordinates":[99.71494,9.07739]},"properties":{"name":"ถ้ำ ST0156","longitude":"99.71494","latitude":"9.07739","NameThai":"ถ้ำ ST0156","NameEnglish":"Cave ST0156"}},{"type":"Feature","geometry":{"type":"Point","coordinates":[99.17887,9.55025]},"properties":{"name":"ถ้ำ ST0161","longitude":"99.17887","latitude":"9.55025","NameThai":"ถ้ำ ST0161","NameEnglish":"Cave ST0161"}},{"type":"Feature","geometry":{"type":"Point","coordinates":[99.17885,9.54116]},"properties":{"name":"ถ้ำ ST0164","longitude":"99.17885","latitude":"9.54116","NameThai":"ถ้ำ ST0164","NameEnglish":"Cave ST0164"}},{"type":"Feature","geometry":{"type":"Point","coordinates":[98.98146,9.56187]},"properties":{"name":"ถ้ำ ST0172","longitude":"98.98146","latitude":"9.56187","NameThai":"ถ้ำ ST0172","NameEnglish":"Cave ST0172"}},{"type":"Feature","geometry":{"type":"Point","coordinates":[98.8948,17.30311]},"properties":{"name":"ถ้ำ TA0030","longitude":"98.8948","latitude":"17.30311","NameThai":"ถ้ำ TA0030","NameEnglish":"Cave TA0030"}},{"type":"Feature","geometry":{"type":"Point","coordinates":[98.72449,16.02698]},"properties":{"name":"ถ้ำ TA0199","longitude":"98.72449","latitude":"16.02698","NameThai":"ถ้ำ TA0199","NameEnglish":"Cave TA0199"}},{"type":"Feature","geometry":{"type":"Point","coordinates":[99.08389,19.68969]},"properties":{"name":"ถ้ำ Ten","longitude":"99.08389","latitude":"19.68969","NameThai":"ถ้ำ Ten","NameEnglish":"Cave Ten"}},{"type":"Feature","geometry":{"type":"Point","coordinates":[98.98782,15.70432]},"properties":{"name":"ถ้ำ TK006","longitude":"98.98782","latitude":"15.70432","NameThai":"ถ้ำ TK006","NameEnglish":"Cave TK006"}},{"type":"Feature","geometry":{"type":"Point","coordinates":[99.05872,15.40192]},"properties":{"name":"ถ้ำ TK033","longitude":"99.05872","latitude":"15.40192","NameThai":"ถ้ำ TK033","NameEnglish":"Cave TK033"}},{"type":"Feature","geometry":{"type":"Point","coordinates":[99.05664,15.39354]},"properties":{"name":"ถ้ำ TK047","longitude":"99.05664","latitude":"15.39354","NameThai":"ถ้ำ TK047","NameEnglish":"Cave TK047"}},{"type":"Feature","geometry":{"type":"Point","coordinates":[99.05443,15.39329]},"properties":{"name":"ถ้ำ TK048","longitude":"99.05443","latitude":"15.39329","NameThai":"ถ้ำ TK048","NameEnglish":"Cave TK048"}},{"type":"Feature","geometry":{"type":"Point","coordinates":[98.97674,15.60269]},"properties":{"name":"ถ้ำ TK050","longitude":"98.97674","latitude":"15.60269","NameThai":"ถ้ำ TK050","NameEnglish":"Cave TK050"}},{"type":"Feature","geometry":{"type":"Point","coordinates":[98.98188,15.59365]},"properties":{"name":"ถ้ำ TK052","longitude":"98.98188","latitude":"15.59365","NameThai":"ถ้ำ TK052","NameEnglish":"Cave TK052"}},{"type":"Feature","geometry":{"type":"Point","coordinates":[98.91734,15.68334]},"properties":{"name":"ถ้ำ TK079","longitude":"98.91734","latitude":"15.68334","NameThai":"ถ้ำ TK079","NameEnglish":"Cave TK079"}},{"type":"Feature","geometry":{"type":"Point","coordinates":[98.92111,15.68085]},"properties":{"name":"ถ้ำ TK081","longitude":"98.92111","latitude":"15.68085","NameThai":"ถ้ำ TK081","NameEnglish":"Cave TK081"}},{"type":"Feature","geometry":{"type":"Point","coordinates":[98.97507,18.31305]},"properties":{"name":"ถ้ำ TML4","longitude":"98.97507","latitude":"18.31305","NameThai":"ถ้ำ TML4","NameEnglish":"Cave TML4"}},{"type":"Feature","geometry":{"type":"Point","coordinates":[99.04345,19.53108]},"properties":{"name":"ถ้ำ UBSS 2000-12","longitude":"99.04345","latitude":"19.53108","NameThai":"ถ้ำ UBSS 2000-12","NameEnglish":"Cave UBSS 2000-12"}},{"type":"Feature","geometry":{"type":"Point","coordinates":[99.08193,19.69378]},"properties":{"name":"ถ้ำ UBSS 2000-4","longitude":"99.08193","latitude":"19.69378","NameThai":"ถ้ำ UBSS 2000-4","NameEnglish":"Cave UBSS 2000-4"}},{"type":"Feature","geometry":{"type":"Point","coordinates":[101.22877,6.53642]},"properties":{"name":"ถ้ำ YA0035","longitude":"101.22877","latitude":"6.53642","NameThai":"ถ้ำ YA0035","NameEnglish":"Cave YA0035"}},{"type":"Feature","geometry":{"type":"Point","coordinates":[101.18206,6.53122]},"properties":{"name":"ถ้ำ YA0041","longitude":"101.18206","latitude":"6.53122","NameThai":"ถ้ำ YA0041","NameEnglish":"Cave YA0041"}},{"type":"Feature","geometry":{"type":"Point","coordinates":[101.22628,6.52802]},"properties":{"name":"ถ้ำ YA0046","longitude":"101.22628","latitude":"6.52802","NameThai":"ถ้ำ YA0046","NameEnglish":"Cave YA0046"}},{"type":"Feature","geometry":{"type":"Point","coordinates":[101.93488,17.09269]},"properties":{"name":"ถ้ำ LO0082","longitude":"101.93488","latitude":"17.09269","NameThai":"ถ้ำ LO0082","NameEnglish":"Caves LO0082"}},{"type":"Feature","geometry":{"type":"Point","coordinates":[98.23202,19.6035]},"properties":{"name":"ถ้ำ MH0013","longitude":"98.23202","latitude":"19.6035","NameThai":"ถ้ำ MH0013","NameEnglish":"Caves MH0013"}},{"type":"Feature","geometry":{"type":"Point","coordinates":[99.18935,9.53878]},"properties":{"name":"ถ้ำ ST0025","longitude":"99.18935","latitude":"9.53878","NameThai":"ถ้ำ ST0025","NameEnglish":"Caves ST0025"}},{"type":"Feature","geometry":{"type":"Point","coordinates":[102.33382,17.57585]},"properties":{"name":"ถ้ำ UD0027","longitude":"102.33382","latitude":"17.57585","NameThai":"ถ้ำ UD0027","NameEnglish":"Caves UD0027"}},{"type":"Feature","geometry":{"type":"Point","coordinates":[102.73345,17.15695]},"properties":{"name":"ถ้ำ UD0053","longitude":"102.73345","latitude":"17.15695","NameThai":"ถ้ำ UD0053","NameEnglish":"Caves UD0053"}},{"type":"Feature","geometry":{"type":"Point","coordinates":[99.04495,19.59687]},"properties":{"name":"ถ้ำโลงศพ CM0126","longitude":"99.04495","latitude":"19.59687","NameThai":"ถ้ำโลงศพ CM0126","NameEnglish":"Coffin Cave CM0126"}},{"type":"Feature","geometry":{"type":"Point","coordinates":[98.16665,19.53333]},"properties":{"name":"ถ้ำโลงศพ MH0116","longitude":"98.16665","latitude":"19.53333","NameThai":"ถ้ำโลงศพ MH0116","NameEnglish":"Coffin Cave MH0116"}},{"type":"Feature","geometry":{"type":"Point","coordinates":[98.21666,19.65]},"properties":{"name":"ถ้ำโลงศพ MH0169","longitude":"98.21666","latitude":"19.65","NameThai":"ถ้ำโลงศพ MH0169","NameEnglish":"Coffin Cave MH0169"}},{"type":"Feature","geometry":{"type":"Point","coordinates":[98.40716,18.54148]},"properties":{"name":"ถ้ำดอยสาน","longitude":"98.40716","latitude":"18.54148","NameThai":"ถ้ำดอยสาน","NameEnglish":"Doi San Tham"}},{"type":"Feature","geometry":{"type":"Point","coordinates":[98.30425,18.69796]},"properties":{"name":"ถ้ำดอยสิน","longitude":"98.30425","latitude":"18.69796","NameThai":"ถ้ำดอยสิน","NameEnglish":"Doi Sin Tham"}},{"type":"Feature","geometry":{"type":"Point","coordinates":[99.51762,19.50956]},"properties":{"name":"ถ้ำดอย","longitude":"99.51762","latitude":"19.50956","NameThai":"ถ้ำดอย","NameEnglish":"Doi Tham"}},{"type":"Feature","geometry":{"type":"Point","coordinates":[100.32325,18.50634]},"properties":{"name":"ถ้ำดอย","longitude":"100.32325","latitude":"18.50634","NameThai":"ถ้ำดอย","NameEnglish":"Doi Tham"}},{"type":"Feature","geometry":{"type":"Point","coordinates":[98.86443,14.87704]},"properties":{"name":"แอ่งถ้ำยุบ Double Doline","longitude":"98.86443","latitude":"14.87704","NameThai":"แอ่งถ้ำยุบ Double Doline","NameEnglish":"Double Doline Sinks"}},{"type":"Feature","geometry":{"type":"Point","coordinates":[99.63402,8.73319]},"properties":{"name":"ถ้ำฮงไฮ 1","longitude":"99.63402","latitude":"8.73319","NameThai":"ถ้ำฮงไฮ 1","NameEnglish":"Hong High Cave 1"}},{"type":"Feature","geometry":{"type":"Point","coordinates":[99.63321,8.7338]},"properties":{"name":"ถ้ำฮงไฮ 3","longitude":"99.63321","latitude":"8.7338","NameThai":"ถ้ำฮงไฮ 3","NameEnglish":"Hong High Cave 3"}},{"type":"Feature","geometry":{"type":"Point","coordinates":[99.09306,19.62884]},"properties":{"name":"หลืบถ้ำหูโลว์ 2","longitude":"99.09306","latitude":"19.62884","NameThai":"หลืบถ้ำหูโลว์ 2","NameEnglish":"Hoo Low Shaft 2"}},{"type":"Feature","geometry":{"type":"Point","coordinates":[98.91276,15.5706]},"properties":{"name":"แอ่งถ้ำยุบห้วยบิ","longitude":"98.91276","latitude":"15.5706","NameThai":"แอ่งถ้ำยุบห้วยบิ","NameEnglish":"Huai Bi Sink"}},{"type":"Feature","geometry":{"type":"Point","coordinates":[104.94454,15.6725]},"properties":{"name":"แอ่งถ้ำยุบห้วยโค","longitude":"104.94454","latitude":"15.6725","NameThai":"แอ่งถ้ำยุบห้วยโค","NameEnglish":"Huai Kho Sink"}},{"type":"Feature","geometry":{"type":"Point","coordinates":[98.87627,15.95775]},"properties":{"name":"แอ่งถ้ำยุบห้วยหล่อปู่","longitude":"98.87627","latitude":"15.95775","NameThai":"แอ่งถ้ำยุบห้วยหล่อปู่","NameEnglish":"Huai Loe Pu Main Sink"}},{"type":"Feature","geometry":{"type":"Point","coordinates":[98.23388,19.60236]},"properties":{"name":"แอ่งถ้ำยุบห้วยนาสร้อย","longitude":"98.23388","latitude":"19.60236","NameThai":"แอ่งถ้ำยุบห้วยนาสร้อย","NameEnglish":"Huai Na So - Main Sink"}},{"type":"Feature","geometry":{"type":"Point","coordinates":[101.06217,19.41914]},"properties":{"name":"แอ่งถ้ำยุบห้วยน้ำแดน","longitude":"101.06217","latitude":"19.41914","NameThai":"แอ่งถ้ำยุบห้วยน้ำแดน","NameEnglish":"Huai Nam Dan Sink"}},{"type":"Feature","geometry":{"type":"Point","coordinates":[100.4099,18.49718]},"properties":{"name":"แอ่งถ้ำยุบห้วยน้ำใหญ่","longitude":"100.4099","latitude":"18.49718","NameThai":"แอ่งถ้ำยุบห้วยน้ำใหญ่","NameEnglish":"Huai Nam Yai Sink"}},{"type":"Feature","geometry":{"type":"Point","coordinates":[99.02903,19.61194]},"properties":{"name":"แอ่งถ้ำยุบห้วยเป่า","longitude":"99.02903","latitude":"19.61194","NameThai":"แอ่งถ้ำยุบห้วยเป่า","NameEnglish":"Huai Pao Sink"}},{"type":"Feature","geometry":{"type":"Point","coordinates":[98.87408,15.16916]},"properties":{"name":"แอ่งถ้ำยุบห้วยปอมผี","longitude":"98.87408","latitude":"15.16916","NameThai":"แอ่งถ้ำยุบห้วยปอมผี","NameEnglish":"Huai Pom Phi Sink"}},{"type":"Feature","geometry":{"type":"Point","coordinates":[100.9199,16.75383]},"properties":{"name":"ห้วยถ้ำใหญ่","longitude":"100.9199","latitude":"16.75383","NameThai":"ห้วยถ้ำใหญ่","NameEnglish":"Huai Tham Yai"}},{"type":"Feature","geometry":{"type":"Point","coordinates":[98.56824,8.4896]},"properties":{"name":"แอ่งถ้ำยุบเขาบ่อโดลีน","longitude":"98.56824","latitude":"8.4896","NameThai":"แอ่งถ้ำยุบเขาบ่อโดลีน","NameEnglish":"Khao Bo Doline Sink"}},{"type":"Feature","geometry":{"type":"Point","coordinates":[99.94999,12.28332]},"properties":{"name":"เขาหัวถ้ำ","longitude":"99.94999","latitude":"12.28332","NameThai":"เขาหัวถ้ำ","NameEnglish":"Khao Hua Tham"}},{"type":"Feature","geometry":{"type":"Point","coordinates":[102.35319,11.99366]},"properties":{"name":"เขาคลองถ้ำ","longitude":"102.35319","latitude":"11.99366","NameThai":"เขาคลองถ้ำ","NameEnglish":"Khao Khlong Tham"}},{"type":"Feature","geometry":{"type":"Point","coordinates":[98.88282,8.15819]},"properties":{"name":"ถ้ำเขานาวังใหม่ 1","longitude":"98.88282","latitude":"8.15819","NameThai":"ถ้ำเขานาวังใหม่ 1","NameEnglish":"Khao Na Wang Mi Quarry Cave 1"}},{"type":"Feature","geometry":{"type":"Point","coordinates":[98.8849,8.15717]},"properties":{"name":"ถ้ำเขานาวังใหม่ 10","longitude":"98.8849","latitude":"8.15717","NameThai":"ถ้ำเขานาวังใหม่ 10","NameEnglish":"Khao Na Wang Mi Quarry Cave 10"}},{"type":"Feature","geometry":{"type":"Point","coordinates":[98.8849,8.1574]},"properties":{"name":"ถ้ำเขานาวังใหม่ 11","longitude":"98.8849","latitude":"8.1574","NameThai":"ถ้ำเขานาวังใหม่ 11","NameEnglish":"Khao Na Wang Mi Quarry Cave 11"}},{"type":"Feature","geometry":{"type":"Point","coordinates":[98.88502,8.15729]},"properties":{"name":"ถ้ำเขานาวังใหม่ 12","longitude":"98.88502","latitude":"8.15729","NameThai":"ถ้ำเขานาวังใหม่ 12","NameEnglish":"Khao Na Wang Mi Quarry Cave 12"}},{"type":"Feature","geometry":{"type":"Point","coordinates":[98.88502,8.15757]},"properties":{"name":"ถ้ำเขานาวังใหม่ 13","longitude":"98.88502","latitude":"8.15757","NameThai":"ถ้ำเขานาวังใหม่ 13","NameEnglish":"Khao Na Wang Mi Quarry Cave 13"}},{"type":"Feature","geometry":{"type":"Point","coordinates":[98.88513,8.15849]},"properties":{"name":"ถ้ำเขานาวังใหม่ 14","longitude":"98.88513","latitude":"8.15849","NameThai":"ถ้ำเขานาวังใหม่ 14","NameEnglish":"Khao Na Wang Mi Quarry Cave 14"}},{"type":"Feature","geometry":{"type":"Point","coordinates":[98.88484,8.15866]},"properties":{"name":"ถ้ำเขานาวังใหม่ 16","longitude":"98.88484","latitude":"8.15866","NameThai":"ถ้ำเขานาวังใหม่ 16","NameEnglish":"Khao Na Wang Mi Quarry Cave 16"}},{"type":"Feature","geometry":{"type":"Point","coordinates":[98.88461,8.15872]},"properties":{"name":"ถ้ำเขานาวังใหม่ 17","longitude":"98.88461","latitude":"8.15872","NameThai":"ถ้ำเขานาวังใหม่ 17","NameEnglish":"Khao Na Wang Mi Quarry Cave 17"}},{"type":"Feature","geometry":{"type":"Point","coordinates":[98.88375,8.15918]},"properties":{"name":"ถ้ำเขานาวังใหม่ 18","longitude":"98.88375","latitude":"8.15918","NameThai":"ถ้ำเขานาวังใหม่ 18","NameEnglish":"Khao Na Wang Mi Quarry Cave 18"}},{"type":"Feature","geometry":{"type":"Point","coordinates":[98.88357,8.15923]},"properties":{"name":"ถ้ำเขานาวังใหม่ 19","longitude":"98.88357","latitude":"8.15923","NameThai":"ถ้ำเขานาวังใหม่ 19","NameEnglish":"Khao Na Wang Mi Quarry Cave 19"}},{"type":"Feature","geometry":{"type":"Point","coordinates":[98.88294,8.15796]},"properties":{"name":"ถ้ำเขานาวังใหม่ 3","longitude":"98.88294","latitude":"8.15796","NameThai":"ถ้ำเขานาวังใหม่ 3","NameEnglish":"Khao Na Wang Mi Quarry Cave 3"}},{"type":"Feature","geometry":{"type":"Point","coordinates":[98.88311,8.15762]},"properties":{"name":"ถ้ำเขานาวังใหม่ 4","longitude":"98.88311","latitude":"8.15762","NameThai":"ถ้ำเขานาวังใหม่ 4","NameEnglish":"Khao Na Wang Mi Quarry Cave 4"}},{"type":"Feature","geometry":{"type":"Point","coordinates":[98.88426,8.15722]},"properties":{"name":"ถ้ำเขานาวังใหม่ 9","longitude":"98.88426","latitude":"8.15722","NameThai":"ถ้ำเขานาวังใหม่ 9","NameEnglish":"Khao Na Wang Mi Quarry Cave 9"}},{"type":"Feature","geometry":{"type":"Point","coordinates":[99.49999,14.76666]},"properties":{"name":"เขาปลาย ห้วยถ้ำ","longitude":"99.49999","latitude":"14.76666","NameThai":"เขาปลาย ห้วยถ้ำ","NameEnglish":"Khao Plai Huai Tham"}},{"type":"Feature","geometry":{"type":"Point","coordinates":[99.51666,14.78333]},"properties":{"name":"เขาปลาย ห้วยถ้ำ","longitude":"99.51666","latitude":"14.78333","NameThai":"เขาปลาย ห้วยถ้ำ","NameEnglish":"Khao Plai Huai Tham"}},{"type":"Feature","geometry":{"type":"Point","coordinates":[102.33829,12.00663]},"properties":{"name":"เขาปลายคลองถ้ำ","longitude":"102.33829","latitude":"12.00663","NameThai":"เขาปลายคลองถ้ำ","NameEnglish":"Khao Plai Khlong Tham"}},{"type":"Feature","geometry":{"type":"Point","coordinates":[99.60684,13.69398]},"properties":{"name":"ถ้ำเขาทะลุ","longitude":"99.60684","latitude":"13.69398","NameThai":"ถ้ำเขาทะลุ","NameEnglish":"Khao Thalu"}},{"type":"Feature","geometry":{"type":"Point","coordinates":[100.79658,15.15163]},"properties":{"name":"ถ้ำเขาทะลุ","longitude":"100.79658","latitude":"15.15163","NameThai":"ถ้ำเขาทะลุ","NameEnglish":"Khao Thalu"}},{"type":"Feature","geometry":{"type":"Point","coordinates":[98.78787,8.5699]},"properties":{"name":"เขาถ้ำ","longitude":"98.78787","latitude":"8.5699","NameThai":"เขาถ้ำ","NameEnglish":"Khao Tham"}},{"type":"Feature","geometry":{"type":"Point","coordinates":[99.09999,10.21665]},"properties":{"name":"เขาถ้ำ","longitude":"99.09999","latitude":"10.21665","NameThai":"เขาถ้ำ","NameEnglish":"Khao Tham"}},{"type":"Feature","geometry":{"type":"Point","coordinates":[99.14719,10.56512]},"properties":{"name":"เขาถ้ำ","longitude":"99.14719","latitude":"10.56512","NameThai":"เขาถ้ำ","NameEnglish":"Khao Tham"}},{"type":"Feature","geometry":{"type":"Point","coordinates":[99.40092,8.4469]},"properties":{"name":"เขาถ้ำ","longitude":"99.40092","latitude":"8.4469","NameThai":"เขาถ้ำ","NameEnglish":"Khao Tham"}},{"type":"Feature","geometry":{"type":"Point","coordinates":[99.51665,14.33332]},"properties":{"name":"เขาถ้ำ","longitude":"99.51665","latitude":"14.33332","NameThai":"เขาถ้ำ","NameEnglish":"Khao Tham"}},{"type":"Feature","geometry":{"type":"Point","coordinates":[99.54163,14.11633]},"properties":{"name":"เขาถ้ำ","longitude":"99.54163","latitude":"14.11633","NameThai":"เขาถ้ำ","NameEnglish":"Khao Tham"}},{"type":"Feature","geometry":{"type":"Point","coordinates":[99.7527,8.16498]},"properties":{"name":"เขาถ้ำ","longitude":"99.7527","latitude":"8.16498","NameThai":"เขาถ้ำ","NameEnglish":"Khao Tham"}},{"type":"Feature","geometry":{"type":"Point","coordinates":[99.95987,7.49952]},"properties":{"name":"เขาถ้ำ","longitude":"99.95987","latitude":"7.49952","NameThai":"เขาถ้ำ","NameEnglish":"Khao Tham"}},{"type":"Feature","geometry":{"type":"Point","coordinates":[100.87591,15.24402]},"properties":{"name":"เขาถ้ำ","longitude":"100.87591","latitude":"15.24402","NameThai":"เขาถ้ำ","NameEnglish":"Khao Tham"}},{"type":"Feature","geometry":{"type":"Point","coordinates":[101.05138,16.01167]},"properties":{"name":"เขาถ้ำ","longitude":"101.05138","latitude":"16.01167","NameThai":"เขาถ้ำ","NameEnglish":"Khao Tham"}},{"type":"Feature","geometry":{"type":"Point","coordinates":[101.56326,12.64245]},"properties":{"name":"เขาถ้ำ","longitude":"101.56326","latitude":"12.64245","NameThai":"เขาถ้ำ","NameEnglish":"Khao Tham"}},{"type":"Feature","geometry":{"type":"Point","coordinates":[102.16666,12.56666]},"properties":{"name":"เขาถ้ำ","longitude":"102.16666","latitude":"12.56666","NameThai":"เขาถ้ำ","NameEnglish":"Khao Tham"}},{"type":"Feature","geometry":{"type":"Point","coordinates":[102.59712,12.09384]},"properties":{"name":"เขาถ้ำ","longitude":"102.59712","latitude":"12.09384","NameThai":"เขาถ้ำ","NameEnglish":"Khao Tham"}},{"type":"Feature","geometry":{"type":"Point","coordinates":[101.12423,14.59914]},"properties":{"name":"เขาถ้ำ 2","longitude":"101.12423","latitude":"14.59914","NameThai":"เขาถ้ำ 2","NameEnglish":"Khao Tham Cave 2"}},{"type":"Feature","geometry":{"type":"Point","coordinates":[99.69346,8.09125]},"properties":{"name":"เขาวัดถ้ำ","longitude":"99.69346","latitude":"8.09125","NameThai":"เขาวัดถ้ำ","NameEnglish":"Khao Wat Tham"}},{"type":"Feature","geometry":{"type":"Point","coordinates":[99.04315,19.54707]},"properties":{"name":"ถ้ำเด็ก","longitude":"99.04315","latitude":"19.54707","NameThai":"ถ้ำเด็ก","NameEnglish":"Kids' Cave"}},{"type":"Feature","geometry":{"type":"Point","coordinates":[98.67785,8.07784]},"properties":{"name":"ถ้ำเกาะฮองริฟต์","longitude":"98.67785","latitude":"8.07784","NameThai":"ถ้ำเกาะฮองริฟต์","NameEnglish":"Ko Hong Rift Cave"}},{"type":"Feature","geometry":{"type":"Point","coordinates":[98.67521,8.11745]},"properties":{"name":"ถ้ำเกาะเหลาบุโล๊ะ 3","longitude":"98.67521","latitude":"8.11745","NameThai":"ถ้ำเกาะเหลาบุโล๊ะ 3","NameEnglish":"Ko Lao Bu Lo Cave 3"}},{"type":"Feature","geometry":{"type":"Point","coordinates":[98.68565,8.07981]},"properties":{"name":"ถ้ำเกาะเหลากา 3","longitude":"98.68565","latitude":"8.07981","NameThai":"ถ้ำเกาะเหลากา 3","NameEnglish":"Ko Lao Ka Cave 3"}},{"type":"Feature","geometry":{"type":"Point","coordinates":[98.83615,8.00598]},"properties":{"name":"ถ้ำทะเลเกาะนก 3","longitude":"98.83615","latitude":"8.00598","NameThai":"ถ้ำทะเลเกาะนก 3","NameEnglish":"Ko Nok Sea Cave 3"}},{"type":"Feature","geometry":{"type":"Point","coordinates":[98.68961,8.09875]},"properties":{"name":"ถ้ำเกาะปากกา 1","longitude":"98.68961","latitude":"8.09875","NameThai":"ถ้ำเกาะปากกา 1","NameEnglish":"Ko Pak Ka Cave 1"}},{"type":"Feature","geometry":{"type":"Point","coordinates":[98.69449,8.10146]},"properties":{"name":"ถ้ำเกาะปากกา 3","longitude":"98.69449","latitude":"8.10146","NameThai":"ถ้ำเกาะปากกา 3","NameEnglish":"Ko Pak Ka Cave 3"}},{"type":"Feature","geometry":{"type":"Point","coordinates":[98.70901,8.1128]},"properties":{"name":"ถ้ำเกาะไสยาตลิ่ง 1","longitude":"98.70901","latitude":"8.1128","NameThai":"ถ้ำเกาะไสยาตลิ่ง 1","NameEnglish":"Ko Saya Taling Cave 1"}},{"type":"Feature","geometry":{"type":"Point","coordinates":[98.70706,8.11433]},"properties":{"name":"ถ้ำเกาะไสยาตลิ่ง 2","longitude":"98.70706","latitude":"8.11433","NameThai":"ถ้ำเกาะไสยาตลิ่ง 2","NameEnglish":"Ko Saya Taling Cave 2"}},{"type":"Feature","geometry":{"type":"Point","coordinates":[99.33333,10.49999]},"properties":{"name":"ถ้ำเกาะทะลุ 2","longitude":"99.33333","latitude":"10.49999","NameThai":"ถ้ำเกาะทะลุ 2","NameEnglish":"Ko Thalu Cave 2"}},{"type":"Feature","geometry":{"type":"Point","coordinates":[101.44591,12.57999]},"properties":{"name":"ถ้ำแหลม","longitude":"101.44591","latitude":"12.57999","NameThai":"ถ้ำแหลม","NameEnglish":"Laem Tham"}},{"type":"Feature","geometry":{"type":"Point","coordinates":[98.2182,19.58486]},"properties":{"name":"แอ่งถ้ำยุบแม่ลานา","longitude":"98.2182","latitude":"19.58486","NameThai":"แอ่งถ้ำยุบแม่ลานา","NameEnglish":"Mae Lana Sink"}},{"type":"Feature","geometry":{"type":"Point","coordinates":[101.25237,6.27347]},"properties":{"name":"ถ้ำการทำสมาธิ","longitude":"101.25237","latitude":"6.27347","NameThai":"ถ้ำการทำสมาธิ","NameEnglish":"Meditation Cave"}},{"type":"Feature","geometry":{"type":"Point","coordinates":[99.0492,19.54257]},"properties":{"name":"ถ้ำโคลน","longitude":"99.0492","latitude":"19.54257","NameThai":"ถ้ำโคลน","NameEnglish":"Mud Cave"}},{"type":"Feature","geometry":{"type":"Point","coordinates":[98.166,19.52787]},"properties":{"name":"แอ่งถ้ำยุบน้ำหลังเก่า","longitude":"98.166","latitude":"19.52787","NameThai":"แอ่งถ้ำยุบน้ำหลังเก่า","NameEnglish":"Nam Lang Old Sink"}},{"type":"Feature","geometry":{"type":"Point","coordinates":[101.74751,17.06278]},"properties":{"name":"ถ้ำน้ำตกปิยังดิน","longitude":"101.74751","latitude":"17.06278","NameThai":"ถ้ำน้ำตกปิยังดิน","NameEnglish":"Namtok Piyang Din Resurgence"}},{"type":"Feature","geometry":{"type":"Point","coordinates":[99.07331,19.6737]},"properties":{"name":"ถ้ำหนอง","longitude":"99.07331","latitude":"19.6737","NameThai":"ถ้ำหนอง","NameEnglish":"Nong Cave"}},{"type":"Feature","geometry":{"type":"Point","coordinates":[98.22169,19.5829]},"properties":{"name":"แอ่งถ้ำยุบแม่ลานาเก่า","longitude":"98.22169","latitude":"19.5829","NameThai":"แอ่งถ้ำยุบแม่ลานาเก่า","NameEnglish":"Old Mae Lana Sink"}},{"type":"Feature","geometry":{"type":"Point","coordinates":[98.99447,15.56764]},"properties":{"name":"แอ่งถ้ำยุบผาฟ้า","longitude":"98.99447","latitude":"15.56764","NameThai":"แอ่งถ้ำยุบผาฟ้า","NameEnglish":"Pha Fa Sinks"}},{"type":"Feature","geometry":{"type":"Point","coordinates":[101.7135,17.06953]},"properties":{"name":"ถ้ำภู","longitude":"101.7135","latitude":"17.06953","NameThai":"ถ้ำภู","NameEnglish":"Phu Tham"}},{"type":"Feature","geometry":{"type":"Point","coordinates":[102.10121,18.04617]},"properties":{"name":"ถ้ำภู","longitude":"102.10121","latitude":"18.04617","NameThai":"ถ้ำภู","NameEnglish":"Phu Tham"}},{"type":"Feature","geometry":{"type":"Point","coordinates":[104.16666,16.68333]},"properties":{"name":"ถ้ำภูผา","longitude":"104.16666","latitude":"16.68333","NameThai":"ถ้ำภูผา","NameEnglish":"Phu Tham Phra"}},{"type":"Feature","geometry":{"type":"Point","coordinates":[98.90098,14.8484]},"properties":{"name":"แอ่งถ้ำยุบโป่งช้างบน","longitude":"98.90098","latitude":"14.8484","NameThai":"แอ่งถ้ำยุบโป่งช้างบน","NameEnglish":"Pong Chang Bon Sink"}},{"type":"Feature","geometry":{"type":"Point","coordinates":[98.84041,8.00564]},"properties":{"name":"ถ้ำราชาวดีรีสอร์ท","longitude":"98.84041","latitude":"8.00564","NameThai":"ถ้ำราชาวดีรีสอร์ท","NameEnglish":"Rayawadee Resort Caves"}},{"type":"Feature","geometry":{"type":"Point","coordinates":[99.86379,20.3274]},"properties":{"name":"ถ้ำน้ำลอด CR0077","longitude":"99.86379","latitude":"20.3274","NameThai":"ถ้ำน้ำลอด CR0077","NameEnglish":"Resurgence CR0077"}},{"type":"Feature","geometry":{"type":"Point","coordinates":[101.75698,17.04287]},"properties":{"name":"ถ้ำน้ำลอด LO0174","longitude":"101.75698","latitude":"17.04287","NameThai":"ถ้ำน้ำลอด LO0174","NameEnglish":"Resurgence LO0174"}},{"type":"Feature","geometry":{"type":"Point","coordinates":[99.37923,8.11187]},"properties":{"name":"ถ้ำน้ำลอด NT0112","longitude":"99.37923","latitude":"8.11187","NameThai":"ถ้ำน้ำลอด NT0112","NameEnglish":"Resurgence NT0112"}},{"type":"Feature","geometry":{"type":"Point","coordinates":[98.60396,8.55963]},"properties":{"name":"ถ้ำน้ำลอด PH0107","longitude":"98.60396","latitude":"8.55963","NameThai":"ถ้ำน้ำลอด PH0107","NameEnglish":"Resurgence PH0107"}},{"type":"Feature","geometry":{"type":"Point","coordinates":[99.37081,8.55112]},"properties":{"name":"ถ้ำน้ำลอด ST0133","longitude":"99.37081","latitude":"8.55112","NameThai":"ถ้ำน้ำลอด ST0133","NameEnglish":"Resurgence ST0133"}},{"type":"Feature","geometry":{"type":"Point","coordinates":[98.884,15.6111]},"properties":{"name":"ถ้ำน้ำลอด TK023","longitude":"98.884","latitude":"15.6111","NameThai":"ถ้ำน้ำลอด TK023","NameEnglish":"Resurgence TK023"}},{"type":"Feature","geometry":{"type":"Point","coordinates":[101.25206,6.27374]},"properties":{"name":"ถ้ำน้ำลอด YA0019","longitude":"101.25206","latitude":"6.27374","NameThai":"ถ้ำน้ำลอด YA0019","NameEnglish":"Resurgence YA0019"}},{"type":"Feature","geometry":{"type":"Point","coordinates":[101.83794,16.62053]},"properties":{"name":"เพิงผา CH0062","longitude":"101.83794","latitude":"16.62053","NameThai":"เพิงผา CH0062","NameEnglish":"Rock Shelter CH0062"}},{"type":"Feature","geometry":{"type":"Point","coordinates":[99.78332,13.56665]},"properties":{"name":"เพิงผา RB0041","longitude":"99.78332","latitude":"13.56665","NameThai":"เพิงผา RB0041","NameEnglish":"Rock Shelter RB0041"}},{"type":"Feature","geometry":{"type":"Point","coordinates":[98.73268,16.01546]},"properties":{"name":"หลืบถ้ำ A8","longitude":"98.73268","latitude":"16.01546","NameThai":"หลืบถ้ำ A8","NameEnglish":"Shaft A8"}},{"type":"Feature","geometry":{"type":"Point","coordinates":[98.72471,15.99797]},"properties":{"name":"หลืบถ้ำ B20","longitude":"98.72471","latitude":"15.99797","NameThai":"หลืบถ้ำ B20","NameEnglish":"Shaft B20"}},{"type":"Feature","geometry":{"type":"Point","coordinates":[98.88369,15.21037]},"properties":{"name":"หลืบถ้ำ KA0448","longitude":"98.88369","latitude":"15.21037","NameThai":"หลืบถ้ำ KA0448","NameEnglish":"Shaft KA0448"}},{"type":"Feature","geometry":{"type":"Point","coordinates":[99.35704,13.9701]},"properties":{"name":"หลืบถ้ำ KA0585","longitude":"99.35704","latitude":"13.9701","NameThai":"หลืบถ้ำ KA0585","NameEnglish":"Shaft KA0585"}},{"type":"Feature","geometry":{"type":"Point","coordinates":[101.05689,19.4164]},"properties":{"name":"หลืบถ้ำ NA0070","longitude":"101.05689","latitude":"19.4164","NameThai":"หลืบถ้ำ NA0070","NameEnglish":"Shaft NA0070"}},{"type":"Feature","geometry":{"type":"Point","coordinates":[101.05453,19.42583]},"properties":{"name":"หลืบถ้ำ NA0097","longitude":"101.05453","latitude":"19.42583","NameThai":"หลืบถ้ำ NA0097","NameEnglish":"Shaft NA0097"}},{"type":"Feature","geometry":{"type":"Point","coordinates":[101.06925,19.3458]},"properties":{"name":"หลืบถ้ำ NA0139","longitude":"101.06925","latitude":"19.3458","NameThai":"หลืบถ้ำ NA0139","NameEnglish":"Shaft NA0139"}},{"type":"Feature","geometry":{"type":"Point","coordinates":[101.0739,19.34585]},"properties":{"name":"หลืบถ้ำ NA0150","longitude":"101.0739","latitude":"19.34585","NameThai":"หลืบถ้ำ NA0150","NameEnglish":"Shaft NA0150"}},{"type":"Feature","geometry":{"type":"Point","coordinates":[101.07139,19.36023]},"properties":{"name":"หลืบถ้ำ NA0177","longitude":"101.07139","latitude":"19.36023","NameThai":"หลืบถ้ำ NA0177","NameEnglish":"Shaft NA0177"}},{"type":"Feature","geometry":{"type":"Point","coordinates":[101.10389,19.25496]},"properties":{"name":"หลืบถ้ำ NA0203","longitude":"101.10389","latitude":"19.25496","NameThai":"หลืบถ้ำ NA0203","NameEnglish":"Shaft NA0203"}},{"type":"Feature","geometry":{"type":"Point","coordinates":[100.87348,16.06651]},"properties":{"name":"หลืบถ้ำ PE0165","longitude":"100.87348","latitude":"16.06651","NameThai":"หลืบถ้ำ PE0165","NameEnglish":"Shaft PE0165"}},{"type":"Feature","geometry":{"type":"Point","coordinates":[100.87349,16.06669]},"properties":{"name":"หลืบถ้ำ PE0166","longitude":"100.87349","latitude":"16.06669","NameThai":"หลืบถ้ำ PE0166","NameEnglish":"Shaft PE0166"}},{"type":"Feature","geometry":{"type":"Point","coordinates":[98.89342,19.39442]},"properties":{"name":"หลืบถ้ำ PL06","longitude":"98.89342","latitude":"19.39442","NameThai":"หลืบถ้ำ PL06","NameEnglish":"Shaft PL06"}},{"type":"Feature","geometry":{"type":"Point","coordinates":[98.8935,19.39381]},"properties":{"name":"หลืบถ้ำ PL08","longitude":"98.8935","latitude":"19.39381","NameThai":"หลืบถ้ำ PL08","NameEnglish":"Shaft PL08"}},{"type":"Feature","geometry":{"type":"Point","coordinates":[98.88987,19.39721]},"properties":{"name":"หลืบถ้ำ PL09","longitude":"98.88987","latitude":"19.39721","NameThai":"หลืบถ้ำ PL09","NameEnglish":"Shaft PL09"}},{"type":"Feature","geometry":{"type":"Point","coordinates":[98.88894,19.3915]},"properties":{"name":"หลืบถ้ำ PL14","longitude":"98.88894","latitude":"19.3915","NameThai":"หลืบถ้ำ PL14","NameEnglish":"Shaft PL14"}},{"type":"Feature","geometry":{"type":"Point","coordinates":[98.88951,19.39292]},"properties":{"name":"หลืบถ้ำ PL15","longitude":"98.88951","latitude":"19.39292","NameThai":"หลืบถ้ำ PL15","NameEnglish":"Shaft PL15"}},{"type":"Feature","geometry":{"type":"Point","coordinates":[98.88936,19.39005]},"properties":{"name":"หลืบถ้ำ PL16","longitude":"98.88936","latitude":"19.39005","NameThai":"หลืบถ้ำ PL16","NameEnglish":"Shaft PL16"}},{"type":"Feature","geometry":{"type":"Point","coordinates":[98.89122,19.39341]},"properties":{"name":"หลืบถ้ำ PL17","longitude":"98.89122","latitude":"19.39341","NameThai":"หลืบถ้ำ PL17","NameEnglish":"Shaft PL17"}},{"type":"Feature","geometry":{"type":"Point","coordinates":[100.8523,6.60125]},"properties":{"name":"หลืบถ้ำ SO0049","longitude":"100.8523","latitude":"6.60125","NameThai":"หลืบถ้ำ SO0049","NameEnglish":"Shaft SO0049"}},{"type":"Feature","geometry":{"type":"Point","coordinates":[99.08085,19.69129]},"properties":{"name":"หลืบถ้ำ UBSS 2000-2","longitude":"99.08085","latitude":"19.69129","NameThai":"หลืบถ้ำ UBSS 2000-2","NameEnglish":"Shaft UBSS 2000-2"}},{"type":"Feature","geometry":{"type":"Point","coordinates":[99.10682,19.6652]},"properties":{"name":"หลืบถ้ำ UBSS 2000-5","longitude":"99.10682","latitude":"19.6652","NameThai":"หลืบถ้ำ UBSS 2000-5","NameEnglish":"Shaft UBSS 2000-5"}},{"type":"Feature","geometry":{"type":"Point","coordinates":[98.7237,16.01867]},"properties":{"name":"แอ่งถ้ำยุบ A11","longitude":"98.7237","latitude":"16.01867","NameThai":"แอ่งถ้ำยุบ A11","NameEnglish":"Sink A11"}},{"type":"Feature","geometry":{"type":"Point","coordinates":[98.72443,16.02445]},"properties":{"name":"แอ่งถ้ำยุบ A14","longitude":"98.72443","latitude":"16.02445","NameThai":"แอ่งถ้ำยุบ A14","NameEnglish":"Sink A14"}},{"type":"Feature","geometry":{"type":"Point","coordinates":[99.03635,19.81276]},"properties":{"name":"แอ่งถ้ำยุบ CM0143","longitude":"99.03635","latitude":"19.81276","NameThai":"แอ่งถ้ำยุบ CM0143","NameEnglish":"Sink CM0143"}},{"type":"Feature","geometry":{"type":"Point","coordinates":[99.07421,19.68224]},"properties":{"name":"แอ่งถ้ำยุบ CM0257","longitude":"99.07421","latitude":"19.68224","NameThai":"แอ่งถ้ำยุบ CM0257","NameEnglish":"Sink CM0257"}},{"type":"Feature","geometry":{"type":"Point","coordinates":[99.08894,19.67073]},"properties":{"name":"แอ่งถ้ำยุบ CM0258","longitude":"99.08894","latitude":"19.67073","NameThai":"แอ่งถ้ำยุบ CM0258","NameEnglish":"Sink CM0258"}},{"type":"Feature","geometry":{"type":"Point","coordinates":[99.04687,19.66687]},"properties":{"name":"แอ่งถ้ำยุบ CM0261","longitude":"99.04687","latitude":"19.66687","NameThai":"แอ่งถ้ำยุบ CM0261","NameEnglish":"Sink CM0261"}},{"type":"Feature","geometry":{"type":"Point","coordinates":[99.10044,19.63825]},"properties":{"name":"แอ่งถ้ำยุบ CM0263","longitude":"99.10044","latitude":"19.63825","NameThai":"แอ่งถ้ำยุบ CM0263","NameEnglish":"Sink CM0263"}},{"type":"Feature","geometry":{"type":"Point","coordinates":[98.81883,8.45396]},"properties":{"name":"แอ่งถ้ำยุบ KR0176","longitude":"98.81883","latitude":"8.45396","NameThai":"แอ่งถ้ำยุบ KR0176","NameEnglish":"Sink KR0176"}},{"type":"Feature","geometry":{"type":"Point","coordinates":[98.22207,19.56201]},"properties":{"name":"แอ่งถ้ำยุบ MH0311","longitude":"98.22207","latitude":"19.56201","NameThai":"แอ่งถ้ำยุบ MH0311","NameEnglish":"Sink MH0311"}},{"type":"Feature","geometry":{"type":"Point","coordinates":[98.2367,19.5937]},"properties":{"name":"แอ่งถ้ำยุบ MH0313","longitude":"98.2367","latitude":"19.5937","NameThai":"แอ่งถ้ำยุบ MH0313","NameEnglish":"Sink MH0313"}},{"type":"Feature","geometry":{"type":"Point","coordinates":[98.29851,19.52256]},"properties":{"name":"แอ่งถ้ำยุบ MH0314","longitude":"98.29851","latitude":"19.52256","NameThai":"แอ่งถ้ำยุบ MH0314","NameEnglish":"Sink MH0314"}},{"type":"Feature","geometry":{"type":"Point","coordinates":[98.4491,19.52128]},"properties":{"name":"แอ่งถ้ำยุบ MH0316","longitude":"98.4491","latitude":"19.52128","NameThai":"แอ่งถ้ำยุบ MH0316","NameEnglish":"Sink MH0316"}},{"type":"Feature","geometry":{"type":"Point","coordinates":[98.45004,19.52399]},"properties":{"name":"แอ่งถ้ำยุบ MH0317","longitude":"98.45004","latitude":"19.52399","NameThai":"แอ่งถ้ำยุบ MH0317","NameEnglish":"Sink MH0317"}},{"type":"Feature","geometry":{"type":"Point","coordinates":[98.45195,19.5249]},"properties":{"name":"แอ่งถ้ำยุบ MH0318","longitude":"98.45195","latitude":"19.5249","NameThai":"แอ่งถ้ำยุบ MH0318","NameEnglish":"Sink MH0318"}},{"type":"Feature","geometry":{"type":"Point","coordinates":[98.44246,19.51132]},"properties":{"name":"แอ่งถ้ำยุบ MH0320","longitude":"98.44246","latitude":"19.51132","NameThai":"แอ่งถ้ำยุบ MH0320","NameEnglish":"Sink MH0320"}},{"type":"Feature","geometry":{"type":"Point","coordinates":[98.41863,19.51305]},"properties":{"name":"แอ่งถ้ำยุบ MH0321","longitude":"98.41863","latitude":"19.51305","NameThai":"แอ่งถ้ำยุบ MH0321","NameEnglish":"Sink MH0321"}},{"type":"Feature","geometry":{"type":"Point","coordinates":[101.09049,19.42789]},"properties":{"name":"แอ่งถ้ำยุบ NA0073","longitude":"101.09049","latitude":"19.42789","NameThai":"แอ่งถ้ำยุบ NA0073","NameEnglish":"Sink NA0073"}},{"type":"Feature","geometry":{"type":"Point","coordinates":[101.07627,19.48445]},"properties":{"name":"แอ่งถ้ำยุบ NA0087","longitude":"101.07627","latitude":"19.48445","NameThai":"แอ่งถ้ำยุบ NA0087","NameEnglish":"Sink NA0087"}},{"type":"Feature","geometry":{"type":"Point","coordinates":[101.07835,19.47946]},"properties":{"name":"แอ่งถ้ำยุบ NA0088","longitude":"101.07835","latitude":"19.47946","NameThai":"แอ่งถ้ำยุบ NA0088","NameEnglish":"Sink NA0088"}},{"type":"Feature","geometry":{"type":"Point","coordinates":[101.08161,19.474]},"properties":{"name":"แอ่งถ้ำยุบ NA0089","longitude":"101.08161","latitude":"19.474","NameThai":"แอ่งถ้ำยุบ NA0089","NameEnglish":"Sink NA0089"}},{"type":"Feature","geometry":{"type":"Point","coordinates":[101.08697,19.46491]},"properties":{"name":"แอ่งถ้ำยุบ NA0090","longitude":"101.08697","latitude":"19.46491","NameThai":"แอ่งถ้ำยุบ NA0090","NameEnglish":"Sink NA0090"}},{"type":"Feature","geometry":{"type":"Point","coordinates":[101.0867,19.46175]},"properties":{"name":"แอ่งถ้ำยุบ NA0091","longitude":"101.0867","latitude":"19.46175","NameThai":"แอ่งถ้ำยุบ NA0091","NameEnglish":"Sink NA0091"}},{"type":"Feature","geometry":{"type":"Point","coordinates":[101.06869,19.43125]},"properties":{"name":"แอ่งถ้ำยุบ NA0093","longitude":"101.06869","latitude":"19.43125","NameThai":"แอ่งถ้ำยุบ NA0093","NameEnglish":"Sink NA0093"}},{"type":"Feature","geometry":{"type":"Point","coordinates":[101.06868,19.43034]},"properties":{"name":"แอ่งถ้ำยุบ NA0094","longitude":"101.06868","latitude":"19.43034","NameThai":"แอ่งถ้ำยุบ NA0094","NameEnglish":"Sink NA0094"}},{"type":"Feature","geometry":{"type":"Point","coordinates":[101.05429,19.42148]},"properties":{"name":"แอ่งถ้ำยุบ NA0098","longitude":"101.05429","latitude":"19.42148","NameThai":"แอ่งถ้ำยุบ NA0098","NameEnglish":"Sink NA0098"}},{"type":"Feature","geometry":{"type":"Point","coordinates":[101.05715,19.41367]},"properties":{"name":"แอ่งถ้ำยุบ NA0101","longitude":"101.05715","latitude":"19.41367","NameThai":"แอ่งถ้ำยุบ NA0101","NameEnglish":"Sink NA0101"}},{"type":"Feature","geometry":{"type":"Point","coordinates":[101.05552,19.40543]},"properties":{"name":"แอ่งถ้ำยุบ NA0105","longitude":"101.05552","latitude":"19.40543","NameThai":"แอ่งถ้ำยุบ NA0105","NameEnglish":"Sink NA0105"}},{"type":"Feature","geometry":{"type":"Point","coordinates":[101.0914,19.41193]},"properties":{"name":"แอ่งถ้ำยุบ NA0107","longitude":"101.0914","latitude":"19.41193","NameThai":"แอ่งถ้ำยุบ NA0107","NameEnglish":"Sink NA0107"}},{"type":"Feature","geometry":{"type":"Point","coordinates":[101.08393,19.40653]},"properties":{"name":"แอ่งถ้ำยุบ NA0108","longitude":"101.08393","latitude":"19.40653","NameThai":"แอ่งถ้ำยุบ NA0108","NameEnglish":"Sink NA0108"}},{"type":"Feature","geometry":{"type":"Point","coordinates":[101.083,19.39586]},"properties":{"name":"แอ่งถ้ำยุบ NA0109","longitude":"101.083","latitude":"19.39586","NameThai":"แอ่งถ้ำยุบ NA0109","NameEnglish":"Sink NA0109"}},{"type":"Feature","geometry":{"type":"Point","coordinates":[101.093,19.39574]},"properties":{"name":"แอ่งถ้ำยุบ NA0110","longitude":"101.093","latitude":"19.39574","NameThai":"แอ่งถ้ำยุบ NA0110","NameEnglish":"Sink NA0110"}},{"type":"Feature","geometry":{"type":"Point","coordinates":[101.09248,19.39259]},"properties":{"name":"แอ่งถ้ำยุบ NA0111","longitude":"101.09248","latitude":"19.39259","NameThai":"แอ่งถ้ำยุบ NA0111","NameEnglish":"Sink NA0111"}},{"type":"Feature","geometry":{"type":"Point","coordinates":[101.07898,19.39271]},"properties":{"name":"แอ่งถ้ำยุบ NA0112","longitude":"101.07898","latitude":"19.39271","NameThai":"แอ่งถ้ำยุบ NA0112","NameEnglish":"Sink NA0112"}},{"type":"Feature","geometry":{"type":"Point","coordinates":[101.08454,19.38545]},"properties":{"name":"แอ่งถ้ำยุบ NA0114","longitude":"101.08454","latitude":"19.38545","NameThai":"แอ่งถ้ำยุบ NA0114","NameEnglish":"Sink NA0114"}},{"type":"Feature","geometry":{"type":"Point","coordinates":[101.08047,19.38414]},"properties":{"name":"แอ่งถ้ำยุบ NA0115","longitude":"101.08047","latitude":"19.38414","NameThai":"แอ่งถ้ำยุบ NA0115","NameEnglish":"Sink NA0115"}},{"type":"Feature","geometry":{"type":"Point","coordinates":[101.0828,19.38005]},"properties":{"name":"แอ่งถ้ำยุบ NA0118","longitude":"101.0828","latitude":"19.38005","NameThai":"แอ่งถ้ำยุบ NA0118","NameEnglish":"Sink NA0118"}},{"type":"Feature","geometry":{"type":"Point","coordinates":[101.08085,19.37646]},"properties":{"name":"แอ่งถ้ำยุบ NA0120","longitude":"101.08085","latitude":"19.37646","NameThai":"แอ่งถ้ำยุบ NA0120","NameEnglish":"Sink NA0120"}},{"type":"Feature","geometry":{"type":"Point","coordinates":[101.07133,19.33863]},"properties":{"name":"แอ่งถ้ำยุบ NA0124","longitude":"101.07133","latitude":"19.33863","NameThai":"แอ่งถ้ำยุบ NA0124","NameEnglish":"Sink NA0124"}},{"type":"Feature","geometry":{"type":"Point","coordinates":[101.09177,19.33659]},"properties":{"name":"แอ่งถ้ำยุบ NA0126","longitude":"101.09177","latitude":"19.33659","NameThai":"แอ่งถ้ำยุบ NA0126","NameEnglish":"Sink NA0126"}},{"type":"Feature","geometry":{"type":"Point","coordinates":[101.07944,19.39316]},"properties":{"name":"แอ่งถ้ำยุบ NA0143","longitude":"101.07944","latitude":"19.39316","NameThai":"แอ่งถ้ำยุบ NA0143","NameEnglish":"Sink NA0143"}},{"type":"Feature","geometry":{"type":"Point","coordinates":[101.07549,19.36057]},"properties":{"name":"แอ่งถ้ำยุบ NA0175","longitude":"101.07549","latitude":"19.36057","NameThai":"แอ่งถ้ำยุบ NA0175","NameEnglish":"Sink NA0175"}},{"type":"Feature","geometry":{"type":"Point","coordinates":[101.07384,19.3601]},"properties":{"name":"แอ่งถ้ำยุบ NA0178","longitude":"101.07384","latitude":"19.3601","NameThai":"แอ่งถ้ำยุบ NA0178","NameEnglish":"Sink NA0178"}},{"type":"Feature","geometry":{"type":"Point","coordinates":[101.05745,19.41357]},"properties":{"name":"แอ่งถ้ำยุบ NA0198","longitude":"101.05745","latitude":"19.41357","NameThai":"แอ่งถ้ำยุบ NA0198","NameEnglish":"Sink NA0198"}},{"type":"Feature","geometry":{"type":"Point","coordinates":[101.08666,19.41117]},"properties":{"name":"แอ่งถ้ำยุบ NA0201","longitude":"101.08666","latitude":"19.41117","NameThai":"แอ่งถ้ำยุบ NA0201","NameEnglish":"Sink NA0201"}},{"type":"Feature","geometry":{"type":"Point","coordinates":[101.53371,16.91508]},"properties":{"name":"แอ่งถ้ำยุบ PE0078","longitude":"101.53371","latitude":"16.91508","NameThai":"แอ่งถ้ำยุบ PE0078","NameEnglish":"Sink PE0078"}},{"type":"Feature","geometry":{"type":"Point","coordinates":[98.58186,8.51706]},"properties":{"name":"แอ่งถ้ำยุบ PH0059","longitude":"98.58186","latitude":"8.51706","NameThai":"แอ่งถ้ำยุบ PH0059","NameEnglish":"Sink PH0059"}},{"type":"Feature","geometry":{"type":"Point","coordinates":[100.13427,18.88548]},"properties":{"name":"แอ่งถ้ำยุบ PY0030","longitude":"100.13427","latitude":"18.88548","NameThai":"แอ่งถ้ำยุบ PY0030","NameEnglish":"Sink PY0030"}},{"type":"Feature","geometry":{"type":"Point","coordinates":[100.13209,18.88698]},"properties":{"name":"แอ่งถ้ำยุบ PY0031","longitude":"100.13209","latitude":"18.88698","NameThai":"แอ่งถ้ำยุบ PY0031","NameEnglish":"Sink PY0031"}},{"type":"Feature","geometry":{"type":"Point","coordinates":[101.17141,14.56877]},"properties":{"name":"แอ่งถ้ำยุบ SB0120","longitude":"101.17141","latitude":"14.56877","NameThai":"แอ่งถ้ำยุบ SB0120","NameEnglish":"Sink SB0120"}},{"type":"Feature","geometry":{"type":"Point","coordinates":[101.16587,14.57113]},"properties":{"name":"แอ่งถ้ำยุบ SB0121","longitude":"101.16587","latitude":"14.57113","NameThai":"แอ่งถ้ำยุบ SB0121","NameEnglish":"Sink SB0121"}},{"type":"Feature","geometry":{"type":"Point","coordinates":[99.38558,8.83371]},"properties":{"name":"แอ่งถ้ำยุบ ST0151","longitude":"99.38558","latitude":"8.83371","NameThai":"แอ่งถ้ำยุบ ST0151","NameEnglish":"Sink ST0151"}},{"type":"Feature","geometry":{"type":"Point","coordinates":[99.37111,8.77936]},"properties":{"name":"แอ่งถ้ำยุบ ST0152","longitude":"99.37111","latitude":"8.77936","NameThai":"แอ่งถ้ำยุบ ST0152","NameEnglish":"Sink ST0152"}},{"type":"Feature","geometry":{"type":"Point","coordinates":[98.73344,16.01656]},"properties":{"name":"แอ่งถ้ำยุบ TA0039","longitude":"98.73344","latitude":"16.01656","NameThai":"แอ่งถ้ำยุบ TA0039","NameEnglish":"Sink TA0039"}},{"type":"Feature","geometry":{"type":"Point","coordinates":[98.71982,15.5548]},"properties":{"name":"แอ่งถ้ำยุบ TA0137","longitude":"98.71982","latitude":"15.5548","NameThai":"แอ่งถ้ำยุบ TA0137","NameEnglish":"Sink TA0137"}},{"type":"Feature","geometry":{"type":"Point","coordinates":[98.72282,16.00039]},"properties":{"name":"แอ่งถ้ำยุบ TA0194","longitude":"98.72282","latitude":"16.00039","NameThai":"แอ่งถ้ำยุบ TA0194","NameEnglish":"Sink TA0194"}},{"type":"Feature","geometry":{"type":"Point","coordinates":[98.72303,15.999]},"properties":{"name":"แอ่งถ้ำยุบ TA0196","longitude":"98.72303","latitude":"15.999","NameThai":"แอ่งถ้ำยุบ TA0196","NameEnglish":"Sink TA0196"}},{"type":"Feature","geometry":{"type":"Point","coordinates":[99.04263,19.54819]},"properties":{"name":"แอ่งถ้ำยุบ UBSS 2000-11","longitude":"99.04263","latitude":"19.54819","NameThai":"แอ่งถ้ำยุบ UBSS 2000-11","NameEnglish":"Sink UBSS 2000-11"}},{"type":"Feature","geometry":{"type":"Point","coordinates":[99.05318,19.63633]},"properties":{"name":"แอ่งถ้ำยุบ UBSS 2000-7","longitude":"99.05318","latitude":"19.63633","NameThai":"แอ่งถ้ำยุบ UBSS 2000-7","NameEnglish":"Sink UBSS 2000-7"}},{"type":"Feature","geometry":{"type":"Point","coordinates":[99.06066,19.58826]},"properties":{"name":"แอ่งถ้ำยุบ UBSS 2000-10","longitude":"99.06066","latitude":"19.58826","NameThai":"แอ่งถ้ำยุบ UBSS 2000-10","NameEnglish":"Sinks UBSS 2000-10"}},{"type":"Feature","geometry":{"type":"Point","coordinates":[98.10135,19.5977]},"properties":{"name":"ถ้ำวิญญาณ (เชสเตอร์ กอร์แมน)","longitude":"98.10135","latitude":"19.5977","NameThai":"ถ้ำวิญญาณ (เชสเตอร์ กอร์แมน)","NameEnglish":"Spirit Cave (Chester Gorman)"}},{"type":"Feature","geometry":{"type":"Point","coordinates":[100.82587,18.37781]},"properties":{"name":"ถ้ำศรีน่าน1","longitude":"100.82587","latitude":"18.37781","NameThai":"ถ้ำศรีน่าน1","NameEnglish":"Sri Nan Cave 1"}},{"type":"Feature","geometry":{"type":"Point","coordinates":[100.81149,18.38768]},"properties":{"name":"ถ้ำศรีน่าน2","longitude":"100.81149","latitude":"18.38768","NameThai":"ถ้ำศรีน่าน2","NameEnglish":"Sri Nan Cave 2"}},{"type":"Feature","geometry":{"type":"Point","coordinates":[101.74384,17.05142]},"properties":{"name":"ถ้ำสวนหินผางาม3","longitude":"101.74384","latitude":"17.05142","NameThai":"ถ้ำสวนหินผางาม3","NameEnglish":"Suan Hin Pha Ngam Cave 3"}},{"type":"Feature","geometry":{"type":"Point","coordinates":[100.88226,14.78487]},"properties":{"name":"ถ้ำ 1","longitude":"100.88226","latitude":"14.78487","NameThai":"ถ้ำ 1","NameEnglish":"Tham 1"}},{"type":"Feature","geometry":{"type":"Point","coordinates":[100.88153,14.78503]},"properties":{"name":"ถ้ำ2","longitude":"100.88153","latitude":"14.78503","NameThai":"ถ้ำ2","NameEnglish":"Tham 2"}},{"type":"Feature","geometry":{"type":"Point","coordinates":[102.62702,17.23553]},"properties":{"name":"ถ้ำ อิงสา","longitude":"102.62702","latitude":"17.23553","NameThai":"ถ้ำ อิงสา","NameEnglish":"Tham Ahingsa"}},{"type":"Feature","geometry":{"type":"Point","coordinates":[102.43837,17.37472]},"properties":{"name":"ถ้ำแอร์","longitude":"102.43837","latitude":"17.37472","NameThai":"ถ้ำแอร์","NameEnglish":"Tham Air"}},{"type":"Feature","geometry":{"type":"Point","coordinates":[102.47996,16.91041]},"properties":{"name":"ถ้ำอาจารย์สิม","longitude":"102.47996","latitude":"16.91041","NameThai":"ถ้ำอาจารย์สิม","NameEnglish":"Tham Ajarn Sim"}},{"type":"Feature","geometry":{"type":"Point","coordinates":[105.52069,15.5228]},"properties":{"name":"ถ้ำอนัตตา","longitude":"105.52069","latitude":"15.5228","NameThai":"ถ้ำอนัตตา","NameEnglish":"Tham Anatta"}},{"type":"Feature","geometry":{"type":"Point","coordinates":[104.31638,16.19623]},"properties":{"name":"ถ้ำอ่างมาเลย์","longitude":"104.31638","latitude":"16.19623","NameThai":"ถ้ำอ่างมาเลย์","NameEnglish":"Tham Ang Malay"}},{"type":"Feature","geometry":{"type":"Point","coordinates":[103.45364,17.285]},"properties":{"name":"ถ้ำอภัยดำรงธรรม","longitude":"103.45364","latitude":"17.285","NameThai":"ถ้ำอภัยดำรงธรรม","NameEnglish":"Tham Aphai Damrong Tham"}},{"type":"Feature","geometry":{"type":"Point","coordinates":[100.88772,14.79734]},"properties":{"name":"ถ้ำอริยศาสตร์สี","longitude":"100.88772","latitude":"14.79734","NameThai":"ถ้ำอริยศาสตร์สี","NameEnglish":"Tham Ariyasat Si"}},{"type":"Feature","geometry":{"type":"Point","coordinates":[101.39051,14.92827]},"properties":{"name":"ถ้ำบาดาล","longitude":"101.39051","latitude":"14.92827","NameThai":"ถ้ำบาดาล","NameEnglish":"Tham Badan"}},{"type":"Feature","geometry":{"type":"Point","coordinates":[101.41544,14.52449]},"properties":{"name":"ถ้ำบาดาล","longitude":"101.41544","latitude":"14.52449","NameThai":"ถ้ำบาดาล","NameEnglish":"Tham Badan"}},{"type":"Feature","geometry":{"type":"Point","coordinates":[105.27402,14.44201]},"properties":{"name":"ถ้ำบากเตย","longitude":"105.27402","latitude":"14.44201","NameThai":"ถ้ำบากเตย","NameEnglish":"Tham Bak Toei"}},{"type":"Feature","geometry":{"type":"Point","coordinates":[99.56334,18.58465]},"properties":{"name":"ถ้ำบ้านห้วยหลวง","longitude":"99.56334","latitude":"18.58465","NameThai":"ถ้ำบ้านห้วยหลวง","NameEnglish":"Tham Ban Huai Luang"}},{"type":"Feature","geometry":{"type":"Point","coordinates":[98.26829,19.57948]},"properties":{"name":"ถ้ำบ้านถ้ำเหนือ","longitude":"98.26829","latitude":"19.57948","NameThai":"ถ้ำบ้านถ้ำเหนือ","NameEnglish":"Tham Ban Tham North"}},{"type":"Feature","geometry":{"type":"Point","coordinates":[98.87429,14.87624]},"properties":{"name":"ถ้ำบ้านต้นมะปราง","longitude":"98.87429","latitude":"14.87624","NameThai":"ถ้ำบ้านต้นมะปราง","NameEnglish":"Tham Ban Ton Maprow"}},{"type":"Feature","geometry":{"type":"Point","coordinates":[98.5691,8.46426]},"properties":{"name":"ถ้ำบางเตย","longitude":"98.5691","latitude":"8.46426","NameThai":"ถ้ำบางเตย","NameEnglish":"Tham Bang Toei"}},{"type":"Feature","geometry":{"type":"Point","coordinates":[101.92291,17.11565]},"properties":{"name":"ถ้ำบรรพต สันติธรรม","longitude":"101.92291","latitude":"17.11565","NameThai":"ถ้ำบรรพต สันติธรรม","NameEnglish":"Tham Banphot Santitham"}},{"type":"Feature","geometry":{"type":"Point","coordinates":[98.76607,8.39582]},"properties":{"name":"ถ้ำเบญ","longitude":"98.76607","latitude":"8.39582","NameThai":"ถ้ำเบญ","NameEnglish":"Tham Ben"}},{"type":"Feature","geometry":{"type":"Point","coordinates":[100.91324,14.735]},"properties":{"name":"ถ้ำเบญคีรี","longitude":"100.91324","latitude":"14.735","NameThai":"ถ้ำเบญคีรี","NameEnglish":"Tham Benchakhiri"}},{"type":"Feature","geometry":{"type":"Point","coordinates":[98.25155,19.59297]},"properties":{"name":"ถ้ำเบญดิต1","longitude":"98.25155","latitude":"19.59297","NameThai":"ถ้ำเบญดิต1","NameEnglish":"Tham Bendit 1"}},{"type":"Feature","geometry":{"type":"Point","coordinates":[100.73508,18.85511]},"properties":{"name":"ถ้ำเบี้ย","longitude":"100.73508","latitude":"18.85511","NameThai":"ถ้ำเบี้ย","NameEnglish":"Tham Biae"}},{"type":"Feature","geometry":{"type":"Point","coordinates":[104.15,16.58333]},"properties":{"name":"ถ้ำบิง","longitude":"104.15","latitude":"16.58333","NameThai":"ถ้ำบิง","NameEnglish":"Tham Bing"}},{"type":"Feature","geometry":{"type":"Point","coordinates":[104.873,16.15299]},"properties":{"name":"ถ้ำบิง","longitude":"104.873","latitude":"16.15299","NameThai":"ถ้ำบิง","NameEnglish":"Tham Bing"}},{"type":"Feature","geometry":{"type":"Point","coordinates":[104.19046,16.48764]},"properties":{"name":"ถ้ำบ่อหลวง","longitude":"104.19046","latitude":"16.48764","NameThai":"ถ้ำบ่อหลวง","NameEnglish":"Tham Bo Luang"}},{"type":"Feature","geometry":{"type":"Point","coordinates":[100.72058,18.86202]},"properties":{"name":"ถ้ำบ่อน้ำทิพย์","longitude":"100.72058","latitude":"18.86202","NameThai":"ถ้ำบ่อน้ำทิพย์","NameEnglish":"Tham Bo Nam Thip"}},{"type":"Feature","geometry":{"type":"Point","coordinates":[102.44808,17.96414]},"properties":{"name":"ถ้ำบ่อผาเส","longitude":"102.44808","latitude":"17.96414","NameThai":"ถ้ำบ่อผาเส","NameEnglish":"Tham Bo Pha Se"}},{"type":"Feature","geometry":{"type":"Point","coordinates":[100.87897,14.80896]},"properties":{"name":"ถ้ำบ่อทอง","longitude":"100.87897","latitude":"14.80896","NameThai":"ถ้ำบ่อทอง","NameEnglish":"Tham Bo Thong"}},{"type":"Feature","geometry":{"type":"Point","coordinates":[99.94532,15.73033]},"properties":{"name":"ถ้ำบ่อยา","longitude":"99.94532","latitude":"15.73033","NameThai":"ถ้ำบ่อยา","NameEnglish":"Tham Bo Ya"}},{"type":"Feature","geometry":{"type":"Point","coordinates":[101.78207,17.08666]},"properties":{"name":"ถ้ำโพธิสัตว์","longitude":"101.78207","latitude":"17.08666","NameThai":"ถ้ำโพธิสัตว์","NameEnglish":"Tham Bohisattva Shrine Cave"}},{"type":"Feature","geometry":{"type":"Point","coordinates":[100.75799,14.827]},"properties":{"name":"ถ้ำบุญลั่ว","longitude":"100.75799","latitude":"14.827","NameThai":"ถ้ำบุญลั่ว","NameEnglish":"Tham Boon Lua"}},{"type":"Feature","geometry":{"type":"Point","coordinates":[102.01984,12.70684]},"properties":{"name":"ถ้ำบ่อ","longitude":"102.01984","latitude":"12.70684","NameThai":"ถ้ำบ่อ","NameEnglish":"Tham Bot"}},{"type":"Feature","geometry":{"type":"Point","coordinates":[101.07911,19.33991]},"properties":{"name":"ถ้ำเป็ดซิป","longitude":"101.07911","latitude":"19.33991","NameThai":"ถ้ำเป็ดซิป","NameEnglish":"Tham Bpaet Sip"}},{"type":"Feature","geometry":{"type":"Point","coordinates":[101.008,14.69899]},"properties":{"name":"ถ้ำพระแก้วแก้ว","longitude":"101.008","latitude":"14.69899","NameThai":"ถ้ำพระแก้วแก้ว","NameEnglish":"Tham Bpra Gaai Kaeo"}},{"type":"Feature","geometry":{"type":"Point","coordinates":[101.91378,17.54535]},"properties":{"name":"ถ้ำพระไกรเพชร","longitude":"101.91378","latitude":"17.54535","NameThai":"ถ้ำพระไกรเพชร","NameEnglish":"Tham Bpra Gaai Phet"}},{"type":"Feature","geometry":{"type":"Point","coordinates":[105.73361,15.20473]},"properties":{"name":"ถ้ำพระไกรเพชร","longitude":"105.73361","latitude":"15.20473","NameThai":"ถ้ำพระไกรเพชร","NameEnglish":"Tham Bpra Gaai Phet"}},{"type":"Feature","geometry":{"type":"Point","coordinates":[99.67517,9.62035]},"properties":{"name":"ถ้ำบัวบก","longitude":"99.67517","latitude":"9.62035","NameThai":"ถ้ำบัวบก","NameEnglish":"Tham Bua Bok"}},{"type":"Feature","geometry":{"type":"Point","coordinates":[102.08562,13.65978]},"properties":{"name":"ถ้ำบัวท้วม","longitude":"102.08562","latitude":"13.65978","NameThai":"ถ้ำบัวท้วม","NameEnglish":"Tham Bua Thua"}},{"type":"Feature","geometry":{"type":"Point","coordinates":[103.95396,18.15355]},"properties":{"name":"ถ้ำบูชา","longitude":"103.95396","latitude":"18.15355","NameThai":"ถ้ำบูชา","NameEnglish":"Tham Bucha"}},{"type":"Feature","geometry":{"type":"Point","coordinates":[99.06681,14.24057]},"properties":{"name":"ถ้ำพุทธ","longitude":"99.06681","latitude":"14.24057","NameThai":"ถ้ำพุทธ","NameEnglish":"Tham Buddha"}},{"type":"Feature","geometry":{"type":"Point","coordinates":[98.82444,8.43101]},"properties":{"name":"ถ้ำบุญ","longitude":"98.82444","latitude":"8.43101","NameThai":"ถ้ำบุญ","NameEnglish":"Tham Bun"}},{"type":"Feature","geometry":{"type":"Point","coordinates":[100.22039,19.50191]},"properties":{"name":"ถ้ำบุนนาค","longitude":"100.22039","latitude":"19.50191","NameThai":"ถ้ำบุนนาค","NameEnglish":"Tham Bunnak"}},{"type":"Feature","geometry":{"type":"Point","coordinates":[100.37699,15.229]},"properties":{"name":"ถ้ำบุนนาค","longitude":"100.37699","latitude":"15.229","NameThai":"ถ้ำบุนนาค","NameEnglish":"Tham Bunnak"}},{"type":"Feature","geometry":{"type":"Point","coordinates":[101.29652,15.2183]},"properties":{"name":"ถ้ำบูรพา","longitude":"101.29652","latitude":"15.2183","NameThai":"ถ้ำบูรพา","NameEnglish":"Tham Burapha"}},{"type":"Feature","geometry":{"type":"Point","coordinates":[101.94989,17.52239]},"properties":{"name":"ถ้ำชลาวัน","longitude":"101.94989","latitude":"17.52239","NameThai":"ถ้ำชลาวัน","NameEnglish":"Tham Cha La Wan"}},{"type":"Feature","geometry":{"type":"Point","coordinates":[99.17993,14.09749]},"properties":{"name":"ถ้ำชะเลย","longitude":"99.17993","latitude":"14.09749","NameThai":"ถ้ำชะเลย","NameEnglish":"Tham Cha Loei"}},{"type":"Feature","geometry":{"type":"Point","coordinates":[101.56605,15.6514]},"properties":{"name":"ถ้ำชัยมงคล","longitude":"101.56605","latitude":"15.6514","NameThai":"ถ้ำชัยมงคล","NameEnglish":"Tham Chai Mongkhon"}},{"type":"Feature","geometry":{"type":"Point","coordinates":[99.9462,18.10037]},"properties":{"name":"ถ้ำจักรภัทร","longitude":"99.9462","latitude":"18.10037","NameThai":"ถ้ำจักรภัทร","NameEnglish":"Tham Chakapat"}},{"type":"Feature","geometry":{"type":"Point","coordinates":[98.80484,14.81579]},"properties":{"name":"ถ้ำจักรชัย","longitude":"98.80484","latitude":"14.81579","NameThai":"ถ้ำจักรชัย","NameEnglish":"Tham Chakchai"}},{"type":"Feature","geometry":{"type":"Point","coordinates":[100.80615,13.1574]},"properties":{"name":"ถ้ำจักรพงษ์","longitude":"100.80615","latitude":"13.1574","NameThai":"ถ้ำจักรพงษ์","NameEnglish":"Tham Chakkaphong"}},{"type":"Feature","geometry":{"type":"Point","coordinates":[104.79601,15.88099]},"properties":{"name":"ถ้ำชลาม","longitude":"104.79601","latitude":"15.88099","NameThai":"ถ้ำชลาม","NameEnglish":"Tham Chalam"}},{"type":"Feature","geometry":{"type":"Point","coordinates":[100.36154,17.67166]},"properties":{"name":"ถ้ำฉลอง","longitude":"100.36154","latitude":"17.67166","NameThai":"ถ้ำฉลอง","NameEnglish":"Tham Chalong"}},