{"type":"FeatureCollection","features":[{"type":"Feature","geometry":{"type":"Point","coordinates":[101.5556874,14.7839654]},"properties":{"name":"มัสยิดดารุ้ลอะมีน","Long":"101.555687","Lat":"14.783965","NameT":"มัสยิดดารุ้ลอะมีน"}},{"type":"Feature","geometry":{"type":"Point","coordinates":[101.4249152,14.71614078]},"properties":{"name":"มัสยิด","Long":"101.424915","Lat":"14.716141","NameT":"มัสยิด"}},{"type":"Feature","geometry":{"type":"Point","coordinates":[101.4196763,14.7080453]},"properties":{"name":"มัสยิด","Long":"101.419676","Lat":"14.708045","NameT":"มัสยิด"}},{"type":"Feature","geometry":{"type":"Point","coordinates":[101.4249152,14.71614078]},"properties":{"name":"มัสยิด","Long":"101.424915","Lat":"14.716141","NameT":"มัสยิด"}},{"type":"Feature","geometry":{"type":"Point","coordinates":[103.7881872,14.94171895]},"properties":{"name":"มัสยิด","Long":"103.788187","Lat":"14.941719","NameT":"มัสยิด"}},{"type":"Feature","geometry":{"type":"Point","coordinates":[102.105538,14.98690169]},"properties":{"name":"มัสยิด","Long":"102.105538","Lat":"14.986902","NameT":"มัสยิด"}},{"type":"Feature","geometry":{"type":"Point","coordinates":[104.3933919,17.59593417]},"properties":{"name":"มัสยิด","Long":"104.393392","Lat":"17.595934","NameT":"มัสยิด"}},{"type":"Feature","geometry":{"type":"Point","coordinates":[102.787596,17.40221486]},"properties":{"name":"มัสยิดกุระติลอิสลาม","Long":"102.787596","Lat":"17.402215","NameT":"มัสยิดกุระติลอิสลาม"}},{"type":"Feature","geometry":{"type":"Point","coordinates":[101.518398,6.859488493]},"properties":{"name":"มัสยิดบางมะรวด","Long":"101.518398","Lat":"6.859488","NameT":"มัสยิดบางมะรวด"}},{"type":"Feature","geometry":{"type":"Point","coordinates":[101.5132026,6.854192947]},"properties":{"name":"มัสยิด","Long":"101.513203","Lat":"6.854193","NameT":"มัสยิด"}},{"type":"Feature","geometry":{"type":"Point","coordinates":[101.517751,6.828774428]},"properties":{"name":"มัสยิด","Long":"101.517751","Lat":"6.828774","NameT":"มัสยิด"}},{"type":"Feature","geometry":{"type":"Point","coordinates":[101.5434749,6.783263889]},"properties":{"name":"มัสยิดฮิตายะห์อิสลามียะห์","Long":"101.543475","Lat":"6.783264","NameT":"มัสยิดฮิตายะห์อิสลามียะห์"}},{"type":"Feature","geometry":{"type":"Point","coordinates":[101.5460062,6.801576489]},"properties":{"name":"มัสยิด","Long":"101.546006","Lat":"6.801576","NameT":"มัสยิด"}},{"type":"Feature","geometry":{"type":"Point","coordinates":[101.5226854,6.844253069]},"properties":{"name":"มัสยิดอิสลามียะห์","Long":"101.522685","Lat":"6.844253","NameT":"มัสยิดอิสลามียะห์"}},{"type":"Feature","geometry":{"type":"Point","coordinates":[101.5092146,6.769008551]},"properties":{"name":"มัสยิด","Long":"101.509215","Lat":"6.769009","NameT":"มัสยิด"}},{"type":"Feature","geometry":{"type":"Point","coordinates":[101.5170548,6.775848767]},"properties":{"name":"มัสยิด","Long":"101.517055","Lat":"6.775849","NameT":"มัสยิด"}},{"type":"Feature","geometry":{"type":"Point","coordinates":[101.5326825,6.756997356]},"properties":{"name":"มัสยิด","Long":"101.532683","Lat":"6.756997","NameT":"มัสยิด"}},{"type":"Feature","geometry":{"type":"Point","coordinates":[101.5514863,6.757682642]},"properties":{"name":"มัสยิด","Long":"101.551486","Lat":"6.757683","NameT":"มัสยิด"}},{"type":"Feature","geometry":{"type":"Point","coordinates":[101.5782501,6.76496377]},"properties":{"name":"มัสยิดป่าทุง","Long":"101.57825","Lat":"6.764964","NameT":"มัสยิดป่าทุง"}},{"type":"Feature","geometry":{"type":"Point","coordinates":[101.5901504,6.787276363]},"properties":{"name":"มัสยิดบ้านท่าสู","Long":"101.59015","Lat":"6.787276","NameT":"มัสยิดบ้านท่าสู"}},{"type":"Feature","geometry":{"type":"Point","coordinates":[101.5771165,6.810025247]},"properties":{"name":"มัสยิดบ้านน้ำบ่อ","Long":"101.577117","Lat":"6.810025","NameT":"มัสยิดบ้านน้ำบ่อ"}},{"type":"Feature","geometry":{"type":"Point","coordinates":[101.5711848,6.80976464]},"properties":{"name":"มัสยิด","Long":"101.571185","Lat":"6.809765","NameT":"มัสยิด"}},{"type":"Feature","geometry":{"type":"Point","coordinates":[101.5568109,6.807694044]},"properties":{"name":"มัสยิด","Long":"101.556811","Lat":"6.807694","NameT":"มัสยิด"}},{"type":"Feature","geometry":{"type":"Point","coordinates":[101.6005988,6.769317756]},"properties":{"name":"มัสยิด","Long":"101.600599","Lat":"6.769318","NameT":"มัสยิด"}},{"type":"Feature","geometry":{"type":"Point","coordinates":[101.1796686,6.860288572]},"properties":{"name":"มัสยิด","Long":"101.179669","Lat":"6.860289","NameT":"มัสยิด"}},{"type":"Feature","geometry":{"type":"Point","coordinates":[101.0172114,6.790845112]},"properties":{"name":"มัสยิด","Long":"101.017211","Lat":"6.790845","NameT":"มัสยิด"}},{"type":"Feature","geometry":{"type":"Point","coordinates":[101.010677,6.776041174]},"properties":{"name":"มัสยิดหนองสาหร่าย","Long":"101.010677","Lat":"6.776041","NameT":"มัสยิดหนองสาหร่าย"}},{"type":"Feature","geometry":{"type":"Point","coordinates":[101.0013514,6.836327202]},"properties":{"name":"มัสยิดกวาอังเลาะห์","Long":"101.001351","Lat":"6.836327","NameT":"มัสยิดกวาอังเลาะห์"}},{"type":"Feature","geometry":{"type":"Point","coordinates":[101.0112947,6.839611128]},"properties":{"name":"มัสยิดบ้านคลองควาย","Long":"101.011295","Lat":"6.839611","NameT":"มัสยิดบ้านคลองควาย"}},{"type":"Feature","geometry":{"type":"Point","coordinates":[101.0420215,6.847432109]},"properties":{"name":"มัสยิด","Long":"101.042022","Lat":"6.847432","NameT":"มัสยิด"}},{"type":"Feature","geometry":{"type":"Point","coordinates":[101.0479471,6.757813829]},"properties":{"name":"มัสยิด","Long":"101.047947","Lat":"6.757814","NameT":"มัสยิด"}},{"type":"Feature","geometry":{"type":"Point","coordinates":[101.0735003,6.753945982]},"properties":{"name":"มัสยิดนูรุดีน","Long":"101.0735","Lat":"6.753946","NameT":"มัสยิดนูรุดีน"}},{"type":"Feature","geometry":{"type":"Point","coordinates":[101.1097195,6.757039038]},"properties":{"name":"มัสยิดล้อแตก","Long":"101.10972","Lat":"6.757039","NameT":"มัสยิดล้อแตก"}},{"type":"Feature","geometry":{"type":"Point","coordinates":[101.1029918,6.77842047]},"properties":{"name":"มัสยิดบ้านควน","Long":"101.102992","Lat":"6.77842","NameT":"มัสยิดบ้านควน"}},{"type":"Feature","geometry":{"type":"Point","coordinates":[101.0993195,6.785205055]},"properties":{"name":"มัสยิด","Long":"101.099319","Lat":"6.785205","NameT":"มัสยิด"}},{"type":"Feature","geometry":{"type":"Point","coordinates":[101.0790434,6.787850276]},"properties":{"name":"มัสยิด","Long":"101.079043","Lat":"6.78785","NameT":"มัสยิด"}},{"type":"Feature","geometry":{"type":"Point","coordinates":[101.0570863,6.79338742]},"properties":{"name":"มัสยิด","Long":"101.057086","Lat":"6.793387","NameT":"มัสยิด"}},{"type":"Feature","geometry":{"type":"Point","coordinates":[101.1055667,6.796809416]},"properties":{"name":"มัสยิดนูรุลอามัน","Long":"101.105567","Lat":"6.796809","NameT":"มัสยิดนูรุลอามัน"}},{"type":"Feature","geometry":{"type":"Point","coordinates":[101.075745,6.801676324]},"properties":{"name":"มัสยิดตักวา","Long":"101.075745","Lat":"6.801676","NameT":"มัสยิดตักวา"}},{"type":"Feature","geometry":{"type":"Point","coordinates":[101.0805383,6.815231152]},"properties":{"name":"มัสยิดตาวามุดดีน","Long":"101.080538","Lat":"6.815231","NameT":"มัสยิดตาวามุดดีน"}},{"type":"Feature","geometry":{"type":"Point","coordinates":[101.0975635,6.795518011]},"properties":{"name":"มัสยิดนูรูลอามัน","Long":"101.097564","Lat":"6.795518","NameT":"มัสยิดนูรูลอามัน"}},{"type":"Feature","geometry":{"type":"Point","coordinates":[101.1614581,6.786626641]},"properties":{"name":"มัสยิด","Long":"101.161458","Lat":"6.786627","NameT":"มัสยิด"}},{"type":"Feature","geometry":{"type":"Point","coordinates":[101.1489726,6.792999332]},"properties":{"name":"มัสยิด","Long":"101.148973","Lat":"6.792999","NameT":"มัสยิด"}},{"type":"Feature","geometry":{"type":"Point","coordinates":[101.1377423,6.804778623]},"properties":{"name":"มัสยิด","Long":"101.137742","Lat":"6.804779","NameT":"มัสยิด"}},{"type":"Feature","geometry":{"type":"Point","coordinates":[101.1877367,6.810945327]},"properties":{"name":"มัสยิดกาหยี","Long":"101.187737","Lat":"6.810945","NameT":"มัสยิดกาหยี"}},{"type":"Feature","geometry":{"type":"Point","coordinates":[101.1991574,6.825908533]},"properties":{"name":"มัสยิดกำปงบารู","Long":"101.199157","Lat":"6.825909","NameT":"มัสยิดกำปงบารู"}},{"type":"Feature","geometry":{"type":"Point","coordinates":[101.1735872,6.841107983]},"properties":{"name":"มัสยิด","Long":"101.173587","Lat":"6.841108","NameT":"มัสยิด"}},{"type":"Feature","geometry":{"type":"Point","coordinates":[101.1729941,6.838560863]},"properties":{"name":"มัสยิด","Long":"101.172994","Lat":"6.838561","NameT":"มัสยิด"}},{"type":"Feature","geometry":{"type":"Point","coordinates":[101.1708134,6.862606008]},"properties":{"name":"มัสยิด","Long":"101.170813","Lat":"6.862606","NameT":"มัสยิด"}},{"type":"Feature","geometry":{"type":"Point","coordinates":[101.1952283,6.861467053]},"properties":{"name":"มัสยิด","Long":"101.195228","Lat":"6.861467","NameT":"มัสยิด"}},{"type":"Feature","geometry":{"type":"Point","coordinates":[101.1972599,6.863667296]},"properties":{"name":"มัสยิด","Long":"101.19726","Lat":"6.863667","NameT":"มัสยิด"}},{"type":"Feature","geometry":{"type":"Point","coordinates":[101.2067199,6.853141732]},"properties":{"name":"มัสยิด","Long":"101.20672","Lat":"6.853142","NameT":"มัสยิด"}},{"type":"Feature","geometry":{"type":"Point","coordinates":[101.2229988,6.872008396]},"properties":{"name":"มัสยิด","Long":"101.222999","Lat":"6.872008","NameT":"มัสยิด"}},{"type":"Feature","geometry":{"type":"Point","coordinates":[101.2411865,6.8712932]},"properties":{"name":"มัสยิด","Long":"101.241187","Lat":"6.871293","NameT":"มัสยิด"}},{"type":"Feature","geometry":{"type":"Point","coordinates":[101.211802,6.818466602]},"properties":{"name":"มัสยิด","Long":"101.211802","Lat":"6.818467","NameT":"มัสยิด"}},{"type":"Feature","geometry":{"type":"Point","coordinates":[101.2120679,6.841856736]},"properties":{"name":"มัสยิด","Long":"101.212068","Lat":"6.841857","NameT":"มัสยิด"}},{"type":"Feature","geometry":{"type":"Point","coordinates":[101.2152862,6.825556416]},"properties":{"name":"มัสยิด","Long":"101.215286","Lat":"6.825556","NameT":"มัสยิด"}},{"type":"Feature","geometry":{"type":"Point","coordinates":[101.2235395,6.822358148]},"properties":{"name":"มัสยิด","Long":"101.22354","Lat":"6.822358","NameT":"มัสยิด"}},{"type":"Feature","geometry":{"type":"Point","coordinates":[101.2339399,6.828601426]},"properties":{"name":"มัสยิด","Long":"101.23394","Lat":"6.828601","NameT":"มัสยิด"}},{"type":"Feature","geometry":{"type":"Point","coordinates":[101.187179,6.77915902]},"properties":{"name":"มัสยิดปะแดสางา","Long":"101.187179","Lat":"6.779159","NameT":"มัสยิดปะแดสางา"}},{"type":"Feature","geometry":{"type":"Point","coordinates":[101.1357251,6.766347577]},"properties":{"name":"มัสยิด","Long":"101.135725","Lat":"6.766348","NameT":"มัสยิด"}},{"type":"Feature","geometry":{"type":"Point","coordinates":[101.1368366,6.764928058]},"properties":{"name":"มัสยิด","Long":"101.136837","Lat":"6.764928","NameT":"มัสยิด"}},{"type":"Feature","geometry":{"type":"Point","coordinates":[101.1396251,6.774696585]},"properties":{"name":"มัสยิดควนดิน","Long":"101.139625","Lat":"6.774697","NameT":"มัสยิดควนดิน"}},{"type":"Feature","geometry":{"type":"Point","coordinates":[101.1641258,6.754674207]},"properties":{"name":"มัสยิดลาแม","Long":"101.164126","Lat":"6.754674","NameT":"มัสยิดลาแม"}},{"type":"Feature","geometry":{"type":"Point","coordinates":[101.1819958,6.756633332]},"properties":{"name":"มัสยิด","Long":"101.181996","Lat":"6.756633","NameT":"มัสยิด"}},{"type":"Feature","geometry":{"type":"Point","coordinates":[101.1913088,6.768907782]},"properties":{"name":"มัสยิด","Long":"101.191309","Lat":"6.768908","NameT":"มัสยิด"}},{"type":"Feature","geometry":{"type":"Point","coordinates":[101.2033816,6.779210739]},"properties":{"name":"มัสยิด","Long":"101.203382","Lat":"6.779211","NameT":"มัสยิด"}},{"type":"Feature","geometry":{"type":"Point","coordinates":[101.2096196,6.782327706]},"properties":{"name":"มัสยิดปูยันปูงอ","Long":"101.20962","Lat":"6.782328","NameT":"มัสยิดปูยันปูงอ"}},{"type":"Feature","geometry":{"type":"Point","coordinates":[101.2445897,6.773008269]},"properties":{"name":"มัสยิดกำปงบารู","Long":"101.24459","Lat":"6.773008","NameT":"มัสยิดกำปงบารู"}},{"type":"Feature","geometry":{"type":"Point","coordinates":[101.2303288,6.761079632]},"properties":{"name":"มัสยิดกาแลภูมิ","Long":"101.230329","Lat":"6.76108","NameT":"มัสยิดกาแลภูมิ"}},{"type":"Feature","geometry":{"type":"Point","coordinates":[101.2460606,6.762344167]},"properties":{"name":"มัสยิด","Long":"101.246061","Lat":"6.762344","NameT":"มัสยิด"}},{"type":"Feature","geometry":{"type":"Point","coordinates":[101.0711781,6.835276607]},"properties":{"name":"มัสยิด","Long":"101.071178","Lat":"6.835277","NameT":"มัสยิด"}},{"type":"Feature","geometry":{"type":"Point","coordinates":[101.0652095,6.852099831]},"properties":{"name":"มัสยิดกัวลอรือบอ","Long":"101.065209","Lat":"6.8521","NameT":"มัสยิดกัวลอรือบอ"}},{"type":"Feature","geometry":{"type":"Point","coordinates":[101.0978533,6.855947422]},"properties":{"name":"มัสยิดชิรออุลฮูดา","Long":"101.097853","Lat":"6.855947","NameT":"มัสยิดชิรออุลฮูดา"}},{"type":"Feature","geometry":{"type":"Point","coordinates":[101.209497,6.812466312]},"properties":{"name":"มัสยิด","Long":"101.209497","Lat":"6.812466","NameT":"มัสยิด"}},{"type":"Feature","geometry":{"type":"Point","coordinates":[101.1022525,6.83400424]},"properties":{"name":"มัสยิด","Long":"101.102253","Lat":"6.834004","NameT":"มัสยิด"}},{"type":"Feature","geometry":{"type":"Point","coordinates":[101.0171561,6.707874413]},"properties":{"name":"มัสยิดจาเราบีลู","Long":"101.017156","Lat":"6.707874","NameT":"มัสยิดจาเราบีลู"}},{"type":"Feature","geometry":{"type":"Point","coordinates":[101.035981,6.705231206]},"properties":{"name":"มัสยิดฮิดายาตุลอิสลาม","Long":"101.035981","Lat":"6.705231","NameT":"มัสยิดฮิดายาตุลอิสลาม"}},{"type":"Feature","geometry":{"type":"Point","coordinates":[101.0154327,6.740682102]},"properties":{"name":"มัสยิดนูรุลอิฮซาน","Long":"101.015433","Lat":"6.740682","NameT":"มัสยิดนูรุลอิฮซาน"}},{"type":"Feature","geometry":{"type":"Point","coordinates":[101.0083252,6.637982964]},"properties":{"name":"มัสยิดบ้านราไมย์","Long":"101.008325","Lat":"6.637983","NameT":"มัสยิดบ้านราไมย์"}},{"type":"Feature","geometry":{"type":"Point","coordinates":[101.0413187,6.619286989]},"properties":{"name":"มัสยิดนูรุลฮุนดา","Long":"101.041319","Lat":"6.619287","NameT":"มัสยิดนูรุลฮุนดา"}},{"type":"Feature","geometry":{"type":"Point","coordinates":[101.0452578,6.644341139]},"properties":{"name":"มัสยิดศาสน์สันติธรรม","Long":"101.045258","Lat":"6.644341","NameT":"มัสยิดศาสน์สันติธรรม"}},{"type":"Feature","geometry":{"type":"Point","coordinates":[101.0132413,6.531870977]},"properties":{"name":"มัสยิดตาฮียะตุดีนียะห์","Long":"101.013241","Lat":"6.531871","NameT":"มัสยิดตาฮียะตุดีนียะห์"}},{"type":"Feature","geometry":{"type":"Point","coordinates":[101.0275326,6.523570062]},"properties":{"name":"มัสยิดนูรุลอิสลามียะห์","Long":"101.027533","Lat":"6.52357","NameT":"มัสยิดนูรุลอิสลามียะห์"}},{"type":"Feature","geometry":{"type":"Point","coordinates":[101.0406294,6.514876508]},"properties":{"name":"สุเหร่าเจาะตาแม","Long":"101.040629","Lat":"6.514877","NameT":"สุเหร่าเจาะตาแม"}},{"type":"Feature","geometry":{"type":"Point","coordinates":[101.0615461,6.510288423]},"properties":{"name":"สุเหร่าบ้านบาโงย","Long":"101.061546","Lat":"6.510288","NameT":"สุเหร่าบ้านบาโงย"}},{"type":"Feature","geometry":{"type":"Point","coordinates":[101.0616102,6.518706004]},"properties":{"name":"มัสยิดบ้านตันหยง","Long":"101.06161","Lat":"6.518706","NameT":"มัสยิดบ้านตันหยง"}},{"type":"Feature","geometry":{"type":"Point","coordinates":[101.0697583,6.509413782]},"properties":{"name":"มัสยิดบ้านกาตอง","Long":"101.069758","Lat":"6.509414","NameT":"มัสยิดบ้านกาตอง"}},{"type":"Feature","geometry":{"type":"Point","coordinates":[101.1052226,6.506641835]},"properties":{"name":"มัสยิดนูรุลอีหมาน","Long":"101.105223","Lat":"6.506642","NameT":"มัสยิดนูรุลอีหมาน"}},{"type":"Feature","geometry":{"type":"Point","coordinates":[101.1055538,6.504765581]},"properties":{"name":"มัสยิดนูรุอิสลาม","Long":"101.105554","Lat":"6.504766","NameT":"มัสยิดนูรุอิสลาม"}},{"type":"Feature","geometry":{"type":"Point","coordinates":[101.1222717,6.503315334]},"properties":{"name":"มัสยิดนูรูลฮูดา","Long":"101.122272","Lat":"6.503315","NameT":"มัสยิดนูรูลฮูดา"}},{"type":"Feature","geometry":{"type":"Point","coordinates":[101.0971712,6.524725604]},"properties":{"name":"มัสยิดซาลาฮุดีน","Long":"101.097171","Lat":"6.524726","NameT":"มัสยิดซาลาฮุดีน"}},{"type":"Feature","geometry":{"type":"Point","coordinates":[101.0461127,6.629094812]},"properties":{"name":"มัสยิดนูรุลฮายาตุซซารีฟ","Long":"101.046113","Lat":"6.629095","NameT":"มัสยิดนูรุลฮายาตุซซารีฟ"}},{"type":"Feature","geometry":{"type":"Point","coordinates":[101.0472179,6.651847838]},"properties":{"name":"มัสยิดบ้านกระอาน","Long":"101.047218","Lat":"6.651848","NameT":"มัสยิดบ้านกระอาน"}},{"type":"Feature","geometry":{"type":"Point","coordinates":[101.0487334,6.652788031]},"properties":{"name":"มัสยิดดารุลเราะมาน","Long":"101.048733","Lat":"6.652788","NameT":"มัสยิดดารุลเราะมาน"}},{"type":"Feature","geometry":{"type":"Point","coordinates":[101.0536972,6.690717328]},"properties":{"name":"มัสยิดบ้านกระอาน","Long":"101.053697","Lat":"6.690717","NameT":"มัสยิดบ้านกระอาน"}},{"type":"Feature","geometry":{"type":"Point","coordinates":[101.068982,6.700224493]},"properties":{"name":"มัสยิดมิฟตาฮูลอีมาดะห์","Long":"101.068982","Lat":"6.700224","NameT":"มัสยิดมิฟตาฮูลอีมาดะห์"}},{"type":"Feature","geometry":{"type":"Point","coordinates":[101.0828543,6.678714373]},"properties":{"name":"มัสยิดดารุลอาดะห์","Long":"101.082854","Lat":"6.678714","NameT":"มัสยิดดารุลอาดะห์"}},{"type":"Feature","geometry":{"type":"Point","coordinates":[101.0942918,6.671304191]},"properties":{"name":"มัสยิดนัจมุดดีน","Long":"101.094292","Lat":"6.671304","NameT":"มัสยิดนัจมุดดีน"}},{"type":"Feature","geometry":{"type":"Point","coordinates":[101.102109,6.675603025]},"properties":{"name":"มัสยิดดารุลกูปรอ","Long":"101.102109","Lat":"6.675603","NameT":"มัสยิดดารุลกูปรอ"}},{"type":"Feature","geometry":{"type":"Point","coordinates":[101.0624751,6.735885814]},"properties":{"name":"มัสยิดยามีอัลตักวา","Long":"101.062475","Lat":"6.735886","NameT":"มัสยิดยามีอัลตักวา"}},{"type":"Feature","geometry":{"type":"Point","coordinates":[101.0713413,6.737942003]},"properties":{"name":"มัสยิดนูรุลอิฮซาน","Long":"101.071341","Lat":"6.737942","NameT":"มัสยิดนูรุลอิฮซาน"}},{"type":"Feature","geometry":{"type":"Point","coordinates":[101.0604419,6.714752011]},"properties":{"name":"มัสยิดนูรุลอิสลาม","Long":"101.060442","Lat":"6.714752","NameT":"มัสยิดนูรุลอิสลาม"}},{"type":"Feature","geometry":{"type":"Point","coordinates":[101.0684723,6.716025464]},"properties":{"name":"มัสยิด","Long":"101.068472","Lat":"6.716025","NameT":"มัสยิด"}},{"type":"Feature","geometry":{"type":"Point","coordinates":[101.0841286,6.703541616]},"properties":{"name":"มัสยิดดารุสซาลาม","Long":"101.084129","Lat":"6.703542","NameT":"มัสยิดดารุสซาลาม"}},{"type":"Feature","geometry":{"type":"Point","coordinates":[101.0914662,6.732365174]},"properties":{"name":"มัสยิดกลางโคกโพธิ์","Long":"101.091466","Lat":"6.732365","NameT":"มัสยิดกลางโคกโพธิ์"}},{"type":"Feature","geometry":{"type":"Point","coordinates":[101.1022171,6.7466951]},"properties":{"name":"มัสยิดกูบุอัลฟาละห์","Long":"101.102217","Lat":"6.746695","NameT":"มัสยิดกูบุอัลฟาละห์"}},{"type":"Feature","geometry":{"type":"Point","coordinates":[101.1135193,6.716234926]},"properties":{"name":"มัสยิดดารุณอิสลาม","Long":"101.113519","Lat":"6.716235","NameT":"มัสยิดดารุณอิสลาม"}},{"type":"Feature","geometry":{"type":"Point","coordinates":[101.0985433,6.724663237]},"properties":{"name":"มัสยิดบ้านดอน","Long":"101.098543","Lat":"6.724663","NameT":"มัสยิดบ้านดอน"}},{"type":"Feature","geometry":{"type":"Point","coordinates":[101.0967046,6.720361262]},"properties":{"name":"มัสยิดนูรุลฮิดายะห์","Long":"101.096705","Lat":"6.720361","NameT":"มัสยิดนูรุลฮิดายะห์"}},{"type":"Feature","geometry":{"type":"Point","coordinates":[101.1051536,6.708632398]},"properties":{"name":"มัสยิดเดอนาอีน","Long":"101.105154","Lat":"6.708632","NameT":"มัสยิดเดอนาอีน"}},{"type":"Feature","geometry":{"type":"Point","coordinates":[101.1012724,6.701623572]},"properties":{"name":"มัสยิดบ้านนาค้อเหนือ","Long":"101.101272","Lat":"6.701624","NameT":"มัสยิดบ้านนาค้อเหนือ"}},{"type":"Feature","geometry":{"type":"Point","coordinates":[101.1045034,6.70149559]},"properties":{"name":"สุเหร่าอารียะห์","Long":"101.104503","Lat":"6.701496","NameT":"สุเหร่าอารียะห์"}},{"type":"Feature","geometry":{"type":"Point","coordinates":[101.1505371,6.73807796]},"properties":{"name":"สุเหร่าบ้านคลองช้าง","Long":"101.150537","Lat":"6.738078","NameT":"สุเหร่าบ้านคลองช้าง"}},{"type":"Feature","geometry":{"type":"Point","coordinates":[101.1566003,6.737597238]},"properties":{"name":"มัสยิดดารุลอาบีดีน","Long":"101.1566","Lat":"6.737597","NameT":"มัสยิดดารุลอาบีดีน"}},{"type":"Feature","geometry":{"type":"Point","coordinates":[101.1602403,6.746588282]},"properties":{"name":"สุเหร่าลาแม","Long":"101.16024","Lat":"6.746588","NameT":"สุเหร่าลาแม"}},{"type":"Feature","geometry":{"type":"Point","coordinates":[101.1644509,6.736580577]},"properties":{"name":"มัสยิดบาโงซาดัง","Long":"101.164451","Lat":"6.736581","NameT":"มัสยิดบาโงซาดัง"}},{"type":"Feature","geometry":{"type":"Point","coordinates":[101.131052,6.730952988]},"properties":{"name":"มัสยิดอาเนาะปูเกต","Long":"101.131052","Lat":"6.730953","NameT":"มัสยิดอาเนาะปูเกต"}},{"type":"Feature","geometry":{"type":"Point","coordinates":[101.1343057,6.721845893]},"properties":{"name":"มัสยิดบ้านยางแดง","Long":"101.134306","Lat":"6.721846","NameT":"มัสยิดบ้านยางแดง"}},{"type":"Feature","geometry":{"type":"Point","coordinates":[101.1373588,6.706552149]},"properties":{"name":"มัสยิดศาลาจาก","Long":"101.137359","Lat":"6.706552","NameT":"มัสยิดศาลาจาก"}},{"type":"Feature","geometry":{"type":"Point","coordinates":[101.1514278,6.702586075]},"properties":{"name":"มัสยิดอูแตทูวอ","Long":"101.151428","Lat":"6.702586","NameT":"มัสยิดอูแตทูวอ"}},{"type":"Feature","geometry":{"type":"Point","coordinates":[101.1685112,6.733717167]},"properties":{"name":"สุเหร่าบ้านแม่ถัง","Long":"101.168511","Lat":"6.733717","NameT":"สุเหร่าบ้านแม่ถัง"}},{"type":"Feature","geometry":{"type":"Point","coordinates":[101.177077,6.734365173]},"properties":{"name":"มัสยิดวัวขาว","Long":"101.177077","Lat":"6.734365","NameT":"มัสยิดวัวขาว"}},{"type":"Feature","geometry":{"type":"Point","coordinates":[101.1804279,6.697946369]},"properties":{"name":"มัสยิดควนโนรี","Long":"101.180428","Lat":"6.697946","NameT":"มัสยิดควนโนรี"}},{"type":"Feature","geometry":{"type":"Point","coordinates":[101.1863005,6.675812646]},"properties":{"name":"มัสยิดนูรุลอิสลาม","Long":"101.186301","Lat":"6.675813","NameT":"มัสยิดนูรุลอิสลาม"}},{"type":"Feature","geometry":{"type":"Point","coordinates":[101.1758181,6.651197966]},"properties":{"name":"มัสยิดดารุลอามาล","Long":"101.175818","Lat":"6.651198","NameT":"มัสยิดดารุลอามาล"}},{"type":"Feature","geometry":{"type":"Point","coordinates":[101.127316,6.677242776]},"properties":{"name":"มัสยิด","Long":"101.127316","Lat":"6.677243","NameT":"มัสยิด"}},{"type":"Feature","geometry":{"type":"Point","coordinates":[101.1394667,6.690284704]},"properties":{"name":"มัสยิดยาซิซสถาน","Long":"101.139467","Lat":"6.690285","NameT":"มัสยิดยาซิซสถาน"}},{"type":"Feature","geometry":{"type":"Point","coordinates":[101.1450274,6.683434349]},"properties":{"name":"มัสยิดดรุลมุตตากีน","Long":"101.145027","Lat":"6.683434","NameT":"มัสยิดดรุลมุตตากีน"}},{"type":"Feature","geometry":{"type":"Point","coordinates":[101.1442876,6.686337186]},"properties":{"name":"บาราเซาะบ้านนาประดู่","Long":"101.144288","Lat":"6.686337","NameT":"บาราเซาะบ้านนาประดู่"}},{"type":"Feature","geometry":{"type":"Point","coordinates":[101.1326793,6.691145252]},"properties":{"name":"สุเหร่ามัดราซะห์นะห์ฎอตุลอิสลามมียะห์","Long":"101.132679","Lat":"6.691145","NameT":"สุเหร่ามัดราซะห์นะห์ฎอตุลอิสลามมียะห์"}},{"type":"Feature","geometry":{"type":"Point","coordinates":[101.1252397,6.686907504]},"properties":{"name":"บาราเซาะบ้านควน","Long":"101.12524","Lat":"6.686908","NameT":"บาราเซาะบ้านควน"}},{"type":"Feature","geometry":{"type":"Point","coordinates":[101.1240044,6.682786489]},"properties":{"name":"มัสยิดกำปงบูเก๊ะ","Long":"101.124004","Lat":"6.682786","NameT":"มัสยิดกำปงบูเก๊ะ"}},{"type":"Feature","geometry":{"type":"Point","coordinates":[101.1791318,6.647861145]},"properties":{"name":"มัสยิดบ้านเกาะคา","Long":"101.179132","Lat":"6.647861","NameT":"มัสยิดบ้านเกาะคา"}},{"type":"Feature","geometry":{"type":"Point","coordinates":[101.1908249,6.633756022]},"properties":{"name":"มัสยิดบ้านบาเงง","Long":"101.190825","Lat":"6.633756","NameT":"มัสยิดบ้านบาเงง"}},{"type":"Feature","geometry":{"type":"Point","coordinates":[101.1989336,6.636013887]},"properties":{"name":"มัสยิดกำปงรายอ","Long":"101.198934","Lat":"6.636014","NameT":"มัสยิดกำปงรายอ"}},{"type":"Feature","geometry":{"type":"Point","coordinates":[101.1785177,6.623511709]},"properties":{"name":"มัสยิดกำปงเมียง","Long":"101.178518","Lat":"6.623512","NameT":"มัสยิดกำปงเมียง"}},{"type":"Feature","geometry":{"type":"Point","coordinates":[101.1684266,6.624818798]},"properties":{"name":"มัสยิดกำปงกำเมียง","Long":"101.168427","Lat":"6.624819","NameT":"มัสยิดกำปงกำเมียง"}},{"type":"Feature","geometry":{"type":"Point","coordinates":[101.1952645,6.597950192]},"properties":{"name":"มัสยิดจาปาลัส","Long":"101.195264","Lat":"6.59795","NameT":"มัสยิดจาปาลัส"}},{"type":"Feature","geometry":{"type":"Point","coordinates":[101.1962226,6.586608826]},"properties":{"name":"มัสยิดรุจพี","Long":"101.196223","Lat":"6.586609","NameT":"มัสยิดรุจพี"}},{"type":"Feature","geometry":{"type":"Point","coordinates":[101.1875312,6.58029705]},"properties":{"name":"สุเหร่าบ้านปอเยาะ","Long":"101.187531","Lat":"6.580297","NameT":"สุเหร่าบ้านปอเยาะ"}},{"type":"Feature","geometry":{"type":"Point","coordinates":[101.1870993,6.574708497]},"properties":{"name":"มัสยิดปอเยาะ","Long":"101.187099","Lat":"6.574708","NameT":"มัสยิดปอเยาะ"}},{"type":"Feature","geometry":{"type":"Point","coordinates":[101.1785206,6.582382659]},"properties":{"name":"มัสยิดสือดา","Long":"101.178521","Lat":"6.582383","NameT":"มัสยิดสือดา"}},{"type":"Feature","geometry":{"type":"Point","coordinates":[101.1679793,6.573114403]},"properties":{"name":"มัสยิดบ้านต้นหยี","Long":"101.167979","Lat":"6.573114","NameT":"มัสยิดบ้านต้นหยี"}},{"type":"Feature","geometry":{"type":"Point","coordinates":[101.1843114,6.565769291]},"properties":{"name":"มัสยิดอัลฟูรกอน","Long":"101.184311","Lat":"6.565769","NameT":"มัสยิดอัลฟูรกอน"}},{"type":"Feature","geometry":{"type":"Point","coordinates":[101.1913537,6.562989761]},"properties":{"name":"มัสยิดบาโงฮารอ","Long":"101.191354","Lat":"6.56299","NameT":"มัสยิดบาโงฮารอ"}},{"type":"Feature","geometry":{"type":"Point","coordinates":[101.1759169,6.548016623]},"properties":{"name":"มัสยิดนูรุลฮุนดา","Long":"101.175917","Lat":"6.548017","NameT":"มัสยิดนูรุลฮุนดา"}},{"type":"Feature","geometry":{"type":"Point","coordinates":[101.1676867,6.551687559]},"properties":{"name":"มัสยิด","Long":"101.167687","Lat":"6.551688","NameT":"มัสยิด"}},{"type":"Feature","geometry":{"type":"Point","coordinates":[101.1683869,6.546792133]},"properties":{"name":"สุเหร่าบ้านตาโละ","Long":"101.168387","Lat":"6.546792","NameT":"สุเหร่าบ้านตาโละ"}},{"type":"Feature","geometry":{"type":"Point","coordinates":[101.1602348,6.529118594]},"properties":{"name":"สุเหร่าบ้านซีเยาะ","Long":"101.160235","Lat":"6.529119","NameT":"สุเหร่าบ้านซีเยาะ"}},{"type":"Feature","geometry":{"type":"Point","coordinates":[101.1573041,6.524248742]},"properties":{"name":"สุเหร่าบ้านรีมาปูโร๊ะ","Long":"101.157304","Lat":"6.524249","NameT":"สุเหร่าบ้านรีมาปูโร๊ะ"}},{"type":"Feature","geometry":{"type":"Point","coordinates":[101.1903852,6.523675024]},"properties":{"name":"มัสยิดเราะสุลยามาล","Long":"101.190385","Lat":"6.523675","NameT":"มัสยิดเราะสุลยามาล"}},{"type":"Feature","geometry":{"type":"Point","coordinates":[101.1571163,6.520133583]},"properties":{"name":"มัสยิดดารุลสลาม","Long":"101.157116","Lat":"6.520134","NameT":"มัสยิดดารุลสลาม"}},{"type":"Feature","geometry":{"type":"Point","coordinates":[101.1630253,6.520074598]},"properties":{"name":"มัสยิด","Long":"101.163025","Lat":"6.520075","NameT":"มัสยิด"}},{"type":"Feature","geometry":{"type":"Point","coordinates":[101.1693349,6.517006203]},"properties":{"name":"มัสยิดนูรุลฮูดา","Long":"101.169335","Lat":"6.517006","NameT":"มัสยิดนูรุลฮูดา"}},{"type":"Feature","geometry":{"type":"Point","coordinates":[101.1696983,6.524588068]},"properties":{"name":"มัสยิดนูรุฎดีน","Long":"101.169698","Lat":"6.524588","NameT":"มัสยิดนูรุฎดีน"}},{"type":"Feature","geometry":{"type":"Point","coordinates":[101.1762291,6.518843733]},"properties":{"name":"มัสยิดดารุลตักวา","Long":"101.176229","Lat":"6.518844","NameT":"มัสยิดดารุลตักวา"}},{"type":"Feature","geometry":{"type":"Point","coordinates":[101.1771349,6.516573435]},"properties":{"name":"มัสยิดอูมุลอูมาเลาะห์","Long":"101.177135","Lat":"6.516573","NameT":"มัสยิดอูมุลอูมาเลาะห์"}},{"type":"Feature","geometry":{"type":"Point","coordinates":[101.1778002,6.528602458]},"properties":{"name":"มัสยิดมุตมาอินนะห์","Long":"101.1778","Lat":"6.528602","NameT":"มัสยิดมุตมาอินนะห์"}},{"type":"Feature","geometry":{"type":"Point","coordinates":[101.1566993,6.508924594]},"properties":{"name":"สุเหร่าบ้านบูเก๊ะ","Long":"101.156699","Lat":"6.508925","NameT":"สุเหร่าบ้านบูเก๊ะ"}},{"type":"Feature","geometry":{"type":"Point","coordinates":[101.1327325,6.504219373]},"properties":{"name":"มัสยิดราวฎอตุลอูลูม","Long":"101.132733","Lat":"6.504219","NameT":"มัสยิดราวฎอตุลอูลูม"}},{"type":"Feature","geometry":{"type":"Point","coordinates":[101.1878263,6.515862833]},"properties":{"name":"มัสยิดยาแมะ","Long":"101.187826","Lat":"6.515863","NameT":"มัสยิดยาแมะ"}},{"type":"Feature","geometry":{"type":"Point","coordinates":[101.1861151,6.514294913]},"properties":{"name":"สุเหร่าบ้านปาโจ","Long":"101.186115","Lat":"6.514295","NameT":"สุเหร่าบ้านปาโจ"}},{"type":"Feature","geometry":{"type":"Point","coordinates":[101.1983343,6.518320791]},"properties":{"name":"มัสยิดดารุลอามาร์","Long":"101.198334","Lat":"6.518321","NameT":"มัสยิดดารุลอามาร์"}},{"type":"Feature","geometry":{"type":"Point","coordinates":[101.2019955,6.511328895]},"properties":{"name":"มัสยิดบ้านบาลูกา","Long":"101.201996","Lat":"6.511329","NameT":"มัสยิดบ้านบาลูกา"}},{"type":"Feature","geometry":{"type":"Point","coordinates":[101.2051627,6.503457928]},"properties":{"name":"สุเหร่าบ้านเปาะเส็ง","Long":"101.205163","Lat":"6.503458","NameT":"สุเหร่าบ้านเปาะเส็ง"}},{"type":"Feature","geometry":{"type":"Point","coordinates":[101.2061439,6.5127474]},"properties":{"name":"มัสยิดยาแมะลางา","Long":"101.206144","Lat":"6.512747","NameT":"มัสยิดยาแมะลางา"}},{"type":"Feature","geometry":{"type":"Point","coordinates":[101.2157124,6.505710519]},"properties":{"name":"มัสยิดบันนังบารู","Long":"101.215712","Lat":"6.505711","NameT":"มัสยิดบันนังบารู"}},{"type":"Feature","geometry":{"type":"Point","coordinates":[101.2234453,6.502799076]},"properties":{"name":"สุเหร่าอัลพุซาร์","Long":"101.223445","Lat":"6.502799","NameT":"สุเหร่าอัลพุซาร์"}},{"type":"Feature","geometry":{"type":"Point","coordinates":[101.2236614,6.506777108]},"properties":{"name":"มัสยิดอัลมุตตาฮิดาตุลอิสลาม","Long":"101.223661","Lat":"6.506777","NameT":"มัสยิดอัลมุตตาฮิดาตุลอิสลาม"}},{"type":"Feature","geometry":{"type":"Point","coordinates":[101.2232094,6.516951363]},"properties":{"name":"สุเหร่าต้นไผ่","Long":"101.223209","Lat":"6.516951","NameT":"สุเหร่าต้นไผ่"}},{"type":"Feature","geometry":{"type":"Point","coordinates":[101.2380302,6.520243453]},"properties":{"name":"มัสยิดดารุลสลาม","Long":"101.23803","Lat":"6.520243","NameT":"มัสยิดดารุลสลาม"}},{"type":"Feature","geometry":{"type":"Point","coordinates":[101.1979021,6.534172724]},"properties":{"name":"มัสยิด","Long":"101.197902","Lat":"6.534173","NameT":"มัสยิด"}},{"type":"Feature","geometry":{"type":"Point","coordinates":[101.1968831,6.529013807]},"properties":{"name":"มัสยิดบาตูปูเต๊ะ","Long":"101.196883","Lat":"6.529014","NameT":"มัสยิดบาตูปูเต๊ะ"}},{"type":"Feature","geometry":{"type":"Point","coordinates":[101.2287314,6.523079948]},"properties":{"name":"มัสยิดดารุลสลาม","Long":"101.228731","Lat":"6.52308","NameT":"มัสยิดดารุลสลาม"}},{"type":"Feature","geometry":{"type":"Point","coordinates":[101.2324583,6.532027816]},"properties":{"name":"มัสยิดยาแมะ","Long":"101.232458","Lat":"6.532028","NameT":"มัสยิดยาแมะ"}},{"type":"Feature","geometry":{"type":"Point","coordinates":[101.2340286,6.539186006]},"properties":{"name":"มัสยิดลาแมะอตุลจานะย์","Long":"101.234029","Lat":"6.539186","NameT":"มัสยิดลาแมะอตุลจานะย์"}},{"type":"Feature","geometry":{"type":"Point","coordinates":[101.2448393,6.531904413]},"properties":{"name":"มัสยิดยาแมะกำปงฮูลา","Long":"101.244839","Lat":"6.531904","NameT":"มัสยิดยาแมะกำปงฮูลา"}},{"type":"Feature","geometry":{"type":"Point","coordinates":[101.2444892,6.559385206]},"properties":{"name":"มัสยิดจาหนัน","Long":"101.244489","Lat":"6.559385","NameT":"มัสยิดจาหนัน"}},{"type":"Feature","geometry":{"type":"Point","coordinates":[101.2223061,6.560602249]},"properties":{"name":"มัสยิดนูรูลฮูดา","Long":"101.222306","Lat":"6.560602","NameT":"มัสยิดนูรูลฮูดา"}},{"type":"Feature","geometry":{"type":"Point","coordinates":[101.2195264,6.560039783]},"properties":{"name":"มัสยิดนูรูลฮูดา","Long":"101.219526","Lat":"6.56004","NameT":"มัสยิดนูรูลฮูดา"}},{"type":"Feature","geometry":{"type":"Point","coordinates":[101.2404731,6.564403115]},"properties":{"name":"มัสยิดยาแมะจาแน","Long":"101.240473","Lat":"6.564403","NameT":"มัสยิดยาแมะจาแน"}},{"type":"Feature","geometry":{"type":"Point","coordinates":[101.2302284,6.552224234]},"properties":{"name":"มัสยิดยาแมะบูเก๊ะ","Long":"101.230228","Lat":"6.552224","NameT":"มัสยิดยาแมะบูเก๊ะ"}},{"type":"Feature","geometry":{"type":"Point","coordinates":[101.2051014,6.570654261]},"properties":{"name":"มัสยิดบ้านปรีซัด","Long":"101.205101","Lat":"6.570654","NameT":"มัสยิดบ้านปรีซัด"}},{"type":"Feature","geometry":{"type":"Point","coordinates":[101.2069387,6.579449087]},"properties":{"name":"มัสยิดมูฮายีรัน","Long":"101.206939","Lat":"6.579449","NameT":"มัสยิดมูฮายีรัน"}},{"type":"Feature","geometry":{"type":"Point","coordinates":[101.2006808,6.560291034]},"properties":{"name":"มัสยิดยาแมะบ้านพร่อน","Long":"101.200681","Lat":"6.560291","NameT":"มัสยิดยาแมะบ้านพร่อน"}},{"type":"Feature","geometry":{"type":"Point","coordinates":[101.1995793,6.578389829]},"properties":{"name":"มัสยิดกลางลำใหม่","Long":"101.199579","Lat":"6.57839","NameT":"มัสยิดกลางลำใหม่"}},{"type":"Feature","geometry":{"type":"Point","coordinates":[101.2135258,6.588419071]},"properties":{"name":"มัสยิดนาตุลมะวา","Long":"101.213526","Lat":"6.588419","NameT":"มัสยิดนาตุลมะวา"}},{"type":"Feature","geometry":{"type":"Point","coordinates":[101.2334635,6.623268416]},"properties":{"name":"มัสยิดนูรูลฮูดา","Long":"101.233464","Lat":"6.623268","NameT":"มัสยิดนูรูลฮูดา"}},{"type":"Feature","geometry":{"type":"Point","coordinates":[101.2026345,6.62275213]},"properties":{"name":"มัสยิดบาโงจือวา","Long":"101.202635","Lat":"6.622752","NameT":"มัสยิดบาโงจือวา"}},{"type":"Feature","geometry":{"type":"Point","coordinates":[101.2273138,6.687134095]},"properties":{"name":"มัสยิดดารุลมุสตากีน","Long":"101.227314","Lat":"6.687134","NameT":"มัสยิดดารุลมุสตากีน"}},{"type":"Feature","geometry":{"type":"Point","coordinates":[101.2254734,6.696961995]},"properties":{"name":"มัสยิดดารุลสลาม","Long":"101.225473","Lat":"6.696962","NameT":"มัสยิดดารุลสลาม"}},{"type":"Feature","geometry":{"type":"Point","coordinates":[101.2406539,6.713615651]},"properties":{"name":"มัสยิดบ้านบาโงกาเซาะ","Long":"101.240654","Lat":"6.713616","NameT":"มัสยิดบ้านบาโงกาเซาะ"}},{"type":"Feature","geometry":{"type":"Point","coordinates":[101.205202,6.693463247]},"properties":{"name":"มัสยิดดารุลริดวาน","Long":"101.205202","Lat":"6.693463","NameT":"มัสยิดดารุลริดวาน"}},{"type":"Feature","geometry":{"type":"Point","coordinates":[101.2032436,6.732929823]},"properties":{"name":"สุเหร่าบ้านบาโงนาแต","Long":"101.203244","Lat":"6.73293","NameT":"สุเหร่าบ้านบาโงนาแต"}},{"type":"Feature","geometry":{"type":"Point","coordinates":[101.2098229,6.729201138]},"properties":{"name":"มัสยิดบ้านโคกโตนด","Long":"101.209823","Lat":"6.729201","NameT":"มัสยิดบ้านโคกโตนด"}},{"type":"Feature","geometry":{"type":"Point","coordinates":[101.2124845,6.727463474]},"properties":{"name":"มัสยิดตาบีงูงดารูลอามาล","Long":"101.212485","Lat":"6.727463","NameT":"มัสยิดตาบีงูงดารูลอามาล"}},{"type":"Feature","geometry":{"type":"Point","coordinates":[101.240646,6.731840201]},"properties":{"name":"มัสยิดบาโงสาคอ","Long":"101.240646","Lat":"6.73184","NameT":"มัสยิดบาโงสาคอ"}},{"type":"Feature","geometry":{"type":"Point","coordinates":[101.0751406,6.568913414]},"properties":{"name":"มัสยิดหาดทราย","Long":"101.075141","Lat":"6.568913","NameT":"มัสยิดหาดทราย"}},{"type":"Feature","geometry":{"type":"Point","coordinates":[101.1878842,6.690262307]},"properties":{"name":"มัสยิดนูรุลดีมาล","Long":"101.187884","Lat":"6.690262","NameT":"มัสยิดนูรุลดีมาล"}},{"type":"Feature","geometry":{"type":"Point","coordinates":[101.1985096,6.543834737]},"properties":{"name":"มัสยิดเราดอตุชสอาดะห์","Long":"101.19851","Lat":"6.543835","NameT":"มัสยิดเราดอตุชสอาดะห์"}},{"type":"Feature","geometry":{"type":"Point","coordinates":[101.2478623,6.74749105]},"properties":{"name":"มัสยิด","Long":"101.247862","Lat":"6.747491","NameT":"มัสยิด"}},{"type":"Feature","geometry":{"type":"Point","coordinates":[101.2491297,6.740187475]},"properties":{"name":"มัสยิด","Long":"101.24913","Lat":"6.740187","NameT":"มัสยิด"}},{"type":"Feature","geometry":{"type":"Point","coordinates":[101.0824179,6.501799882]},"properties":{"name":"มัสยิดฆีแม","Long":"101.082418","Lat":"6.5018","NameT":"มัสยิดฆีแม"}},{"type":"Feature","geometry":{"type":"Point","coordinates":[101.0891863,6.503147953]},"properties":{"name":"มัสยิดมูห์มัดดิยะห์กากง","Long":"101.089186","Lat":"6.503148","NameT":"มัสยิดมูห์มัดดิยะห์กากง"}},{"type":"Feature","geometry":{"type":"Point","coordinates":[101.0007168,6.504452176]},"properties":{"name":"มัสยิด","Long":"101.000717","Lat":"6.504452","NameT":"มัสยิด"}},{"type":"Feature","geometry":{"type":"Point","coordinates":[101.286603,6.717537256]},"properties":{"name":"มัสยิดปรีดี","Long":"101.286603","Lat":"6.717537","NameT":"มัสยิดปรีดี"}},{"type":"Feature","geometry":{"type":"Point","coordinates":[101.2911861,6.707361286]},"properties":{"name":"มัสยิดพงสาคอ","Long":"101.291186","Lat":"6.707361","NameT":"มัสยิดพงสาคอ"}},{"type":"Feature","geometry":{"type":"Point","coordinates":[101.283927,6.734730087]},"properties":{"name":"มัสยิดซาบาเอ","Long":"101.283927","Lat":"6.73473","NameT":"มัสยิดซาบาเอ"}},{"type":"Feature","geometry":{"type":"Point","coordinates":[101.296546,6.735842928]},"properties":{"name":"มัสยิดปายอติงา","Long":"101.296546","Lat":"6.735843","NameT":"มัสยิดปายอติงา"}},{"type":"Feature","geometry":{"type":"Point","coordinates":[101.2721624,6.737280361]},"properties":{"name":"มัสยิดนูรูลอิซัน","Long":"101.272162","Lat":"6.73728","NameT":"มัสยิดนูรูลอิซัน"}},{"type":"Feature","geometry":{"type":"Point","coordinates":[101.2560887,6.702466732]},"properties":{"name":"มัสยิด","Long":"101.256089","Lat":"6.702467","NameT":"มัสยิด"}},{"type":"Feature","geometry":{"type":"Point","coordinates":[101.2664569,6.501992624]},"properties":{"name":"ไม่มีชื่อ","Long":"101.266457","Lat":"6.501993","NameT":"ไม่มีชื่อ"}},{"type":"Feature","geometry":{"type":"Point","coordinates":[101.385234,6.500612105]},"properties":{"name":"มัสยิด","Long":"101.385234","Lat":"6.500612","NameT":"มัสยิด"}},{"type":"Feature","geometry":{"type":"Point","coordinates":[101.3667534,6.513608221]},"properties":{"name":"มัสยิด","Long":"101.366753","Lat":"6.513608","NameT":"มัสยิด"}},{"type":"Feature","geometry":{"type":"Point","coordinates":[101.3833984,6.508517157]},"properties":{"name":"มัสยิดราแมะบาตาตีงี","Long":"101.383398","Lat":"6.508517","NameT":"มัสยิดราแมะบาตาตีงี"}},{"type":"Feature","geometry":{"type":"Point","coordinates":[101.3835539,6.5150842]},"properties":{"name":"มัสยิด","Long":"101.383554","Lat":"6.515084","NameT":"มัสยิด"}},{"type":"Feature","geometry":{"type":"Point","coordinates":[101.255202,6.50904948]},"properties":{"name":"มัสยิดอามัน","Long":"101.255202","Lat":"6.509049","NameT":"มัสยิดอามัน"}},{"type":"Feature","geometry":{"type":"Point","coordinates":[101.2691571,6.506746362]},"properties":{"name":"มัสยิดหลักห้า","Long":"101.269157","Lat":"6.506746","NameT":"มัสยิดหลักห้า"}},{"type":"Feature","geometry":{"type":"Point","coordinates":[101.2636167,6.516967601]},"properties":{"name":"ไม่มีชื่อ","Long":"101.263617","Lat":"6.516968","NameT":"ไม่มีชื่อ"}},{"type":"Feature","geometry":{"type":"Point","coordinates":[101.262105,6.532869564]},"properties":{"name":"มัสยิดยามาอาติลมุสลีมีน","Long":"101.262105","Lat":"6.53287","NameT":"มัสยิดยามาอาติลมุสลีมีน"}},{"type":"Feature","geometry":{"type":"Point","coordinates":[101.2624087,6.544170208]},"properties":{"name":"มัสยิดลิมุด","Long":"101.262409","Lat":"6.54417","NameT":"มัสยิดลิมุด"}},{"type":"Feature","geometry":{"type":"Point","coordinates":[101.2556935,6.521394457]},"properties":{"name":"มัสยิดกูเบกูเต๊ะ","Long":"101.255694","Lat":"6.521394","NameT":"มัสยิดกูเบกูเต๊ะ"}},{"type":"Feature","geometry":{"type":"Point","coordinates":[101.2601302,6.616271776]},"properties":{"name":"มัสยิด","Long":"101.26013","Lat":"6.616272","NameT":"มัสยิด"}},{"type":"Feature","geometry":{"type":"Point","coordinates":[101.2558429,6.582551114]},"properties":{"name":"มัสยิด","Long":"101.255843","Lat":"6.582551","NameT":"มัสยิด"}},{"type":"Feature","geometry":{"type":"Point","coordinates":[101.2599956,6.583413506]},"properties":{"name":"มัสยิดนูรูลฮูดา","Long":"101.259996","Lat":"6.583414","NameT":"มัสยิดนูรูลฮูดา"}},{"type":"Feature","geometry":{"type":"Point","coordinates":[101.3048033,6.664879622]},"properties":{"name":"มัสยิดเกาะช้าง","Long":"101.304803","Lat":"6.66488","NameT":"มัสยิดเกาะช้าง"}},{"type":"Feature","geometry":{"type":"Point","coordinates":[101.3030207,6.654926697]},"properties":{"name":"มัสยิดบาโงกาบู","Long":"101.303021","Lat":"6.654927","NameT":"มัสยิดบาโงกาบู"}},{"type":"Feature","geometry":{"type":"Point","coordinates":[101.3040022,6.66849379]},"properties":{"name":"มัสยิดต้นมะขาม","Long":"101.304002","Lat":"6.668494","NameT":"มัสยิดต้นมะขาม"}},{"type":"Feature","geometry":{"type":"Point","coordinates":[101.328243,6.664737646]},"properties":{"name":"มัสยิดบาลากาซิง","Long":"101.328243","Lat":"6.664738","NameT":"มัสยิดบาลากาซิง"}},{"type":"Feature","geometry":{"type":"Point","coordinates":[101.2995008,6.682356695]},"properties":{"name":"มัสยิดต้นแซะ","Long":"101.299501","Lat":"6.682357","NameT":"มัสยิดต้นแซะ"}},{"type":"Feature","geometry":{"type":"Point","coordinates":[101.2780037,6.682403218]},"properties":{"name":"มัสยิดบ้านคูระ","Long":"101.278004","Lat":"6.682403","NameT":"มัสยิดบ้านคูระ"}},{"type":"Feature","geometry":{"type":"Point","coordinates":[101.3256165,6.680573244]},"properties":{"name":"มัสยิดดารุลอามาน","Long":"101.325617","Lat":"6.680573","NameT":"มัสยิดดารุลอามาน"}},{"type":"Feature","geometry":{"type":"Point","coordinates":[101.3281541,6.685681993]},"properties":{"name":"มัสยิด","Long":"101.328154","Lat":"6.685682","NameT":"มัสยิด"}},{"type":"Feature","geometry":{"type":"Point","coordinates":[101.3346321,6.688482621]},"properties":{"name":"มัสยิดสะตา","Long":"101.334632","Lat":"6.688483","NameT":"มัสยิดสะตา"}},{"type":"Feature","geometry":{"type":"Point","coordinates":[101.2917991,6.646610118]},"properties":{"name":"มัสยิดกาลูแป","Long":"101.291799","Lat":"6.64661","NameT":"มัสยิดกาลูแป"}},{"type":"Feature","geometry":{"type":"Point","coordinates":[101.2867592,6.639151136]},"properties":{"name":"มัสยิด","Long":"101.286759","Lat":"6.639151","NameT":"มัสยิด"}},{"type":"Feature","geometry":{"type":"Point","coordinates":[101.2824522,6.642022527]},"properties":{"name":"มัสยิด","Long":"101.282452","Lat":"6.642023","NameT":"มัสยิด"}},{"type":"Feature","geometry":{"type":"Point","coordinates":[101.3017134,6.643275034]},"properties":{"name":"มัสยิดดารุลนาอิมุ","Long":"101.301713","Lat":"6.643275","NameT":"มัสยิดดารุลนาอิมุ"}},{"type":"Feature","geometry":{"type":"Point","coordinates":[101.325443,6.637916913]},"properties":{"name":"มัสยิด","Long":"101.325443","Lat":"6.637917","NameT":"มัสยิด"}},{"type":"Feature","geometry":{"type":"Point","coordinates":[101.3301215,6.608610772]},"properties":{"name":"ไม่มีชื่อ","Long":"101.330122","Lat":"6.608611","NameT":"ไม่มีชื่อ"}},{"type":"Feature","geometry":{"type":"Point","coordinates":[101.3064356,6.609482067]},"properties":{"name":"มัสยิดบ้านเขาตูม","Long":"101.306436","Lat":"6.609482","NameT":"มัสยิดบ้านเขาตูม"}},{"type":"Feature","geometry":{"type":"Point","coordinates":[101.374872,6.642247436]},"properties":{"name":"มัสยิดบูเกะกุง","Long":"101.374872","Lat":"6.642247","NameT":"มัสยิดบูเกะกุง"}},{"type":"Feature","geometry":{"type":"Point","coordinates":[101.3864343,6.653401881]},"properties":{"name":"มัสยิด","Long":"101.386434","Lat":"6.653402","NameT":"มัสยิด"}},{"type":"Feature","geometry":{"type":"Point","coordinates":[101.345072,6.607864389]},"properties":{"name":"มัสยิดจาเราะสะโต","Long":"101.345072","Lat":"6.607864","NameT":"มัสยิดจาเราะสะโต"}},{"type":"Feature","geometry":{"type":"Point","coordinates":[101.3623921,6.577462913]},"properties":{"name":"มัสยิดกลางจาเราะบองอ","Long":"101.362392","Lat":"6.577463","NameT":"มัสยิดกลางจาเราะบองอ"}},{"type":"Feature","geometry":{"type":"Point","coordinates":[101.3953465,6.596675916]},"properties":{"name":"มัสยิด","Long":"101.395347","Lat":"6.596676","NameT":"มัสยิด"}},{"type":"Feature","geometry":{"type":"Point","coordinates":[101.379821,6.551631331]},"properties":{"name":"มัสยิดอัลฟัลลาฮูลอามีลีน","Long":"101.379821","Lat":"6.551631","NameT":"มัสยิดอัลฟัลลาฮูลอามีลีน"}},{"type":"Feature","geometry":{"type":"Point","coordinates":[101.3629818,6.544676894]},"properties":{"name":"มัสยิดคญาแมะ","Long":"101.362982","Lat":"6.544677","NameT":"มัสยิดคญาแมะ"}},{"type":"Feature","geometry":{"type":"Point","coordinates":[101.3705842,6.52220944]},"properties":{"name":"มัสยิดอัลกัสมีย์","Long":"101.370584","Lat":"6.522209","NameT":"มัสยิดอัลกัสมีย์"}},{"type":"Feature","geometry":{"type":"Point","coordinates":[101.3441188,6.55027287]},"properties":{"name":"มัสยิดปรามะ","Long":"101.344119","Lat":"6.550273","NameT":"มัสยิดปรามะ"}},{"type":"Feature","geometry":{"type":"Point","coordinates":[101.271681,6.577377373]},"properties":{"name":"มัสยิดยาแม","Long":"101.271681","Lat":"6.577377","NameT":"มัสยิดยาแม"}},{"type":"Feature","geometry":{"type":"Point","coordinates":[101.2765212,6.572169267]},"properties":{"name":"มัสยิด","Long":"101.276521","Lat":"6.572169","NameT":"มัสยิด"}},{"type":"Feature","geometry":{"type":"Point","coordinates":[101.2946073,6.566756853]},"properties":{"name":"ไม่มีชื่อ","Long":"101.294607","Lat":"6.566757","NameT":"ไม่มีชื่อ"}},{"type":"Feature","geometry":{"type":"Point","coordinates":[101.2844009,6.597820024]},"properties":{"name":"มัสยิด","Long":"101.284401","Lat":"6.59782","NameT":"มัสยิด"}},{"type":"Feature","geometry":{"type":"Point","coordinates":[101.301109,6.594149434]},"properties":{"name":"ไม่มีชื่อ","Long":"101.301109","Lat":"6.594149","NameT":"ไม่มีชื่อ"}},{"type":"Feature","geometry":{"type":"Point","coordinates":[101.3434243,6.740060845]},"properties":{"name":"มัสยิดม่วงหวาน","Long":"101.343424","Lat":"6.740061","NameT":"มัสยิดม่วงหวาน"}},{"type":"Feature","geometry":{"type":"Point","coordinates":[101.3656801,6.729876236]},"properties":{"name":"มัสยิดบ้านเยาะ","Long":"101.36568","Lat":"6.729876","NameT":"มัสยิดบ้านเยาะ"}},{"type":"Feature","geometry":{"type":"Point","coordinates":[101.3753461,6.728662438]},"properties":{"name":"มัสยิดเตี้ยรายอ","Long":"101.375346","Lat":"6.728662","NameT":"มัสยิดเตี้ยรายอ"}},{"type":"Feature","geometry":{"type":"Point","coordinates":[101.4049917,6.721763179]},"properties":{"name":"มัสยิดนูรอัลญันนะห์","Long":"101.404992","Lat":"6.721763","NameT":"มัสยิดนูรอัลญันนะห์"}},{"type":"Feature","geometry":{"type":"Point","coordinates":[101.3817709,6.714812107]},"properties":{"name":"มัสยิดคลองช้าง","Long":"101.381771","Lat":"6.714812","NameT":"มัสยิดคลองช้าง"}},{"type":"Feature","geometry":{"type":"Point","coordinates":[101.3653847,6.675844406]},"properties":{"name":"มัสยิดบ้านบูดน","Long":"101.365385","Lat":"6.675844","NameT":"มัสยิดบ้านบูดน"}},{"type":"Feature","geometry":{"type":"Point","coordinates":[101.3833747,6.69473472]},"properties":{"name":"มัสยิด","Long":"101.383375","Lat":"6.694735","NameT":"มัสยิด"}},{"type":"Feature","geometry":{"type":"Point","coordinates":[101.4365334,6.565565146]},"properties":{"name":"มัสยิดนูรูฮูดา","Long":"101.436533","Lat":"6.565565","NameT":"มัสยิดนูรูฮูดา"}},{"type":"Feature","geometry":{"type":"Point","coordinates":[101.4902302,6.562651729]},"properties":{"name":"มัสยิด","Long":"101.49023","Lat":"6.562652","NameT":"มัสยิด"}},{"type":"Feature","geometry":{"type":"Point","coordinates":[101.4908881,6.582009891]},"properties":{"name":"มัสยิดบ้านท่าธง","Long":"101.490888","Lat":"6.58201","NameT":"มัสยิดบ้านท่าธง"}},{"type":"Feature","geometry":{"type":"Point","coordinates":[101.4721575,6.532627395]},"properties":{"name":"มัสยิดตะโล๊ะสตาร์","Long":"101.472157","Lat":"6.532627","NameT":"มัสยิดตะโล๊ะสตาร์"}},{"type":"Feature","geometry":{"type":"Point","coordinates":[101.4515719,6.529357489]},"properties":{"name":"มัสยิดบูเกะบือราแง","Long":"101.451572","Lat":"6.529357","NameT":"มัสยิดบูเกะบือราแง"}},{"type":"Feature","geometry":{"type":"Point","coordinates":[101.4175479,6.616759122]},"properties":{"name":"มัสยิด","Long":"101.417548","Lat":"6.616759","NameT":"มัสยิด"}},{"type":"Feature","geometry":{"type":"Point","coordinates":[101.4481995,6.627229585]},"properties":{"name":"มัสยิด","Long":"101.4482","Lat":"6.62723","NameT":"มัสยิด"}},{"type":"Feature","geometry":{"type":"Point","coordinates":[101.453116,6.624610978]},"properties":{"name":"มัสยิดบาราแฮ","Long":"101.453116","Lat":"6.624611","NameT":"มัสยิดบาราแฮ"}},{"type":"Feature","geometry":{"type":"Point","coordinates":[101.4401584,6.63801746]},"properties":{"name":"มัสยิด","Long":"101.440158","Lat":"6.638017","NameT":"มัสยิด"}},{"type":"Feature","geometry":{"type":"Point","coordinates":[101.4528526,6.634121248]},"properties":{"name":"มัสยิด","Long":"101.452853","Lat":"6.634121","NameT":"มัสยิด"}},{"type":"Feature","geometry":{"type":"Point","coordinates":[101.4653355,6.627942714]},"properties":{"name":"มัสยิดนูรดีน","Long":"101.465335","Lat":"6.627943","NameT":"มัสยิดนูรดีน"}},{"type":"Feature","geometry":{"type":"Point","coordinates":[101.4194027,6.64771497]},"properties":{"name":"มัสยิดเจาะบาแง","Long":"101.419403","Lat":"6.647715","NameT":"มัสยิดเจาะบาแง"}},{"type":"Feature","geometry":{"type":"Point","coordinates":[101.4595832,6.642181637]},"properties":{"name":"มัสยิดปาแดปาลัส","Long":"101.459583","Lat":"6.642182","NameT":"มัสยิดปาแดปาลัส"}},{"type":"Feature","geometry":{"type":"Point","coordinates":[101.4694136,6.641190116]},"properties":{"name":"มัสยิดนูรูลฮูดาย์","Long":"101.469414","Lat":"6.64119","NameT":"มัสยิดนูรูลฮูดาย์"}},{"type":"Feature","geometry":{"type":"Point","coordinates":[101.4465744,6.664835918]},"properties":{"name":"มัสยิดนารูลอาเมน","Long":"101.446574","Lat":"6.664836","NameT":"มัสยิดนารูลอาเมน"}},{"type":"Feature","geometry":{"type":"Point","coordinates":[101.4535776,6.677641679]},"properties":{"name":"มัสยิดบาแดยอร์","Long":"101.453578","Lat":"6.677642","NameT":"มัสยิดบาแดยอร์"}},{"type":"Feature","geometry":{"type":"Point","coordinates":[101.4772605,6.679380413]},"properties":{"name":"มัสยิดตักวา","Long":"101.477261","Lat":"6.67938","NameT":"มัสยิดตักวา"}},{"type":"Feature","geometry":{"type":"Point","coordinates":[101.4136166,6.664014554]},"properties":{"name":"มัสยิดตอรีย์กุลยันนะห์","Long":"101.413617","Lat":"6.664015","NameT":"มัสยิดตอรีย์กุลยันนะห์"}},{"type":"Feature","geometry":{"type":"Point","coordinates":[101.4129753,6.696986994]},"properties":{"name":"มัสยิดบาลูกาตือเงาะ","Long":"101.412975","Lat":"6.696987","NameT":"มัสยิดบาลูกาตือเงาะ"}},{"type":"Feature","geometry":{"type":"Point","coordinates":[101.4126102,6.713173949]},"properties":{"name":"มัสยิดมายอ","Long":"101.41261","Lat":"6.713174","NameT":"มัสยิดมายอ"}},{"type":"Feature","geometry":{"type":"Point","coordinates":[101.4125276,6.724151626]},"properties":{"name":"มัสยิดบูเกะ��๊ะ","Long":"101.412528","Lat":"6.724152","NameT":"มัสยิดบูเกะจ๊ะ"}},{"type":"Feature","geometry":{"type":"Point","coordinates":[101.2625609,6.559794594]},"properties":{"name":"มัสยิดลางา","Long":"101.262561","Lat":"6.559795","NameT":"มัสยิดลางา"}},{"type":"Feature","geometry":{"type":"Point","coordinates":[101.2926174,6.699545592]},"properties":{"name":"มัสยิดดารุลนาดะฮ์ปอยันซามง","Long":"101.292617","Lat":"6.699546","NameT":"มัสยิดดารุลนาดะฮ์ปอยันซามง"}},{"type":"Feature","geometry":{"type":"Point","coordinates":[101.3122499,6.530950793]},"properties":{"name":"มัสยิด","Long":"101.31225","Lat":"6.530951","NameT":"มัสยิด"}},{"type":"Feature","geometry":{"type":"Point","coordinates":[101.3186904,6.518729993]},"properties":{"name":"มัสยิด","Long":"101.31869","Lat":"6.51873","NameT":"มัสยิด"}},{"type":"Feature","geometry":{"type":"Point","coordinates":[101.3146816,6.506547503]},"properties":{"name":"มัสยิด","Long":"101.314682","Lat":"6.506548","NameT":"มัสยิด"}},{"type":"Feature","geometry":{"type":"Point","coordinates":[101.3429094,6.693842678]},"properties":{"name":"ปอเนาะบ้านมะหุด","Long":"101.342909","Lat":"6.693843","NameT":"ปอเนาะบ้านมะหุด"}},{"type":"Feature","geometry":{"type":"Point","coordinates":[101.3932497,6.589011208]},"properties":{"name":"มัสยิดแลแวะ","Long":"101.39325","Lat":"6.589011","NameT":"มัสยิดแลแวะ"}},{"type":"Feature","geometry":{"type":"Point","coordinates":[101.4181898,6.68479897]},"properties":{"name":"สุเหล่าบ้านเมืองยอน","Long":"101.41819","Lat":"6.684799","NameT":"สุเหล่าบ้านเมืองยอน"}},{"type":"Feature","geometry":{"type":"Point","coordinates":[101.2878759,6.500676679]},"properties":{"name":"มัสยิด","Long":"101.287876","Lat":"6.500677","NameT":"มัสยิด"}},{"type":"Feature","geometry":{"type":"Point","coordinates":[101.3567613,6.634843434]},"properties":{"name":"มัสยิดบาโงยะหา","Long":"101.356761","Lat":"6.634843","NameT":"มัสยิดบาโงยะหา"}},{"type":"Feature","geometry":{"type":"Point","coordinates":[101.475445,6.520734708]},"properties":{"name":"มัสยิดซะยออิสลาม","Long":"101.475445","Lat":"6.520735","NameT":"มัสยิดซะยออิสลาม"}},{"type":"Feature","geometry":{"type":"Point","coordinates":[101.4271906,6.53987798]},"properties":{"name":"มัสยิด","Long":"101.427191","Lat":"6.539878","NameT":"มัสยิด"}},{"type":"Feature","geometry":{"type":"Point","coordinates":[101.4181898,6.68479897]},"properties":{"name":"สุเหร่าบ้านเมืองยอน","Long":"101.41819","Lat":"6.684799","NameT":"สุเหร่าบ้านเมืองยอน"}},{"type":"Feature","geometry":{"type":"Point","coordinates":[101.4646229,6.737374699]},"properties":{"name":"มัสยิด","Long":"101.464623","Lat":"6.737375","NameT":"มัสยิด"}},{"type":"Feature","geometry":{"type":"Point","coordinates":[101.4947238,6.540898164]},"properties":{"name":"มัสยิด","Long":"101.494724","Lat":"6.540898","NameT":"มัสยิด"}},{"type":"Feature","geometry":{"type":"Point","coordinates":[101.4523389,6.748243379]},"properties":{"name":"มัสยิด","Long":"101.452339","Lat":"6.748243","NameT":"มัสยิด"}},{"type":"Feature","geometry":{"type":"Point","coordinates":[101.4181866,6.748210172]},"properties":{"name":"มัสยิด","Long":"101.418187","Lat":"6.74821","NameT":"มัสยิด"}},{"type":"Feature","geometry":{"type":"Point","coordinates":[101.4701246,6.773260244]},"properties":{"name":"มัสยิดราวอ","Long":"101.470125","Lat":"6.77326","NameT":"มัสยิดราวอ"}},{"type":"Feature","geometry":{"type":"Point","coordinates":[101.436565,6.780927674]},"properties":{"name":"มัสยิด","Long":"101.436565","Lat":"6.780928","NameT":"มัสยิด"}},{"type":"Feature","geometry":{"type":"Point","coordinates":[101.4209774,6.785855632]},"properties":{"name":"มัสยิด","Long":"101.420977","Lat":"6.785856","NameT":"มัสยิด"}},{"type":"Feature","geometry":{"type":"Point","coordinates":[101.4348873,6.797522413]},"properties":{"name":"มัสยิด","Long":"101.434887","Lat":"6.797522","NameT":"มัสยิด"}},{"type":"Feature","geometry":{"type":"Point","coordinates":[101.44001,6.800599238]},"properties":{"name":"มัสยิด","Long":"101.44001","Lat":"6.800599","NameT":"มัสยิด"}},{"type":"Feature","geometry":{"type":"Point","coordinates":[101.4316885,6.798410651]},"properties":{"name":"มัสยิด","Long":"101.431689","Lat":"6.798411","NameT":"มัสยิด"}},{"type":"Feature","geometry":{"type":"Point","coordinates":[101.4360816,6.811810568]},"properties":{"name":"มัสยิด","Long":"101.436082","Lat":"6.811811","NameT":"มัสยิด"}},{"type":"Feature","geometry":{"type":"Point","coordinates":[101.457536,6.805338236]},"properties":{"name":"มัสยิด","Long":"101.457536","Lat":"6.805338","NameT":"มัสยิด"}},{"type":"Feature","geometry":{"type":"Point","coordinates":[101.4704063,6.811587149]},"properties":{"name":"มัสยิด","Long":"101.470406","Lat":"6.811587","NameT":"มัสยิด"}},{"type":"Feature","geometry":{"type":"Point","coordinates":[101.4690814,6.807170887]},"properties":{"name":"มัสยิด","Long":"101.469081","Lat":"6.807171","NameT":"มัสยิด"}},{"type":"Feature","geometry":{"type":"Point","coordinates":[101.4735641,6.803905866]},"properties":{"name":"มัสยิดปูตะ","Long":"101.473564","Lat":"6.803906","NameT":"มัสยิดปูตะ"}},{"type":"Feature","geometry":{"type":"Point","coordinates":[101.4298745,6.816030595]},"properties":{"name":"มัสยิดสะตือเงาะ","Long":"101.429875","Lat":"6.816031","NameT":"มัสยิดสะตือเงาะ"}},{"type":"Feature","geometry":{"type":"Point","coordinates":[101.4229351,6.806185761]},"properties":{"name":"มัสยิด","Long":"101.422935","Lat":"6.806186","NameT":"มัสยิด"}},{"type":"Feature","geometry":{"type":"Point","coordinates":[101.4216403,6.824623853]},"properties":{"name":"มัสยิด","Long":"101.42164","Lat":"6.824624","NameT":"มัสยิด"}},{"type":"Feature","geometry":{"type":"Point","coordinates":[101.4167652,6.855779047]},"properties":{"name":"มัสยิดบ้านลุวง","Long":"101.416765","Lat":"6.855779","NameT":"มัสยิดบ้านลุวง"}},{"type":"Feature","geometry":{"type":"Point","coordinates":[101.4247152,6.853215377]},"properties":{"name":"มัสยิด","Long":"101.424715","Lat":"6.853215","NameT":"มัสยิด"}},{"type":"Feature","geometry":{"type":"Point","coordinates":[101.4331656,6.840799778]},"properties":{"name":"มัสยิดเปียสูง","Long":"101.433166","Lat":"6.8408","NameT":"มัสยิดเปียสูง"}},{"type":"Feature","geometry":{"type":"Point","coordinates":[101.4518388,6.835985439]},"properties":{"name":"มัสยิด","Long":"101.451839","Lat":"6.835985","NameT":"มัสยิด"}},{"type":"Feature","geometry":{"type":"Point","coordinates":[101.4383749,6.830109263]},"properties":{"name":"มัสยิด","Long":"101.438375","Lat":"6.830109","NameT":"มัสยิด"}},{"type":"Feature","geometry":{"type":"Point","coordinates":[101.476225,6.851211768]},"properties":{"name":"มัสยิด","Long":"101.476225","Lat":"6.851212","NameT":"มัสยิด"}},{"type":"Feature","geometry":{"type":"Point","coordinates":[101.318269,6.855388573]},"properties":{"name":"มัสยิด","Long":"101.318269","Lat":"6.855389","NameT":"มัสยิด"}},{"type":"Feature","geometry":{"type":"Point","coordinates":[101.2824121,6.816458879]},"properties":{"name":"มัสยิด","Long":"101.282412","Lat":"6.816459","NameT":"มัสยิด"}},{"type":"Feature","geometry":{"type":"Point","coordinates":[101.2823981,6.813228276]},"properties":{"name":"มัสยิด","Long":"101.282398","Lat":"6.813228","NameT":"มัสยิด"}},{"type":"Feature","geometry":{"type":"Point","coordinates":[101.2773429,6.823619671]},"properties":{"name":"มัสยิดบาราเฮาะ","Long":"101.277343","Lat":"6.82362","NameT":"มัสยิดบาราเฮาะ"}},{"type":"Feature","geometry":{"type":"Point","coordinates":[101.2746393,6.81486599]},"properties":{"name":"มัสยิด","Long":"101.274639","Lat":"6.814866","NameT":"มัสยิด"}},{"type":"Feature","geometry":{"type":"Point","coordinates":[101.2967538,6.830668446]},"properties":{"name":"มัสยิด","Long":"101.296754","Lat":"6.830668","NameT":"มัสยิด"}},{"type":"Feature","geometry":{"type":"Point","coordinates":[101.3188054,6.839871987]},"properties":{"name":"มัสยิด","Long":"101.318805","Lat":"6.839872","NameT":"มัสยิด"}},{"type":"Feature","geometry":{"type":"Point","coordinates":[101.334593,6.841197911]},"properties":{"name":"มัสยิดตาแกะกือดา","Long":"101.334593","Lat":"6.841198","NameT":"มัสยิดตาแกะกือดา"}},{"type":"Feature","geometry":{"type":"Point","coordinates":[101.3085592,6.819546141]},"properties":{"name":"มัสยิด","Long":"101.308559","Lat":"6.819546","NameT":"มัสยิด"}},{"type":"Feature","geometry":{"type":"Point","coordinates":[101.3116149,6.805321335]},"properties":{"name":"มัสยิด","Long":"101.311615","Lat":"6.805321","NameT":"มัสยิด"}},{"type":"Feature","geometry":{"type":"Point","coordinates":[101.3009528,6.808018262]},"properties":{"name":"มัสยิด","Long":"101.300953","Lat":"6.808018","NameT":"มัสยิด"}},{"type":"Feature","geometry":{"type":"Point","coordinates":[101.2971381,6.797546509]},"properties":{"name":"มัสยิดกำปงตูซง","Long":"101.297138","Lat":"6.797547","NameT":"มัสยิดกำปงตูซง"}},{"type":"Feature","geometry":{"type":"Point","coordinates":[101.2821161,6.799278165]},"properties":{"name":"มัสยิดบราโอ","Long":"101.282116","Lat":"6.799278","NameT":"มัสยิดบราโอ"}},{"type":"Feature","geometry":{"type":"Point","coordinates":[101.2803978,6.803592305]},"properties":{"name":"มัสยิด","Long":"101.280398","Lat":"6.803592","NameT":"มัสยิด"}},{"type":"Feature","geometry":{"type":"Point","coordinates":[101.281659,6.803589882]},"properties":{"name":"มัสยิด","Long":"101.281659","Lat":"6.80359","NameT":"มัสยิด"}},{"type":"Feature","geometry":{"type":"Point","coordinates":[101.2887292,6.809554412]},"properties":{"name":"มัสยิด","Long":"101.288729","Lat":"6.809554","NameT":"มัสยิด"}},{"type":"Feature","geometry":{"type":"Point","coordinates":[101.3160521,6.788101973]},"properties":{"name":"มัสยิด","Long":"101.316052","Lat":"6.788102","NameT":"มัสยิด"}},{"type":"Feature","geometry":{"type":"Point","coordinates":[101.3282073,6.788451618]},"properties":{"name":"มัสยิดสะนอ","Long":"101.328207","Lat":"6.788452","NameT":"มัสยิดสะนอ"}},{"type":"Feature","geometry":{"type":"Point","coordinates":[101.3206603,6.775920893]},"properties":{"name":"มัสยิดบ้านคางา","Long":"101.32066","Lat":"6.775921","NameT":"มัสยิดบ้านคางา"}},{"type":"Feature","geometry":{"type":"Point","coordinates":[101.3077082,6.783132289]},"properties":{"name":"มัสยิด","Long":"101.307708","Lat":"6.783132","NameT":"มัสยิด"}},{"type":"Feature","geometry":{"type":"Point","coordinates":[101.2972328,6.779779637]},"properties":{"name":"มัสยิดรอซัน","Long":"101.297233","Lat":"6.77978","NameT":"มัสยิดรอซัน"}},{"type":"Feature","geometry":{"type":"Point","coordinates":[101.2922118,6.790315747]},"properties":{"name":"มัสยิด","Long":"101.292212","Lat":"6.790316","NameT":"มัสยิด"}},{"type":"Feature","geometry":{"type":"Point","coordinates":[101.2944987,6.768172024]},"properties":{"name":"มัสยิดตารุลอิสลาม","Long":"101.294499","Lat":"6.768172","NameT":"มัสยิดตารุลอิสลาม"}},{"type":"Feature","geometry":{"type":"Point","coordinates":[101.2936112,6.762462795]},"properties":{"name":"มัสยิด","Long":"101.293611","Lat":"6.762463","NameT":"มัสยิด"}},{"type":"Feature","geometry":{"type":"Point","coordinates":[101.2775658,6.766003989]},"properties":{"name":"มัสยิดยะรัง","Long":"101.277566","Lat":"6.766004","NameT":"มัสยิดยะรัง"}},{"type":"Feature","geometry":{"type":"Point","coordinates":[101.2768865,6.769939461]},"properties":{"name":"มัสยิด","Long":"101.276887","Lat":"6.769939","NameT":"มัสยิด"}},{"type":"Feature","geometry":{"type":"Point","coordinates":[101.3121651,6.76952366]},"properties":{"name":"มัสยิด","Long":"101.312165","Lat":"6.769524","NameT":"มัสยิด"}},{"type":"Feature","geometry":{"type":"Point","coordinates":[101.3759461,6.896476378]},"properties":{"name":"มัสยิดตะโล๊ะกาโปร์","Long":"101.375946","Lat":"6.896476","NameT":"มัสยิดตะโล๊ะกาโปร์"}},{"type":"Feature","geometry":{"type":"Point","coordinates":[101.403489,6.88436316]},"properties":{"name":"มัสยิด","Long":"101.403489","Lat":"6.884363","NameT":"มัสยิด"}},{"type":"Feature","geometry":{"type":"Point","coordinates":[101.3425952,6.868550413]},"properties":{"name":"มัสยิดอัลดุลมุสลีมีนะ","Long":"101.342595","Lat":"6.86855","NameT":"มัสยิดอัลดุลมุสลีมีนะ"}},{"type":"Feature","geometry":{"type":"Point","coordinates":[101.3448927,6.841719464]},"properties":{"name":"มัสยิดปูโป้ะ","Long":"101.344893","Lat":"6.841719","NameT":"มัสยิดปูโป้ะ"}},{"type":"Feature","geometry":{"type":"Point","coordinates":[101.369324,6.864619735]},"properties":{"name":"มัสยิด","Long":"101.369324","Lat":"6.86462","NameT":"มัสยิด"}},{"type":"Feature","geometry":{"type":"Point","coordinates":[101.4079934,6.852835502]},"properties":{"name":"มัสยิดหนองแรด","Long":"101.407993","Lat":"6.852836","NameT":"มัสยิดหนองแรด"}},{"type":"Feature","geometry":{"type":"Point","coordinates":[101.4076523,6.85744791]},"properties":{"name":"มัสยิด","Long":"101.407652","Lat":"6.857448","NameT":"มัสยิด"}},{"type":"Feature","geometry":{"type":"Point","coordinates":[101.3969919,6.841534545]},"properties":{"name":"มัสยิดแบรอ","Long":"101.396992","Lat":"6.841535","NameT":"มัสยิดแบรอ"}},{"type":"Feature","geometry":{"type":"Point","coordinates":[101.3515817,6.808540432]},"properties":{"name":"มัสยิดกูแบบาดู","Long":"101.351582","Lat":"6.80854","NameT":"มัสยิดกูแบบาดู"}},{"type":"Feature","geometry":{"type":"Point","coordinates":[101.3758569,6.812355803]},"properties":{"name":"มัสยิดดะมาตูลอิสลามมียะห์","Long":"101.375857","Lat":"6.812356","NameT":"มัสยิดดะมาตูลอิสลามมียะห์"}},{"type":"Feature","geometry":{"type":"Point","coordinates":[101.3924528,6.815384281]},"properties":{"name":"มัสยิดชะเอาะปาเมาะ","Long":"101.392453","Lat":"6.815384","NameT":"มัสยิดชะเอาะปาเมาะ"}},{"type":"Feature","geometry":{"type":"Point","coordinates":[101.3986614,6.814626514]},"properties":{"name":"มัสยิด","Long":"101.398661","Lat":"6.814627","NameT":"มัสยิด"}},{"type":"Feature","geometry":{"type":"Point","coordinates":[101.3916734,6.79765348]},"properties":{"name":"มัสยิด","Long":"101.391673","Lat":"6.797653","NameT":"มัสยิด"}},{"type":"Feature","geometry":{"type":"Point","coordinates":[101.4073304,6.800221346]},"properties":{"name":"มัสยิด","Long":"101.40733","Lat":"6.800221","NameT":"มัสยิด"}},{"type":"Feature","geometry":{"type":"Point","coordinates":[101.3886856,6.830580318]},"properties":{"name":"มัสยิด","Long":"101.388686","Lat":"6.83058","NameT":"มัสยิด"}},{"type":"Feature","geometry":{"type":"Point","coordinates":[101.3639019,6.834937016]},"properties":{"name":"มัสยิดราตาปันยัง","Long":"101.363902","Lat":"6.834937","NameT":"มัสยิดราตาปันยัง"}},{"type":"Feature","geometry":{"type":"Point","coordinates":[101.3484393,6.833522014]},"properties":{"name":"มัสยิด","Long":"101.348439","Lat":"6.833522","NameT":"มัสยิด"}},{"type":"Feature","geometry":{"type":"Point","coordinates":[101.3998813,6.83681157]},"properties":{"name":"มัสยิดบือแนลูวา","Long":"101.399881","Lat":"6.836812","NameT":"มัสยิดบือแนลูวา"}},{"type":"Feature","geometry":{"type":"Point","coordinates":[101.412859,6.838998255]},"properties":{"name":"มัสยิด","Long":"101.412859","Lat":"6.838998","NameT":"มัสยิด"}},{"type":"Feature","geometry":{"type":"Point","coordinates":[101.4102616,6.819922532]},"properties":{"name":"มัสยิด","Long":"101.410262","Lat":"6.819923","NameT":"มัสยิด"}},{"type":"Feature","geometry":{"type":"Point","coordinates":[101.2530867,6.867090779]},"properties":{"name":"มัสยิด","Long":"101.253087","Lat":"6.867091","NameT":"มัสยิด"}},{"type":"Feature","geometry":{"type":"Point","coordinates":[101.2598906,6.888267183]},"properties":{"name":"มัสยิด","Long":"101.259891","Lat":"6.888267","NameT":"มัสยิด"}},{"type":"Feature","geometry":{"type":"Point","coordinates":[101.2510505,6.865100392]},"properties":{"name":"มัสยิด","Long":"101.251051","Lat":"6.8651","NameT":"มัสยิด"}},{"type":"Feature","geometry":{"type":"Point","coordinates":[101.2537085,6.870796971]},"properties":{"name":"มัสยิด","Long":"101.253709","Lat":"6.870797","NameT":"มัสยิด"}},{"type":"Feature","geometry":{"type":"Point","coordinates":[101.2542528,6.874508332]},"properties":{"name":"มัสยิด","Long":"101.254253","Lat":"6.874508","NameT":"มัสยิด"}},{"type":"Feature","geometry":{"type":"Point","coordinates":[101.2545332,6.876549266]},"properties":{"name":"มัสยิด","Long":"101.254533","Lat":"6.876549","NameT":"มัสยิด"}},{"type":"Feature","geometry":{"type":"Point","coordinates":[101.254842,6.882022289]},"properties":{"name":"มัสยิด","Long":"101.254842","Lat":"6.882022","NameT":"มัสยิด"}},{"type":"Feature","geometry":{"type":"Point","coordinates":[101.2555328,6.885778461]},"properties":{"name":"มัสยิด","Long":"101.255533","Lat":"6.885778","NameT":"มัสยิด"}},{"type":"Feature","geometry":{"type":"Point","coordinates":[101.2551385,6.86215237]},"properties":{"name":"มัสยิด","Long":"101.255139","Lat":"6.862152","NameT":"ม���สยิด"}},{"type":"Feature","geometry":{"type":"Point","coordinates":[101.2508033,6.855667384]},"properties":{"name":"มัสยิด","Long":"101.250803","Lat":"6.855667","NameT":"มัสยิด"}},{"type":"Feature","geometry":{"type":"Point","coordinates":[101.3414773,6.794123835]},"properties":{"name":"มัสยิดตะโล๊ะ","Long":"101.341477","Lat":"6.794124","NameT":"มัสยิดตะโล๊ะ"}},{"type":"Feature","geometry":{"type":"Point","coordinates":[101.3515631,6.777602348]},"properties":{"name":"มัสยิดป่าศรี","Long":"101.351563","Lat":"6.777602","NameT":"มัสยิดป่าศรี"}},{"type":"Feature","geometry":{"type":"Point","coordinates":[101.3437782,6.759529195]},"properties":{"name":"มัสยิดบาตัสกูบู","Long":"101.343778","Lat":"6.759529","NameT":"มัสยิดบาตัสกูบู"}},{"type":"Feature","geometry":{"type":"Point","coordinates":[101.3556655,6.755601368]},"properties":{"name":"มัสยิดสมาหอ","Long":"101.355666","Lat":"6.755601","NameT":"มัสยิดสมาหอ"}},{"type":"Feature","geometry":{"type":"Point","coordinates":[101.3772798,6.769272789]},"properties":{"name":"มัสยิดปุลากง","Long":"101.37728","Lat":"6.769273","NameT":"มัสยิดปุลากง"}},{"type":"Feature","geometry":{"type":"Point","coordinates":[101.3694153,6.789506276]},"properties":{"name":"กูโบมัสยิด","Long":"101.369415","Lat":"6.789506","NameT":"กูโบมัสยิด"}},{"type":"Feature","geometry":{"type":"Point","coordinates":[101.3207584,6.830540472]},"properties":{"name":"มัสยิด","Long":"101.320758","Lat":"6.83054","NameT":"มัสยิด"}},{"type":"Feature","geometry":{"type":"Point","coordinates":[101.2938343,6.755189583]},"properties":{"name":"มัสยิด","Long":"101.293834","Lat":"6.75519","NameT":"มัสยิด"}},{"type":"Feature","geometry":{"type":"Point","coordinates":[101.3512282,6.854385052]},"properties":{"name":"มัสยิดดารุลยามานะ","Long":"101.351228","Lat":"6.854385","NameT":"มัสยิดดารุลยามานะ"}},{"type":"Feature","geometry":{"type":"Point","coordinates":[101.3514644,6.870103772]},"properties":{"name":"มัสยิดบางปู","Long":"101.351464","Lat":"6.870104","NameT":"มัสยิดบางปู"}},{"type":"Feature","geometry":{"type":"Point","coordinates":[101.4640579,6.784064428]},"properties":{"name":"มัสยิด","Long":"101.464058","Lat":"6.784064","NameT":"มัสยิด"}},{"type":"Feature","geometry":{"type":"Point","coordinates":[101.2812307,6.856795892]},"properties":{"name":"มัสยิดกูวิง","Long":"101.281231","Lat":"6.856796","NameT":"มัสยิดกูวิง"}},{"type":"Feature","geometry":{"type":"Point","coordinates":[101.2922927,6.854341554]},"properties":{"name":"มัสยิดปาแตบองอ","Long":"101.292293","Lat":"6.854342","NameT":"มัสยิดปาแตบองอ"}},{"type":"Feature","geometry":{"type":"Point","coordinates":[101.2930219,6.858899399]},"properties":{"name":"มัสยิด","Long":"101.293022","Lat":"6.858899","NameT":"มัสยิด"}},{"type":"Feature","geometry":{"type":"Point","coordinates":[101.2938224,6.872839445]},"properties":{"name":"มัสยิด","Long":"101.293822","Lat":"6.872839","NameT":"มัสยิด"}},{"type":"Feature","geometry":{"type":"Point","coordinates":[101.2945405,6.869675962]},"properties":{"name":"มัสยิด","Long":"101.294541","Lat":"6.869676","NameT":"มัสยิด"}},{"type":"Feature","geometry":{"type":"Point","coordinates":[101.2824148,6.887325859]},"properties":{"name":"มัสยิดบูรุลอุดตีห์","Long":"101.282415","Lat":"6.887326","NameT":"มัสยิดบูรุลอุดตีห์"}},{"type":"Feature","geometry":{"type":"Point","coordinates":[101.3073116,6.938784383]},"properties":{"name":"มัสยิดกำปงบารู","Long":"101.307312","Lat":"6.938784","NameT":"มัสยิดกำปงบารู"}},{"type":"Feature","geometry":{"type":"Point","coordinates":[101.3081673,6.935185492]},"properties":{"name":"มัสยิดปาตาบูดี","Long":"101.308167","Lat":"6.935185","NameT":"มัสยิดปาตาบูดี"}},{"type":"Feature","geometry":{"type":"Point","coordinates":[101.3070479,6.930335351]},"properties":{"name":"มัสยิดบูดี","Long":"101.307048","Lat":"6.930335","NameT":"มัสยิดบูดี"}},{"type":"Feature","geometry":{"type":"Point","coordinates":[101.3320447,6.912643941]},"properties":{"name":"มัสยิดบ้านดาโต๊ะ","Long":"101.332045","Lat":"6.912644","NameT":"มัสยิดบ้านดาโต๊ะ"}},{"type":"Feature","geometry":{"type":"Point","coordinates":[101.3052662,6.880946679]},"properties":{"name":"มัสยิดตันหยงลุโละ","Long":"101.305266","Lat":"6.880947","NameT":"มัสยิดตันหยงลุโละ"}},{"type":"Feature","geometry":{"type":"Point","coordinates":[101.3030949,6.855705542]},"properties":{"name":"มัสยิด","Long":"101.303095","Lat":"6.855706","NameT":"มัสยิด"}},{"type":"Feature","geometry":{"type":"Point","coordinates":[101.3044608,6.845308828]},"properties":{"name":"มัสยิด","Long":"101.304461","Lat":"6.845309","NameT":"มัสยิด"}},{"type":"Feature","geometry":{"type":"Point","coordinates":[101.3114684,6.847053662]},"properties":{"name":"มัสยิด","Long":"101.311468","Lat":"6.847054","NameT":"มัสยิด"}},{"type":"Feature","geometry":{"type":"Point","coordinates":[101.3148864,6.852539372]},"properties":{"name":"มัสยิด","Long":"101.314886","Lat":"6.852539","NameT":"มัสยิด"}},{"type":"Feature","geometry":{"type":"Point","coordinates":[101.3192139,6.876179387]},"properties":{"name":"มัสยิดบาราโหม","Long":"101.319214","Lat":"6.876179","NameT":"มัสยิดบาราโหม"}},{"type":"Feature","geometry":{"type":"Point","coordinates":[101.3279982,6.868135651]},"properties":{"name":"มัสยิด","Long":"101.327998","Lat":"6.868136","NameT":"มัสยิด"}},{"type":"Feature","geometry":{"type":"Point","coordinates":[101.333192,6.868045038]},"properties":{"name":"มัสยิด","Long":"101.333192","Lat":"6.868045","NameT":"มัสยิด"}},{"type":"Feature","geometry":{"type":"Point","coordinates":[101.3388623,6.853519104]},"properties":{"name":"มัสยิด","Long":"101.338862","Lat":"6.853519","NameT":"มัสยิด"}},{"type":"Feature","geometry":{"type":"Point","coordinates":[101.4123707,6.880880579]},"properties":{"name":"มัสยิดกือแด","Long":"101.412371","Lat":"6.880881","NameT":"มัสยิดกือแด"}},{"type":"Feature","geometry":{"type":"Point","coordinates":[101.4417783,6.869758279]},"properties":{"name":"ปอเนาะชองแมวิทยา","Long":"101.441778","Lat":"6.869758","NameT":"ปอเนาะชองแมวิทยา"}},{"type":"Feature","geometry":{"type":"Point","coordinates":[101.4205859,6.809643267]},"properties":{"name":"มัสยิด","Long":"101.420586","Lat":"6.809643","NameT":"มัสยิด"}},{"type":"Feature","geometry":{"type":"Point","coordinates":[101.4305239,6.765765904]},"properties":{"name":"มัสยิด","Long":"101.430524","Lat":"6.765766","NameT":"มัสยิด"}},{"type":"Feature","geometry":{"type":"Point","coordinates":[101.4416284,6.762449434]},"properties":{"name":"มัสยิด","Long":"101.441628","Lat":"6.762449","NameT":"มัสยิด"}},{"type":"Feature","geometry":{"type":"Point","coordinates":[101.4228241,6.762543455]},"properties":{"name":"มัสยิดนูรุลซาวาดะห์","Long":"101.422824","Lat":"6.762543","NameT":"มัสยิดนูรุลซาวาดะห์"}},{"type":"Feature","geometry":{"type":"Point","coordinates":[101.4562526,6.869762643]},"properties":{"name":"มัสยิดดารุลอิสลาม","Long":"101.456253","Lat":"6.869763","NameT":"มัสยิดดารุลอิสลาม"}},{"type":"Feature","geometry":{"type":"Point","coordinates":[101.4827899,6.781882178]},"properties":{"name":"มัสยิด","Long":"101.48279","Lat":"6.781882","NameT":"มัสยิด"}},{"type":"Feature","geometry":{"type":"Point","coordinates":[101.484001,6.758528804]},"properties":{"name":"มัสยิด","Long":"101.484001","Lat":"6.758529","NameT":"มัสยิด"}},{"type":"Feature","geometry":{"type":"Point","coordinates":[101.4899093,6.78302241]},"properties":{"name":"มัสยิด","Long":"101.489909","Lat":"6.783022","NameT":"มัสยิด"}},{"type":"Feature","geometry":{"type":"Point","coordinates":[101.4877632,6.854114699]},"properties":{"name":"มัสยิด","Long":"101.487763","Lat":"6.854115","NameT":"มัสยิด"}},{"type":"Feature","geometry":{"type":"Point","coordinates":[101.4942346,6.827017377]},"properties":{"name":"มัสยิด","Long":"101.494235","Lat":"6.827017","NameT":"มัสยิด"}},{"type":"Feature","geometry":{"type":"Point","coordinates":[101.239576,6.465141852]},"properties":{"name":"มัสยิดอัครอวียะห์","Long":"101.239576","Lat":"6.465142","NameT":"มัสยิดอัครอวียะห์"}},{"type":"Feature","geometry":{"type":"Point","coordinates":[101.2449351,6.47958686]},"properties":{"name":"มัสยิดดารุลมุนีน","Long":"101.244935","Lat":"6.479587","NameT":"มัสยิดดารุลมุนีน"}},{"type":"Feature","geometry":{"type":"Point","coordinates":[101.2412219,6.490184117]},"properties":{"name":"มัสยิด","Long":"101.241222","Lat":"6.490184","NameT":"มัสยิด"}},{"type":"Feature","geometry":{"type":"Point","coordinates":[101.2403731,6.488326006]},"properties":{"name":"มัสยิดยาแม๊ะ","Long":"101.240373","Lat":"6.488326","NameT":"มัสยิดยาแม๊ะ"}},{"type":"Feature","geometry":{"type":"Point","coordinates":[101.2280993,6.489766075]},"properties":{"name":"สุเหร่าบ้านโขนง","Long":"101.228099","Lat":"6.489766","NameT":"สุเหร่าบ้านโขนง"}},{"type":"Feature","geometry":{"type":"Point","coordinates":[101.2231266,6.496128661]},"properties":{"name":"มัสยิดดารุลอันมัน","Long":"101.223127","Lat":"6.496129","NameT":"มัสยิดดารุลอันมัน"}},{"type":"Feature","geometry":{"type":"Point","coordinates":[101.217551,6.495996595]},"properties":{"name":"สุเหร่าบ้านกูแบบาแย","Long":"101.217551","Lat":"6.495997","NameT":"สุเหร่าบ้านกูแบบาแย"}},{"type":"Feature","geometry":{"type":"Point","coordinates":[101.2080904,6.4882191]},"properties":{"name":"มัสยิดมัสลออาตูยานะห์","Long":"101.20809","Lat":"6.488219","NameT":"มัสยิดมัสลออาตูยานะห์"}},{"type":"Feature","geometry":{"type":"Point","coordinates":[101.2041677,6.493749161]},"properties":{"name":"มัสยิดอะมาดียะห์","Long":"101.204168","Lat":"6.493749","NameT":"มัสยิดอะมาดียะห์"}},{"type":"Feature","geometry":{"type":"Point","coordinates":[101.2025839,6.483320798]},"properties":{"name":"มัสยิดนูรุลฮูดา","Long":"101.202584","Lat":"6.483321","NameT":"มัสยิดนูรุลฮูดา"}},{"type":"Feature","geometry":{"type":"Point","coordinates":[101.2032794,6.467800983]},"properties":{"name":"สุเหร่าบ้านกือยา","Long":"101.203279","Lat":"6.467801","NameT":"สุเหร่าบ้านกือยา"}},{"type":"Feature","geometry":{"type":"Point","coordinates":[101.2003434,6.468929046]},"properties":{"name":"มัสยิดนูรุดีน","Long":"101.200343","Lat":"6.468929","NameT":"มัสยิดนูรุดีน"}},{"type":"Feature","geometry":{"type":"Point","coordinates":[101.1907048,6.462884375]},"properties":{"name":"มัสยิดดารุลอิสละห์","Long":"101.190705","Lat":"6.462884","NameT":"มัสยิดดารุลอิสละห์"}},{"type":"Feature","geometry":{"type":"Point","coordinates":[101.1317168,6.49463766]},"properties":{"name":"มัสยิดหาซานี","Long":"101.131717","Lat":"6.494638","NameT":"มัสยิดหาซานี"}},{"type":"Feature","geometry":{"type":"Point","coordinates":[101.177944,6.47777974]},"properties":{"name":"มัสยิดนูรุลอิสลามมียะห์","Long":"101.177944","Lat":"6.47778","NameT":"มัสยิดนูรุลอิสลามมียะห์"}},{"type":"Feature","geometry":{"type":"Point","coordinates":[101.1435129,6.484887907]},"properties":{"name":"สุเหร่าอายีเซ็ง","Long":"101.143513","Lat":"6.484888","NameT":"สุเหร่าอายีเซ็ง"}},{"type":"Feature","geometry":{"type":"Point","coordinates":[101.1542628,6.487949782]},"properties":{"name":"มัสยิดฮายาตูอัสล๊ะ","Long":"101.154263","Lat":"6.48795","NameT":"มัสยิดฮายาตูอัสล๊ะ"}},{"type":"Feature","geometry":{"type":"Point","coordinates":[101.1370776,6.46039245]},"properties":{"name":"มัสยิด","Long":"101.137078","Lat":"6.460392","NameT":"มัสยิด"}},{"type":"Feature","geometry":{"type":"Point","coordinates":[101.1309716,6.447352218]},"properties":{"name":"มัสยิดดาฮิบยาดุดดีนียะห์","Long":"101.130972","Lat":"6.447352","NameT":"มัสยิดดาฮิบยาดุดดีนียะห์"}},{"type":"Feature","geometry":{"type":"Point","coordinates":[101.1358257,6.446876951]},"properties":{"name":"สุเหร่าบ้านบาโร๊ะ","Long":"101.135826","Lat":"6.446877","NameT":"สุเหร่าบ้านบาโร๊ะ"}},{"type":"Feature","geometry":{"type":"Point","coordinates":[101.1147018,6.490353366]},"properties":{"name":"มัสยิดน๊ะตาตูลซุบเบียน","Long":"101.114702","Lat":"6.490353","NameT":"มัสยิดน๊ะตาตูลซุบเบียน"}},{"type":"Feature","geometry":{"type":"Point","coordinates":[101.1031409,6.486222053]},"properties":{"name":"มัสยิดอัลอิสลามียะตู","Long":"101.103141","Lat":"6.486222","NameT":"มัสยิดอัลอิสลามียะตู"}},{"type":"Feature","geometry":{"type":"Point","coordinates":[101.1099779,6.480263362]},"properties":{"name":"สุเหร่าสะกูวะ","Long":"101.109978","Lat":"6.480263","NameT":"สุเหร่าสะกูวะ"}},{"type":"Feature","geometry":{"type":"Point","coordinates":[101.0751629,6.487379179]},"properties":{"name":"มัสยิดตักกัว","Long":"101.075163","Lat":"6.487379","NameT":"มัสยิดตักกัว"}},{"type":"Feature","geometry":{"type":"Point","coordinates":[101.0664073,6.478410109]},"properties":{"name":"มัสยิดนุรูลอีหม่าน","Long":"101.066407","Lat":"6.47841","NameT":"มัสยิดนุรูลอีหม่าน"}},{"type":"Feature","geometry":{"type":"Point","coordinates":[101.0865577,6.468824323]},"properties":{"name":"มัสยิดบ้านกือมิ","Long":"101.086558","Lat":"6.468824","NameT":"มัสยิดบ้านกือมิ"}},{"type":"Feature","geometry":{"type":"Point","coordinates":[101.0852593,6.472375396]},"properties":{"name":"สุเหร่านุรูลธีดายะห์","Long":"101.085259","Lat":"6.472375","NameT":"สุเหร่านุรูลธีดายะห์"}},{"type":"Feature","geometry":{"type":"Point","coordinates":[101.0246659,6.45597957]},"properties":{"name":"มัสยิดนูรุลฮูดา","Long":"101.024666","Lat":"6.45598","NameT":"มัสยิดนูรุลฮูดา"}},{"type":"Feature","geometry":{"type":"Point","coordinates":[101.0243308,6.467107026]},"properties":{"name":"มัสยิดอันซอรุสซุนนะห์","Long":"101.024331","Lat":"6.467107","NameT":"มัสยิดอันซอรุสซุนนะห์"}},{"type":"Feature","geometry":{"type":"Point","coordinates":[101.0210609,6.480203413]},"properties":{"name":"มัสยิดนูลกามีละห์","Long":"101.021061","Lat":"6.480203","NameT":"มัสยิดนูลกามีละห์"}},{"type":"Feature","geometry":{"type":"Point","coordinates":[101.0024987,6.473581393]},"properties":{"name":"มัสยิดคอรียะห์","Long":"101.002499","Lat":"6.473581","NameT":"มัสยิดคอรียะห์"}},{"type":"Feature","geometry":{"type":"Point","coordinates":[101.2393882,6.440347415]},"properties":{"name":"มัสยิดมาลิเกียวมิสดีน","Long":"101.239388","Lat":"6.440347","NameT":"มัสยิดมาลิเกียวมิสดีน"}},{"type":"Feature","geometry":{"type":"Point","coordinates":[101.2684465,6.440906911]},"properties":{"name":"มัสยิด","Long":"101.268447","Lat":"6.440907","NameT":"มัสยิด"}},{"type":"Feature","geometry":{"type":"Point","coordinates":[101.2637099,6.453468415]},"properties":{"name":"มัสยิดอัลดะวาตุลอิสลามียะห์","Long":"101.26371","Lat":"6.453468","NameT":"มัสยิดอัลดะวาตุลอิสลามียะห์"}},{"type":"Feature","geometry":{"type":"Point","coordinates":[101.2606681,6.463844446]},"properties":{"name":"มัสยิดยาแมะกูแบปูรง","Long":"101.260668","Lat":"6.463844","NameT":"มัสยิดยาแมะกูแบปูรง"}},{"type":"Feature","geometry":{"type":"Point","coordinates":[101.2687179,6.468618685]},"properties":{"name":"มัสยิดตะโล๊ะซีโป","Long":"101.268718","Lat":"6.468619","NameT":"มัสยิดตะโล๊ะซีโป"}},{"type":"Feature","geometry":{"type":"Point","coordinates":[101.2653247,6.47561617]},"properties":{"name":"มัสยิดดารุสลาม","Long":"101.265325","Lat":"6.475616","NameT":"มัสยิดดารุสลาม"}},{"type":"Feature","geometry":{"type":"Point","coordinates":[101.2657923,6.484156948]},"properties":{"name":"มัสยิด","Long":"101.265792","Lat":"6.484157","NameT":"มัสยิด"}},{"type":"Feature","geometry":{"type":"Point","coordinates":[101.2643383,6.491380632]},"properties":{"name":"มัสยิดดารุลฮูดา","Long":"101.264338","Lat":"6.491381","NameT":"มัสยิดดารุลฮูดา"}},{"type":"Feature","geometry":{"type":"Point","coordinates":[101.2635995,6.496391251]},"properties":{"name":"มัสยิด","Long":"101.2636","Lat":"6.496391","NameT":"มัสยิด"}},{"type":"Feature","geometry":{"type":"Point","coordinates":[101.2771444,6.438065049]},"properties":{"name":"มัสยิดเตาเพ็กบาโงยือริ","Long":"101.277144","Lat":"6.438065","NameT":"มัสยิดเตาเพ็กบาโงยือริ"}},{"type":"Feature","geometry":{"type":"Point","coordinates":[101.2744732,6.439084354]},"properties":{"name":"มัสยิด","Long":"101.274473","Lat":"6.439084","NameT":"มัสยิด"}},{"type":"Feature","geometry":{"type":"Point","coordinates":[101.2768592,6.443007931]},"properties":{"name":"มัสยิดยามีอาตุลซานียะห์","Long":"101.276859","Lat":"6.443008","NameT":"มัสยิดยามีอาตุลซานียะห์"}},{"type":"Feature","geometry":{"type":"Point","coordinates":[101.2796785,6.448628525]},"properties":{"name":"มัสยิดยันนาตุลมะวา","Long":"101.279679","Lat":"6.448629","NameT":"มัสยิดยันนาตุลมะวา"}},{"type":"Feature","geometry":{"type":"Point","coordinates":[101.2702688,6.455433307]},"properties":{"name":"มัสยิดบังโฆลกูโบ","Long":"101.270269","Lat":"6.455433","NameT":"มัสยิดบังโฆลกูโบ"}},{"type":"Feature","geometry":{"type":"Point","coordinates":[101.2730705,6.458987479]},"properties":{"name":"มัสยิด","Long":"101.273071","Lat":"6.458987","NameT":"มัสยิด"}},{"type":"Feature","geometry":{"type":"Point","coordinates":[101.30511,6.492701584]},"properties":{"name":"มัสยิดบ้านจือนือแร","Long":"101.30511","Lat":"6.492702","NameT":"มัสยิดบ้านจือนือแร"}},{"type":"Feature","geometry":{"type":"Point","coordinates":[101.3110706,6.486146882]},"properties":{"name":"มัสยิดดารุลนาอิม","Long":"101.311071","Lat":"6.486147","NameT":"มัสยิดดารุลนาอิม"}},{"type":"Feature","geometry":{"type":"Point","coordinates":[101.3151933,6.481647795]},"properties":{"name":"มัสยิดอัธริฎวาน","Long":"101.315193","Lat":"6.481648","NameT":"มัสยิดอัธริฎวาน"}},{"type":"Feature","geometry":{"type":"Point","coordinates":[101.3160824,6.471361987]},"properties":{"name":"สุเหร่าบ้านไบ้นอก","Long":"101.316082","Lat":"6.471362","NameT":"สุเหร่าบ้านไบ้นอก"}},{"type":"Feature","geometry":{"type":"Point","coordinates":[101.3214928,6.465048527]},"properties":{"name":"มัสยิดผาแมะ","Long":"101.321493","Lat":"6.465049","NameT":"มัสยิดผาแมะ"}},{"type":"Feature","geometry":{"type":"Point","coordinates":[101.3263711,6.469362625]},"properties":{"name":"มัสยิดอิกซอม","Long":"101.326371","Lat":"6.469363","NameT":"มัสยิดอิกซอม"}},{"type":"Feature","geometry":{"type":"Point","coordinates":[101.32642,6.473626277]},"properties":{"name":"มัสยิดนูรุลฮูดา","Long":"101.32642","Lat":"6.473626","NameT":"มัสยิดนูรุลฮูดา"}},{"type":"Feature","geometry":{"type":"Point","coordinates":[101.3221088,6.477978856]},"properties":{"name":"มัสยิดญาบาลนูร","Long":"101.322109","Lat":"6.477979","NameT":"มัสยิดญาบาลนูร"}},{"type":"Feature","geometry":{"type":"Point","coordinates":[101.3107682,6.49313798]},"properties":{"name":"มัสยิดมิตาฮูลยันนะ","Long":"101.310768","Lat":"6.493138","NameT":"มัสยิดมิตาฮูลยันนะ"}},{"type":"Feature","geometry":{"type":"Point","coordinates":[101.3359549,6.457323056]},"properties":{"name":"มัสยิดบ้านเฆ๊าะ","Long":"101.335955","Lat":"6.457323","NameT":"มัสยิดบ้านเฆ๊าะ"}},{"type":"Feature","geometry":{"type":"Point","coordinates":[101.3336617,6.438024118]},"properties":{"name":"มัสยิด","Long":"101.333662","Lat":"6.438024","NameT":"มัสยิด"}},{"type":"Feature","geometry":{"type":"Point","coordinates":[101.4622243,6.475870625]},"properties":{"name":"มัสยิดบือแนกูยิ","Long":"101.462224","Lat":"6.475871","NameT":"มัสยิดบือแนกูยิ"}},{"type":"Feature","geometry":{"type":"Point","coordinates":[101.4715676,6.496971991]},"properties":{"name":"มัสยิดยาแมะบาโงกูโบ","Long":"101.471568","Lat":"6.496972","NameT":"มัสยิดยาแมะบาโงกูโบ"}},{"type":"Feature","geometry":{"type":"Point","coordinates":[101.4791109,6.49778468]},"properties":{"name":"มัสยิด","Long":"101.479111","Lat":"6.497785","NameT":"มัสยิด"}},{"type":"Feature","geometry":{"type":"Point","coordinates":[101.4478586,6.496673176]},"properties":{"name":"มัสยิด","Long":"101.447859","Lat":"6.496673","NameT":"มัสยิด"}},{"type":"Feature","geometry":{"type":"Point","coordinates":[101.4511194,6.488876774]},"properties":{"name":"มัสยิดบาโงย","Long":"101.451119","Lat":"6.488877","NameT":"มัสยิดบาโงย"}},{"type":"Feature","geometry":{"type":"Point","coordinates":[101.4398974,6.493992063]},"properties":{"name":"มัสยิดนูรุลอิสลามมียะห์","Long":"101.439897","Lat":"6.493992","NameT":"มัสยิดนูรุลอิสลามมียะห์"}},{"type":"Feature","geometry":{"type":"Point","coordinates":[101.4215135,6.495796819]},"properties":{"name":"มัสยิดสาตอ","Long":"101.421514","Lat":"6.495797","NameT":"มัสยิดสาตอ"}},{"type":"Feature","geometry":{"type":"Point","coordinates":[101.419746,6.491563971]},"properties":{"name":"มัสยิด","Long":"101.419746","Lat":"6.491564","NameT":"มัสยิด"}},{"type":"Feature","geometry":{"type":"Point","coordinates":[101.4263266,6.477292259]},"properties":{"name":"มัสยิด","Long":"101.426327","Lat":"6.477292","NameT":"มัสยิด"}},{"type":"Feature","geometry":{"type":"Point","coordinates":[101.3710272,6.487860311]},"properties":{"name":"มัสยิดบือดืองง","Long":"101.371027","Lat":"6.48786","NameT":"มัสยิดบือดืองง"}},{"type":"Feature","geometry":{"type":"Point","coordinates":[101.3636285,6.485410981]},"properties":{"name":"มัสยิดตาโงง","Long":"101.363629","Lat":"6.485411","NameT":"มัสยิดตาโงง"}},{"type":"Feature","geometry":{"type":"Point","coordinates":[101.3545736,6.486014191]},"properties":{"name":"มัสยิดดารุสลาม","Long":"101.354574","Lat":"6.486014","NameT":"มัสยิดดารุสลาม"}},{"type":"Feature","geometry":{"type":"Point","coordinates":[101.3576081,6.496232242]},"properties":{"name":"มัสยิดอาบูบาการ์อัสชิดดีก","Long":"101.357608","Lat":"6.496232","NameT":"มัสยิดอาบูบาการ์อัสชิดดีก"}},{"type":"Feature","geometry":{"type":"Point","coordinates":[101.3537005,6.496074685]},"properties":{"name":"มัสยิดบ้านเกี้ยะ","Long":"101.353701","Lat":"6.496075","NameT":"มัสยิดบ้านเกี้ยะ"}},{"type":"Feature","geometry":{"type":"Point","coordinates":[101.352471,6.480106271]},"properties":{"name":"มัสยิดบ้านบาโงย","Long":"101.352471","Lat":"6.480106","NameT":"มัสยิดบ้านบาโงย"}},{"type":"Feature","geometry":{"type":"Point","coordinates":[101.36425,6.473361768]},"properties":{"name":"มัสยิดเลสุ","Long":"101.36425","Lat":"6.473362","NameT":"มัสยิดเลสุ"}},{"type":"Feature","geometry":{"type":"Point","coordinates":[101.3745325,6.471078288]},"properties":{"name":"มัสยิด","Long":"101.374533","Lat":"6.471078","NameT":"มัสยิด"}},{"type":"Feature","geometry":{"type":"Point","coordinates":[101.381932,6.479610072]},"properties":{"name":"มัสยิดตุลยามีอุซฟีฮี","Long":"101.381932","Lat":"6.47961","NameT":"มัสยิดตุลยามีอุซฟีฮี"}},{"type":"Feature","geometry":{"type":"Point","coordinates":[101.3895403,6.489657266]},"properties":{"name":"มัสยิดบ้านจือแร","Long":"101.38954","Lat":"6.489657","NameT":"มัสยิดบ้านจือแร"}},{"type":"Feature","geometry":{"type":"Point","coordinates":[101.3927011,6.49236327]},"properties":{"name":"มัสยิดนูรีอิห์สาน","Long":"101.392701","Lat":"6.492363","NameT":"มัสยิดนูรีอิห์สาน"}},{"type":"Feature","geometry":{"type":"Point","coordinates":[101.4008047,6.495249408]},"properties":{"name":"มัสยิด","Long":"101.400805","Lat":"6.495249","NameT":"มัสยิด"}},{"type":"Feature","geometry":{"type":"Point","coordinates":[101.3990632,6.473448724]},"properties":{"name":"มัสยิดซีรอญีลฮดา","Long":"101.399063","Lat":"6.473449","NameT":"มัสยิดซีรอญีลฮดา"}},{"type":"Feature","geometry":{"type":"Point","coordinates":[101.4057502,6.479424732]},"properties":{"name":"มัสยิด","Long":"101.40575","Lat":"6.479425","NameT":"มัสยิด"}},{"type":"Feature","geometry":{"type":"Point","coordinates":[101.4077367,6.47507093]},"properties":{"name":"มัสยิดดารุลอามีน","Long":"101.407737","Lat":"6.475071","NameT":"มัสยิดดารุลอามีน"}},{"type":"Feature","geometry":{"type":"Point","coordinates":[101.4076119,6.487379475]},"properties":{"name":"มัสยิด","Long":"101.407612","Lat":"6.487379","NameT":"มัสยิด"}},{"type":"Feature","geometry":{"type":"Point","coordinates":[101.4114919,6.494728788]},"properties":{"name":"มัสยิด","Long":"101.411492","Lat":"6.494729","NameT":"มัสยิด"}},{"type":"Feature","geometry":{"type":"Point","coordinates":[101.4133891,6.481817046]},"properties":{"name":"มัสยิดดารุสลาม","Long":"101.413389","Lat":"6.481817","NameT":"มัสยิดดารุสลาม"}},{"type":"Feature","geometry":{"type":"Point","coordinates":[101.3667013,6.434154388]},"properties":{"name":"มัสยิดดิลคอยรียะห์","Long":"101.366701","Lat":"6.434154","NameT":"มัสยิดดิลคอยรียะห์"}},{"type":"Feature","geometry":{"type":"Point","coordinates":[101.3713408,6.437711097]},"properties":{"name":"มัสยิดบาโงตือมุ๊ห์","Long":"101.371341","Lat":"6.437711","NameT":"มัสยิดบาโงตือมุ๊ห์"}},{"type":"Feature","geometry":{"type":"Point","coordinates":[101.3594768,6.445379963]},"properties":{"name":"สุเหร่าบาโงตาแย","Long":"101.359477","Lat":"6.44538","NameT":"สุเหร่าบาโงตาแย"}},{"type":"Feature","geometry":{"type":"Point","coordinates":[101.35023,6.436524855]},"properties":{"name":"มัสยิด","Long":"101.35023","Lat":"6.436525","NameT":"มัสยิด"}},{"type":"Feature","geometry":{"type":"Point","coordinates":[101.3485327,6.44588164]},"properties":{"name":"มัสยิดอัลมูมาซัด","Long":"101.348533","Lat":"6.445882","NameT":"มัสยิดอัลมูมาซัด"}},{"type":"Feature","geometry":{"type":"Point","coordinates":[101.3878046,6.43726534]},"properties":{"name":"มัสยิด","Long":"101.387805","Lat":"6.437265","NameT":"มัสยิด"}},{"type":"Feature","geometry":{"type":"Point","coordinates":[101.3890311,6.436114385]},"properties":{"name":"มัสยิดดารุลนาอิม","Long":"101.389031","Lat":"6.436114","NameT":"มัสยิดดารุลนาอิม"}},{"type":"Feature","geometry":{"type":"Point","coordinates":[101.3659977,6.45063349]},"properties":{"name":"มัสยิดตัสบิห์","Long":"101.365998","Lat":"6.450633","NameT":"มัสยิดตัสบิห์"}},{"type":"Feature","geometry":{"type":"Point","coordinates":[101.370552,6.445739186]},"properties":{"name":"มัสยิด","Long":"101.370552","Lat":"6.445739","NameT":"มัสยิด"}},{"type":"Feature","geometry":{"type":"Point","coordinates":[101.3664664,6.460209142]},"properties":{"name":"มัสยิดบ้านกะลูปัง","Long":"101.366466","Lat":"6.460209","NameT":"มัสยิดบ้านกะลูปัง"}},{"type":"Feature","geometry":{"type":"Point","coordinates":[101.3648719,6.464572114]},"properties":{"name":"มัสยิด","Long":"101.364872","Lat":"6.464572","NameT":"มัสยิด"}},{"type":"Feature","geometry":{"type":"Point","coordinates":[101.3693889,6.46155563]},"properties":{"name":"สุเหร่าสามัคคี","Long":"101.369389","Lat":"6.461556","NameT":"สุเหร่าสามัคคี"}},{"type":"Feature","geometry":{"type":"Point","coordinates":[101.3717677,6.45647534]},"properties":{"name":"มัสยิด","Long":"101.371768","Lat":"6.456475","NameT":"มัสยิด"}},{"type":"Feature","geometry":{"type":"Point","coordinates":[101.3805788,6.464795346]},"properties":{"name":"มัสยิดบ้านบาลูกา","Long":"101.380579","Lat":"6.464795","NameT":"มัสยิดบ้านบาลูกา"}},{"type":"Feature","geometry":{"type":"Point","coordinates":[101.3896573,6.452480033]},"properties":{"name":"มัสยิด","Long":"101.389657","Lat":"6.45248","NameT":"มัสยิด"}},{"type":"Feature","geometry":{"type":"Point","coordinates":[101.3919678,6.461906702]},"properties":{"name":"มัสยิดดารุลมุตตากีน","Long":"101.391968","Lat":"6.461907","NameT":"มัสยิดดารุลมุตตากีน"}},{"type":"Feature","geometry":{"type":"Point","coordinates":[101.3932446,6.468502304]},"properties":{"name":"มัสยิดบ้านพงยือนือเร๊ะ","Long":"101.393245","Lat":"6.468502","NameT":"มัสยิดบ้านพงยือนือเร๊ะ"}},{"type":"Feature","geometry":{"type":"Point","coordinates":[101.3466028,6.45502316]},"properties":{"name":"มัสยิด","Long":"101.346603","Lat":"6.455023","NameT":"มัสยิด"}},{"type":"Feature","geometry":{"type":"Point","coordinates":[101.3462226,6.458889102]},"properties":{"name":"มัสยิดบ้านโกตาบารู","Long":"101.346223","Lat":"6.458889","NameT":"มัสยิดบ้านโกตาบารู"}},{"type":"Feature","geometry":{"type":"Point","coordinates":[101.3456753,6.452499843]},"properties":{"name":"มัสยิดปากีสถาน","Long":"101.345675","Lat":"6.4525","NameT":"มัสยิดปากีสถาน"}},{"type":"Feature","geometry":{"type":"Point","coordinates":[101.3415196,6.469366916]},"properties":{"name":"มัสยิดนูรดีนุลอิสลาม","Long":"101.34152","Lat":"6.469367","NameT":"มัสยิดนูรดีนุลอิสลาม"}},{"type":"Feature","geometry":{"type":"Point","coordinates":[101.3419643,6.467878905]},"properties":{"name":"มัสยิด","Long":"101.341964","Lat":"6.467879","NameT":"มัสยิด"}},{"type":"Feature","geometry":{"type":"Point","coordinates":[101.3415198,6.478611403]},"properties":{"name":"มัสยิดดารุลนาฮิม","Long":"101.34152","Lat":"6.478611","NameT":"มัสยิดดารุลนาฮิม"}},{"type":"Feature","geometry":{"type":"Point","coordinates":[101.3427637,6.483990254]},"properties":{"name":"มัสยิดนูรุลอิสลาธ","Long":"101.342764","Lat":"6.48399","NameT":"มัสยิดนูรุลอิสลาธ"}},{"type":"Feature","geometry":{"type":"Point","coordinates":[101.3301805,6.476399128]},"properties":{"name":"มัสยิด(ไม่มีชื่อ)","Long":"101.330181","Lat":"6.476399","NameT":"มัสยิด(ไม่มีชื่อ)"}},{"type":"Feature","geometry":{"type":"Point","coordinates":[101.2518234,6.492661151]},"properties":{"name":"มัสยิด","Long":"101.251823","Lat":"6.492661","NameT":"มัสยิด"}},{"type":"Feature","geometry":{"type":"Point","coordinates":[101.2789366,6.499052115]},"properties":{"name":"มัสยิด","Long":"101.278937","Lat":"6.499052","NameT":"มัสยิด"}},{"type":"Feature","geometry":{"type":"Point","coordinates":[101.2586471,6.479526272]},"properties":{"name":"มัสยิดบันนังบูโย","Long":"101.258647","Lat":"6.479526","NameT":"มัสยิดบันนังบูโย"}},{"type":"Feature","geometry":{"type":"Point","coordinates":[101.4595341,6.442708048]},"properties":{"name":"มัสยิดนูรุลซาฮาดะห์","Long":"101.459534","Lat":"6.442708","NameT":"มัสยิดนูรุลซาฮาดะห์"}},{"type":"Feature","geometry":{"type":"Point","coordinates":[101.4559533,6.444908351]},"properties":{"name":"มัสยิดดารุลฟุตกอ","Long":"101.455953","Lat":"6.444908","NameT":"มัสยิดดารุลฟุตกอ"}},{"type":"Feature","geometry":{"type":"Point","coordinates":[101.453881,6.448671621]},"properties":{"name":"มัสยิดบือแนนากอ","Long":"101.453881","Lat":"6.448672","NameT":"มัสยิดบือแนนากอ"}},{"type":"Feature","geometry":{"type":"Point","coordinates":[101.4510934,6.452081414]},"properties":{"name":"มัสยิด","Long":"101.451093","Lat":"6.452081","NameT":"มัสยิด"}},{"type":"Feature","geometry":{"type":"Point","coordinates":[101.4599961,6.458691632]},"properties":{"name":"มัสยิดตักวา","Long":"101.459996","Lat":"6.458692","NameT":"มัสยิดตักวา"}},{"type":"Feature","geometry":{"type":"Point","coordinates":[101.4619013,6.453261362]},"properties":{"name":"มัสยิด","Long":"101.461901","Lat":"6.453261","NameT":"มัสยิด"}},{"type":"Feature","geometry":{"type":"Point","coordinates":[101.4488478,6.451536771]},"properties":{"name":"มัสยิดดารุลมาอาดยานบาลอ","Long":"101.448848","Lat":"6.451537","NameT":"มัสยิดดารุลมาอาดยานบาลอ"}},{"type":"Feature","geometry":{"type":"Point","coordinates":[101.4460211,6.456247313]},"properties":{"name":"มัสยิดยันนาตุลฆูลดี","Long":"101.446021","Lat":"6.456247","NameT":"มัสยิดยันนาตุลฆูลดี"}},{"type":"Feature","geometry":{"type":"Point","coordinates":[101.4420731,6.460858607]},"properties":{"name":"มัสยิดดารุลฮูดาห์","Long":"101.442073","Lat":"6.460859","NameT":"มัสยิดดารุลฮูดาห์"}},{"type":"Feature","geometry":{"type":"Point","coordinates":[101.3433315,6.493195857]},"properties":{"name":"มัสยิดยาแมะอัลทาวาอิด","Long":"101.343332","Lat":"6.493196","NameT":"มัสยิดยาแมะอัลทาวาอิด"}},