{"type":"FeatureCollection","features":[{"type":"Feature","geometry":{"type":"Point","coordinates":[101.728233,17.45185002]},"properties":{"name":"อนุสรณ์สถานผู้เสียสละในพื้นที่พตท.1718","Long":"101.728233","Lat":"17.45185","NameT":"อนุสรณ์สถานผู้เสียสละในพื้นที่พตท.1718"}},{"type":"Feature","geometry":{"type":"Point","coordinates":[101.7659403,17.31983414]},"properties":{"name":"ศาลเจ้าพ่อหลักเมือง","Long":"101.76594","Lat":"17.319834","NameT":"ศาลเจ้าพ่อหลักเมือง"}},{"type":"Feature","geometry":{"type":"Point","coordinates":[101.7639875,17.31025984]},"properties":{"name":"ไม่มีข้อมูล","Long":"101.763988","Lat":"17.31026","NameT":"ไม่มีข้อมูล"}},{"type":"Feature","geometry":{"type":"Point","coordinates":[101.8985052,15.59799325]},"properties":{"name":"ศาลเจ้าพ่อหานคำ","Long":"101.898505","Lat":"15.597993","NameT":"ศาลเจ้าพ่อหานคำ"}},{"type":"Feature","geometry":{"type":"Point","coordinates":[101.7205726,14.88969837]},"properties":{"name":"ไม่มีข้อมูล","Long":"101.720573","Lat":"14.889698","NameT":"ไม่มีข้อมูล"}},{"type":"Feature","geometry":{"type":"Point","coordinates":[101.7194641,14.89198272]},"properties":{"name":"ไม่มีข้อมูล","Long":"101.719464","Lat":"14.891983","NameT":"ไม่มีข้อมูล"}},{"type":"Feature","geometry":{"type":"Point","coordinates":[101.8164709,14.90059617]},"properties":{"name":"ไม่มีข้อมูล","Long":"101.816471","Lat":"14.900596","NameT":"ไม่มีข้อมูล"}},{"type":"Feature","geometry":{"type":"Point","coordinates":[101.8833275,14.9062235]},"properties":{"name":"ไม่มีข้อมูล","Long":"101.883327","Lat":"14.906223","NameT":"ไม่มีข้อมูล"}},{"type":"Feature","geometry":{"type":"Point","coordinates":[101.8437833,14.36501298]},"properties":{"name":"ไม่มีข้อมูล","Long":"101.843783","Lat":"14.365013","NameT":"ไม่มีข้อมูล"}},{"type":"Feature","geometry":{"type":"Point","coordinates":[101.3566142,17.44832637]},"properties":{"name":"ไม่มีข้อมูล","Long":"101.356614","Lat":"17.448326","NameT":"ไม่มีข้อมูล"}},{"type":"Feature","geometry":{"type":"Point","coordinates":[101.2746245,17.26803131]},"properties":{"name":"ศาลพระยาพิชัยดาบหักจังหวัดเลย","Long":"101.274625","Lat":"17.268031","NameT":"ศาลพระยาพิชัยดาบหักจังหวัดเลย"}},{"type":"Feature","geometry":{"type":"Point","coordinates":[101.4277781,14.71972552]},"properties":{"name":"ไม่มีข้อมูล","Long":"101.427778","Lat":"14.719726","NameT":"ไม่มีข้อมูล"}},{"type":"Feature","geometry":{"type":"Point","coordinates":[101.3774736,14.50865462]},"properties":{"name":"ศาลเจ้าพ่อเขาใหญ่","Long":"101.377474","Lat":"14.508655","NameT":"ศาลเจ้าพ่อเขาใหญ่"}},{"type":"Feature","geometry":{"type":"Point","coordinates":[101.4277781,14.71972552]},"properties":{"name":"ไม่มีข้อมูล","Long":"101.427778","Lat":"14.719726","NameT":"ไม่มีข้อมูล"}},{"type":"Feature","geometry":{"type":"Point","coordinates":[105.0185009,15.61279433]},"properties":{"name":"ไม่มีข้อมูล","Long":"105.018501","Lat":"15.612794","NameT":"ไม่มีข้อมูล"}},{"type":"Feature","geometry":{"type":"Point","coordinates":[105.0185337,15.61373734]},"properties":{"name":"ไม่มีข้อมูล","Long":"105.018534","Lat":"15.613737","NameT":"ไม่มีข้อมูล"}},{"type":"Feature","geometry":{"type":"Point","coordinates":[105.2482234,14.5201888]},"properties":{"name":"ไม่มีข้อมูล","Long":"105.248223","Lat":"14.520189","NameT":"ไม่มีข้อมูล"}},{"type":"Feature","geometry":{"type":"Point","coordinates":[105.410114,14.7579251]},"properties":{"name":"ไม่มีข้อมูล","Long":"105.410114","Lat":"14.757925","NameT":"ไม่มีข้อมูล"}},{"type":"Feature","geometry":{"type":"Point","coordinates":[105.0004198,14.48720356]},"properties":{"name":"ไม่มีข้อมูล","Long":"105.00042","Lat":"14.487204","NameT":"ไม่มีข้อมูล"}},{"type":"Feature","geometry":{"type":"Point","coordinates":[104.6303993,15.85822154]},"properties":{"name":"ศาลเจ้าปู","Long":"104.630399","Lat":"15.858222","NameT":"ศาลเจ้าปู"}},{"type":"Feature","geometry":{"type":"Point","coordinates":[104.8578019,15.22791913]},"properties":{"name":"ไม่มีข้อมูล","Long":"104.857802","Lat":"15.227919","NameT":"ไม่มีข้อมูล"}},{"type":"Feature","geometry":{"type":"Point","coordinates":[104.8630908,15.19753054]},"properties":{"name":"ไม่มีข้อมูล","Long":"104.863091","Lat":"15.197531","NameT":"ไม่มีข้อมูล"}},{"type":"Feature","geometry":{"type":"Point","coordinates":[104.6221759,14.53401634]},"properties":{"name":"ศาลเจ้าปูทวด","Long":"104.622176","Lat":"14.534016","NameT":"ศาลเจ้าปูทวด"}},{"type":"Feature","geometry":{"type":"Point","coordinates":[104.141452,15.73513354]},"properties":{"name":"ศาลเจ้าปู","Long":"104.141452","Lat":"15.735134","NameT":"ศาลเจ้าปู"}},{"type":"Feature","geometry":{"type":"Point","coordinates":[104.060426,15.68659075]},"properties":{"name":"ไม่มีข้อมูล","Long":"104.060426","Lat":"15.686591","NameT":"ไม่มีข้อมูล"}},{"type":"Feature","geometry":{"type":"Point","coordinates":[104.1154377,15.70885965]},"properties":{"name":"ไม่มีข้อมูล","Long":"104.115438","Lat":"15.70886","NameT":"ไม่มีข้อมูล"}},{"type":"Feature","geometry":{"type":"Point","coordinates":[104.1122874,15.6786681]},"properties":{"name":"ไม่มีข้อมูล","Long":"104.112287","Lat":"15.678668","NameT":"ไม่มีข้อมูล"}},{"type":"Feature","geometry":{"type":"Point","coordinates":[104.2157144,15.72389817]},"properties":{"name":"ไม่มีข้อมูล","Long":"104.215714","Lat":"15.723898","NameT":"ไม่มีข้อมูล"}},{"type":"Feature","geometry":{"type":"Point","coordinates":[104.2433655,15.53161422]},"properties":{"name":"ไม่มีข้อมูล","Long":"104.243366","Lat":"15.531614","NameT":"ไม่มีข้อมูล"}},{"type":"Feature","geometry":{"type":"Point","coordinates":[104.3131596,15.53439737]},"properties":{"name":"ศาลหลักเมือง","Long":"104.31316","Lat":"15.534397","NameT":"ศาลหลักเมือง"}},{"type":"Feature","geometry":{"type":"Point","coordinates":[104.3235892,15.11938691]},"properties":{"name":"ไม่มีข้อมูล","Long":"104.323589","Lat":"15.119387","NameT":"ไม่มีข้อมูล"}},{"type":"Feature","geometry":{"type":"Point","coordinates":[104.4244721,14.61596222]},"properties":{"name":"ไม่มีข้อมูล","Long":"104.424472","Lat":"14.615962","NameT":"ไม่มีข้อมูล"}},{"type":"Feature","geometry":{"type":"Point","coordinates":[104.4783843,14.78354202]},"properties":{"name":"ศาลเจ้าพ่อศรีรัตนะ","Long":"104.478384","Lat":"14.783542","NameT":"ศาลเจ้าพ่อศรีรัตนะ"}},{"type":"Feature","geometry":{"type":"Point","coordinates":[103.7990534,15.59797119]},"properties":{"name":"ศาลหลักเมือง","Long":"103.799053","Lat":"15.597971","NameT":"ศาลหลักเมือง"}},{"type":"Feature","geometry":{"type":"Point","coordinates":[103.6677441,15.11201747]},"properties":{"name":"ศาลเจ้าหลวงปูพิบูลย์","Long":"103.667744","Lat":"15.112017","NameT":"ศาลเจ้าหลวงปูพิบูลย์"}},{"type":"Feature","geometry":{"type":"Point","coordinates":[103.787105,14.94202831]},"properties":{"name":"ศาลเจ้าพ่อศีขรภูมิ","Long":"103.787105","Lat":"14.942028","NameT":"ศาลเจ้าพ่อศีขรภูมิ"}},{"type":"Feature","geometry":{"type":"Point","coordinates":[103.3829902,15.50901481]},"properties":{"name":"ศาลเจ้าพ่อเมืองเตา","Long":"103.38299","Lat":"15.509015","NameT":"ศาลเจ้าพ่อเมืองเตา"}},{"type":"Feature","geometry":{"type":"Point","coordinates":[103.3797815,15.83876718]},"properties":{"name":"ศาลเจ้าปู่มเหศักดิ์","Long":"103.379782","Lat":"15.838767","NameT":"ศาลเจ้าปู่มเหศักดิ์"}},{"type":"Feature","geometry":{"type":"Point","coordinates":[103.4536894,15.21136657]},"properties":{"name":"ศาลเจ้าปู่","Long":"103.453689","Lat":"15.211367","NameT":"ศาลเจ้าปู่"}},{"type":"Feature","geometry":{"type":"Point","coordinates":[103.4516763,15.14647943]},"properties":{"name":"ศาลเจ้าพ่อเชียงสง","Long":"103.451676","Lat":"15.146479","NameT":"ศาลเจ้าพ่อเชียงสง"}},{"type":"Feature","geometry":{"type":"Point","coordinates":[103.2881143,15.29744632]},"properties":{"name":"ไม่มีข้อมูล","Long":"103.288114","Lat":"15.297446","NameT":"ไม่มีข้อมูล"}},{"type":"Feature","geometry":{"type":"Point","coordinates":[103.1264382,14.98419346]},"properties":{"name":"ศาลเจ้าฉงจีกง","Long":"103.126438","Lat":"14.984193","NameT":"ศาลเจ้าฉงจีกง"}},{"type":"Feature","geometry":{"type":"Point","coordinates":[103.1905087,14.97175026]},"properties":{"name":"ไม่มีข้อมูล","Long":"103.190509","Lat":"14.97175","NameT":"ไม่มีข้อมูล"}},{"type":"Feature","geometry":{"type":"Point","coordinates":[103.081659,14.60855728]},"properties":{"name":"ศาลเจ้าพ่อหลักเมือง","Long":"103.081659","Lat":"14.608557","NameT":"ศาลเจ้าพ่อหลักเมือง"}},{"type":"Feature","geometry":{"type":"Point","coordinates":[103.3084929,14.92544497]},"properties":{"name":"ศาลเจ้าพ่อหลักเมือง","Long":"103.308493","Lat":"14.925445","NameT":"ศาลเจ้าพ่อหลักเมือง"}},{"type":"Feature","geometry":{"type":"Point","coordinates":[103.4888588,14.88481446]},"properties":{"name":"ศาลเจ้าพ่อหลักเมือง","Long":"103.488859","Lat":"14.884814","NameT":"ศาลเจ้าพ่อหลักเมือง"}},{"type":"Feature","geometry":{"type":"Point","coordinates":[102.6458814,14.99844544]},"properties":{"name":"ศาลเจ้าพ่อห้วยแถลง","Long":"102.645881","Lat":"14.998445","NameT":"ศาลเจ้าพ่อห้วยแถลง"}},{"type":"Feature","geometry":{"type":"Point","coordinates":[102.5388499,14.68485986]},"properties":{"name":"ศาลเจ้าพ่อหนองกี่","Long":"102.53885","Lat":"14.68486","NameT":"ศาลเจ้าพ่อหนองกี่"}},{"type":"Feature","geometry":{"type":"Point","coordinates":[102.7961632,14.63307731]},"properties":{"name":"ศาลเจ้าพ่อหลักเมืองนางรอง","Long":"102.796163","Lat":"14.633077","NameT":"ศาลเจ้าพ่อหลักเมืองนางรอง"}},{"type":"Feature","geometry":{"type":"Point","coordinates":[102.1066533,14.97563823]},"properties":{"name":"ไม่มีข้อมูล","Long":"102.106653","Lat":"14.975638","NameT":"ไม่มีข้อมูล"}},{"type":"Feature","geometry":{"type":"Point","coordinates":[102.0261822,14.73032715]},"properties":{"name":"ศาลเจ้ามูลนิธิเทียนหงษ์","Long":"102.026182","Lat":"14.730327","NameT":"ศาลเจ้ามูลนิธิเทียนหงษ์"}},{"type":"Feature","geometry":{"type":"Point","coordinates":[102.1704367,14.49793317]},"properties":{"name":"ไม่มีข้อมูล","Long":"102.170437","Lat":"14.497933","NameT":"ไม่มีข้อมูล"}},{"type":"Feature","geometry":{"type":"Point","coordinates":[104.6082646,17.57257222]},"properties":{"name":"ศาลเจ้ามณีธรรม","Long":"104.608265","Lat":"17.572572","NameT":"ศาลเจ้ามณีธรรม"}},{"type":"Feature","geometry":{"type":"Point","coordinates":[104.7225042,17.41182694]},"properties":{"name":"ศาลเจ้าพ่อแท่งฮว่าง","Long":"104.722504","Lat":"17.411827","NameT":"ศาลเจ้าพ่อแท่งฮว่าง"}},{"type":"Feature","geometry":{"type":"Point","coordinates":[104.7264972,16.9336023]},"properties":{"name":"ศาลเจ้าพ่อด่ายเวือง","Long":"104.726497","Lat":"16.933602","NameT":"ศาลเจ้าพ่อด่ายเวือง"}},{"type":"Feature","geometry":{"type":"Point","coordinates":[104.726707,16.54389676]},"properties":{"name":"ศาลหลักเมือง","Long":"104.726707","Lat":"16.543897","NameT":"ศาลหลักเมือง"}},{"type":"Feature","geometry":{"type":"Point","coordinates":[104.9322118,16.32115517]},"properties":{"name":"ศาลเจ้าปู่หลักเมือวดอนตาล","Long":"104.932212","Lat":"16.321155","NameT":"ศาลเจ้าปู่หลักเมือวดอนตาล"}},{"type":"Feature","geometry":{"type":"Point","coordinates":[104.4635776,17.65353841]},"properties":{"name":"ศาลเจ้าพ่อหลักเมือง","Long":"104.463578","Lat":"17.653538","NameT":"ศาลเจ้าพ่อหลักเมือง"}},{"type":"Feature","geometry":{"type":"Point","coordinates":[104.131937,17.16037599]},"properties":{"name":"ศาลเจ้าพ่อเสือ","Long":"104.131937","Lat":"17.160376","NameT":"ศาลเจ้าพ่อเสือ"}},{"type":"Feature","geometry":{"type":"Point","coordinates":[104.3208326,17.32723645]},"properties":{"name":"ศาลเจ้าปู่มเหศักดิ์","Long":"104.320833","Lat":"17.327236","NameT":"ศาลเจ้าปู่มเหศักดิ์"}},{"type":"Feature","geometry":{"type":"Point","coordinates":[104.0216372,16.7602989]},"properties":{"name":"ศาลเจ้าปู่หลักเมือง","Long":"104.021637","Lat":"16.760299","NameT":"ศาลเจ้าปู่หลักเมือง"}},{"type":"Feature","geometry":{"type":"Point","coordinates":[104.1305142,16.76086533]},"properties":{"name":"ศาลเจ้าปู่ตาดทอง","Long":"104.130514","Lat":"16.760865","NameT":"ศาลเจ้าปู่ตาดทอง"}},{"type":"Feature","geometry":{"type":"Point","coordinates":[104.0021755,16.2866468]},"properties":{"name":"ศาลเจ้าปู่กุดเป่ง","Long":"104.002176","Lat":"16.286647","NameT":"ศาลเจ้าปู่กุดเป่ง"}},{"type":"Feature","geometry":{"type":"Point","coordinates":[103.7457994,17.61213911]},"properties":{"name":"ศาลเจ้าปู่โพธิ์นาเพียง","Long":"103.745799","Lat":"17.612139","NameT":"ศาลเจ้าปู่โพธิ์นาเพียง"}},{"type":"Feature","geometry":{"type":"Point","coordinates":[103.7525307,17.63959172]},"properties":{"name":"ศาลเจ้า","Long":"103.752531","Lat":"17.639592","NameT":"ศาลเจ้า"}},{"type":"Feature","geometry":{"type":"Point","coordinates":[103.6390027,17.29236836]},"properties":{"name":"ศาลเจ้าปู่มเหศักดิ์","Long":"103.639003","Lat":"17.292368","NameT":"ศาลเจ้าปู่มเหศักดิ์"}},{"type":"Feature","geometry":{"type":"Point","coordinates":[103.7909538,17.32556867]},"properties":{"name":"ศาลเจ้าปู่ตา","Long":"103.790954","Lat":"17.325569","NameT":"ศาลเจ้าปู่ตา"}},{"type":"Feature","geometry":{"type":"Point","coordinates":[103.9335631,17.3224227]},"properties":{"name":"ศาลเจ้าปู่ดอนหอ","Long":"103.933563","Lat":"17.322423","NameT":"ศาลเจ้าปู่ดอนหอ"}},{"type":"Feature","geometry":{"type":"Point","coordinates":[103.6758612,16.58030683]},"properties":{"name":"ศาลหลวงปู่มาดงขวาง","Long":"103.675861","Lat":"16.580307","NameT":"ศาลหลวงปู่มาดงขวาง"}},{"type":"Feature","geometry":{"type":"Point","coordinates":[103.7462881,16.69935396]},"properties":{"name":"ศาลเจ้าพ่อสมเด็จ","Long":"103.746288","Lat":"16.699354","NameT":"ศาลเจ้าพ่อสมเด็จ"}},{"type":"Feature","geometry":{"type":"Point","coordinates":[103.9748577,16.95934423]},"properties":{"name":"ศาลเจ้าเมืองน้ำพุง","Long":"103.974858","Lat":"16.959344","NameT":"ศาลเจ้าเมืองน้ำพุง"}},{"type":"Feature","geometry":{"type":"Point","coordinates":[103.5010789,16.43548277]},"properties":{"name":"ไม่มีข้อมูล","Long":"103.501079","Lat":"16.435483","NameT":"ไม่มีข้อมูล"}},{"type":"Feature","geometry":{"type":"Point","coordinates":[103.5188198,16.44253368]},"properties":{"name":"ไม่มีข้อมูล","Long":"103.51882","Lat":"16.442534","NameT":"ไม่มีข้อมูล"}},{"type":"Feature","geometry":{"type":"Point","coordinates":[103.6520564,16.06135322]},"properties":{"name":"ไม่มีข้อมูล","Long":"103.652056","Lat":"16.061353","NameT":"ไม่มีข้อมูล"}},{"type":"Feature","geometry":{"type":"Point","coordinates":[103.6526836,16.05739216]},"properties":{"name":"ไม่มีข้อมูล","Long":"103.652684","Lat":"16.057392","NameT":"ไม่มีข้อมูล"}},{"type":"Feature","geometry":{"type":"Point","coordinates":[103.8295904,16.12098826]},"properties":{"name":"ไม่มีข้อมูล","Long":"103.82959","Lat":"16.120988","NameT":"ไม่มีข้อมูล"}},{"type":"Feature","geometry":{"type":"Point","coordinates":[103.2597745,17.70009875]},"properties":{"name":"ศาลเจ้าพ่อศรีสุทโธ","Long":"103.259775","Lat":"17.700099","NameT":"ศาลเจ้าพ่อศรีสุทโธ"}},{"type":"Feature","geometry":{"type":"Point","coordinates":[103.3610666,17.74450352]},"properties":{"name":"ศาลเจ้าปู่ศิริสุทโธ","Long":"103.361067","Lat":"17.744504","NameT":"ศาลเจ้าปู่ศิริสุทโธ"}},{"type":"Feature","geometry":{"type":"Point","coordinates":[103.4551633,17.47216854]},"properties":{"name":"ศาลเจ้าปู่ย่า","Long":"103.455163","Lat":"17.472169","NameT":"ศาลเจ้าปู่ย่า"}},{"type":"Feature","geometry":{"type":"Point","coordinates":[103.3672471,17.29698547]},"properties":{"name":"ศาลเจ้าตาปู่","Long":"103.367247","Lat":"17.296985","NameT":"ศาลเจ้าตาปู่"}},{"type":"Feature","geometry":{"type":"Point","coordinates":[103.238711,16.93824989]},"properties":{"name":"ศาลหลักเมืองท่าคันโท","Long":"103.238711","Lat":"16.93825","NameT":"ศาลหลักเมืองท่าคันโท"}},{"type":"Feature","geometry":{"type":"Point","coordinates":[103.4434048,16.50384795]},"properties":{"name":"ไม่มีข้อมูล","Long":"103.443405","Lat":"16.503848","NameT":"ไม่มีข้อมูล"}},{"type":"Feature","geometry":{"type":"Point","coordinates":[103.3741388,16.40059518]},"properties":{"name":"ศาลเจ้ายางตลาด","Long":"103.374139","Lat":"16.400595","NameT":"ศาลเจ้ายางตลาด"}},{"type":"Feature","geometry":{"type":"Point","coordinates":[103.3579817,16.26764521]},"properties":{"name":"ศาลเจ้าปู่บ้านไผ่","Long":"103.357982","Lat":"16.267645","NameT":"ศาลเจ้าปู่บ้านไผ่"}},{"type":"Feature","geometry":{"type":"Point","coordinates":[102.9104288,17.70031888]},"properties":{"name":"ศาลพ่อปู่","Long":"102.910429","Lat":"17.700319","NameT":"ศาลพ่อปู่"}},{"type":"Feature","geometry":{"type":"Point","coordinates":[102.7817886,17.88680242]},"properties":{"name":"ศาลาแก้วคู่","Long":"102.781789","Lat":"17.886802","NameT":"ศาลาแก้วคู่"}},{"type":"Feature","geometry":{"type":"Point","coordinates":[102.9669703,17.13606714]},"properties":{"name":"ศาลเจ้าปู่-ย่าเมืองเก่า","Long":"102.96697","Lat":"17.136067","NameT":"ศาลเจ้าปู่-ย่าเมืองเก่า"}},{"type":"Feature","geometry":{"type":"Point","coordinates":[102.7571152,17.42952825]},"properties":{"name":"ไม่มีข้อมูล","Long":"102.757115","Lat":"17.429528","NameT":"ไม่มีข้อมูล"}},{"type":"Feature","geometry":{"type":"Point","coordinates":[102.8062543,17.40028761]},"properties":{"name":"ศาลเจ้าปู่-ย่า","Long":"102.806254","Lat":"17.400288","NameT":"ศาลเจ้าปู่-ย่า"}},{"type":"Feature","geometry":{"type":"Point","coordinates":[102.7871591,17.39792512]},"properties":{"name":"ไม่มีข้อมูล","Long":"102.787159","Lat":"17.397925","NameT":"ไม่มีข้อมูล"}},{"type":"Feature","geometry":{"type":"Point","coordinates":[102.5716846,16.86669172]},"properties":{"name":"ไม่มีข้อมูล","Long":"102.571685","Lat":"16.866692","NameT":"ไม่มีข้อมูล"}},{"type":"Feature","geometry":{"type":"Point","coordinates":[102.6334457,16.75897748]},"properties":{"name":"ศาลหลักเมือง","Long":"102.633446","Lat":"16.758977","NameT":"ศาลหลักเมือง"}},{"type":"Feature","geometry":{"type":"Point","coordinates":[102.8500671,16.69179458]},"properties":{"name":"ไม่มีข้อมูล","Long":"102.850067","Lat":"16.691795","NameT":"ไม่มีข้อมูล"}},{"type":"Feature","geometry":{"type":"Point","coordinates":[102.7656995,16.19950024]},"properties":{"name":"ไม่มีข้อมูล","Long":"102.7657","Lat":"16.1995","NameT":"ไม่มีข้อมูล"}},{"type":"Feature","geometry":{"type":"Point","coordinates":[102.7529094,16.42593214]},"properties":{"name":"ศาลเจ้าปู่บึงกี","Long":"102.752909","Lat":"16.425932","NameT":"ศาลเจ้าปู่บึงกี"}},{"type":"Feature","geometry":{"type":"Point","coordinates":[102.8380198,16.42943372]},"properties":{"name":"ไม่มีข้อมูล","Long":"102.83802","Lat":"16.429434","NameT":"ไม่มีข้อมูล"}},{"type":"Feature","geometry":{"type":"Point","coordinates":[102.8411547,16.42633067]},"properties":{"name":"ไม่มีข้อมูล","Long":"102.841155","Lat":"16.426331","NameT":"ไม่มีข้อมูล"}},{"type":"Feature","geometry":{"type":"Point","coordinates":[102.8405611,16.4200727]},"properties":{"name":"ศาลเจ้าปู่ครูเย็น","Long":"102.840561","Lat":"16.420073","NameT":"ศาลเจ้าปู่ครูเย็น"}},{"type":"Feature","geometry":{"type":"Point","coordinates":[102.8345241,16.41579541]},"properties":{"name":"ไม่มีข้อมูล","Long":"102.834524","Lat":"16.415795","NameT":"ไม่มีข้อมูล"}},{"type":"Feature","geometry":{"type":"Point","coordinates":[102.8011765,16.34016623]},"properties":{"name":"ไม่มีข้อมูล","Long":"102.801177","Lat":"16.340166","NameT":"ไม่มีข้อมูล"}},{"type":"Feature","geometry":{"type":"Point","coordinates":[102.1882961,17.30528922]},"properties":{"name":"ศาลหลักเมืองอำเภอนากลาง","Long":"102.188296","Lat":"17.305289","NameT":"ศาลหลักเมืองอำเภอนากลาง"}},{"type":"Feature","geometry":{"type":"Point","coordinates":[102.4616648,17.2282746]},"properties":{"name":"ศาลเจ้าพ่อปู่หลุบ","Long":"102.461665","Lat":"17.228275","NameT":"ศาลเจ้าพ่อปู่หลุบ"}},{"type":"Feature","geometry":{"type":"Point","coordinates":[102.3519636,16.67998403]},"properties":{"name":"ไม่มีข้อมูล","Long":"102.351964","Lat":"16.679984","NameT":"ไม่มีข้อมูล"}},{"type":"Feature","geometry":{"type":"Point","coordinates":[102.3744137,16.65339001]},"properties":{"name":"ไม่มีข้อมูล","Long":"102.374414","Lat":"16.65339","NameT":"ไม่มีข้อมูล"}},{"type":"Feature","geometry":{"type":"Point","coordinates":[102.1392565,16.36759123]},"properties":{"name":"ไม่มีข้อมูล","Long":"102.139257","Lat":"16.367591","NameT":"ไม่มีข้อมูล"}},{"type":"Feature","geometry":{"type":"Point","coordinates":[102.137878,16.36478958]},"properties":{"name":"ไม่มีข้อมูล","Long":"102.137878","Lat":"16.36479","NameT":"ไม่มีข้อมูล"}},{"type":"Feature","geometry":{"type":"Point","coordinates":[102.2779823,16.07421057]},"properties":{"name":"ศาลเจ้าพ่ออาจารย์ด้วง","Long":"102.277982","Lat":"16.074211","NameT":"ศาลเจ้าพ่ออาจารย์ด้วง"}},{"type":"Feature","geometry":{"type":"Point","coordinates":[102.4142957,16.06141784]},"properties":{"name":"ศาลพระเจ้าใหญ่","Long":"102.414296","Lat":"16.061418","NameT":"ศาลพระเจ้าใหญ่"}},{"type":"Feature","geometry":{"type":"Point","coordinates":[101.3020751,6.8733783]},"properties":{"name":"ไม่มีข้อมูล","Long":"101.302075","Lat":"6.873378","NameT":"ไม่มีข้อมูล"}},{"type":"Feature","geometry":{"type":"Point","coordinates":[100.5945311,7.190984656]},"properties":{"name":"ไม่มีข้อมูล","Long":"100.594531","Lat":"7.190985","NameT":"ไม่มีข้อมูล"}},{"type":"Feature","geometry":{"type":"Point","coordinates":[100.639852,6.739597492]},"properties":{"name":"ศาลเจ้าพระโพธิ์สัตว์กวนอิม","Long":"100.639852","Lat":"6.739597","NameT":"ศาลเจ้าพระโพธิ์สัตว์กวนอิม"}},{"type":"Feature","geometry":{"type":"Point","coordinates":[100.091024,7.623456747]},"properties":{"name":"ศาลเจ้าแม่ฤดี","Long":"100.091024","Lat":"7.623457","NameT":"ศาลเจ้าแม่ฤดี"}},{"type":"Feature","geometry":{"type":"Point","coordinates":[100.0653846,6.611916569]},"properties":{"name":"ไม่มีข้อมูล","Long":"100.065385","Lat":"6.611917","NameT":"ไม่มีข้อมูล"}},{"type":"Feature","geometry":{"type":"Point","coordinates":[100.3211894,6.666859631]},"properties":{"name":"ไม่มีข้อมูล","Long":"100.321189","Lat":"6.66686","NameT":"ไม่มีข้อมูล"}},{"type":"Feature","geometry":{"type":"Point","coordinates":[100.4906579,6.982485144]},"properties":{"name":"ไม่มีข้อมูล","Long":"100.490658","Lat":"6.982485","NameT":"ไม่มีข้อมูล"}},{"type":"Feature","geometry":{"type":"Point","coordinates":[100.4775838,6.968068709]},"properties":{"name":"ไม่มีข้อมูล","Long":"100.477584","Lat":"6.968069","NameT":"ไม่มีข้อมูล"}},{"type":"Feature","geometry":{"type":"Point","coordinates":[100.4797578,6.965569222]},"properties":{"name":"ไม่มีข้อมูล","Long":"100.479758","Lat":"6.965569","NameT":"ไม่มีข้อมูล"}},{"type":"Feature","geometry":{"type":"Point","coordinates":[100.4520628,6.797204533]},"properties":{"name":"ไม่มีข้อมูล","Long":"100.452063","Lat":"6.797205","NameT":"ไม่มีข้อมูล"}},{"type":"Feature","geometry":{"type":"Point","coordinates":[100.4522337,6.799540113]},"properties":{"name":"ไม่มีข้อมูล","Long":"100.452234","Lat":"6.79954","NameT":"ไม่มีข้อมูล"}},{"type":"Feature","geometry":{"type":"Point","coordinates":[100.4535969,6.782116821]},"properties":{"name":"ไม่มีข้อมูล","Long":"100.453597","Lat":"6.782117","NameT":"ไม่มีข้อมูล"}},{"type":"Feature","geometry":{"type":"Point","coordinates":[100.3939969,6.95398117]},"properties":{"name":"ไม่มีข้อมูล","Long":"100.393997","Lat":"6.953981","NameT":"ไม่มีข้อมูล"}},{"type":"Feature","geometry":{"type":"Point","coordinates":[100.4938001,6.990503881]},"properties":{"name":"ไม่มีข้อมูล","Long":"100.4938","Lat":"6.990504","NameT":"ไม่มีข้อมูล"}},{"type":"Feature","geometry":{"type":"Point","coordinates":[100.3937201,6.988293707]},"properties":{"name":"ไม่มีข้อมูล","Long":"100.39372","Lat":"6.988294","NameT":"ไม่มีข้อมูล"}},{"type":"Feature","geometry":{"type":"Point","coordinates":[100.4709266,6.874390619]},"properties":{"name":"ไม่มีข้อมูล","Long":"100.470927","Lat":"6.874391","NameT":"ไม่มีข้อมูล"}},{"type":"Feature","geometry":{"type":"Point","coordinates":[99.2817479,10.38900903]},"properties":{"name":"ศาลปู่โสม","Long":"99.281748","Lat":"10.389009","NameT":"ศาลปู่โสม"}},{"type":"Feature","geometry":{"type":"Point","coordinates":[100.0061927,9.767769211]},"properties":{"name":"ศาลเจ้าแม่กวนอิม","Long":"100.006193","Lat":"9.767769","NameT":"ศาลเจ้าแม่กวนอิม"}},{"type":"Feature","geometry":{"type":"Point","coordinates":[99.9375121,9.533962618]},"properties":{"name":"ศาลเจ้าไหหลำ","Long":"99.937512","Lat":"9.533963","NameT":"ศาลเจ้าไหหลำ"}},{"type":"Feature","geometry":{"type":"Point","coordinates":[99.70334625,9.329818185]},"properties":{"name":"ศาลเจ้าไหหล้า","Long":"99.703346","Lat":"9.329818","NameT":"ศาลเจ้าไหหล้า"}},{"type":"Feature","geometry":{"type":"Point","coordinates":[99.74400968,9.328300092]},"properties":{"name":"ศาลกรมหลวงชุมชนพรเขตอุดมศักดิ์","Long":"99.74401","Lat":"9.3283","NameT":"ศาลกรมหลวงชุมชนพรเขตอุดมศักดิ์"}},{"type":"Feature","geometry":{"type":"Point","coordinates":[100.0245614,9.444904254]},"properties":{"name":"ศาลเจ้าหน้าค่าย","Long":"100.024561","Lat":"9.444904","NameT":"ศาลเจ้าหน้าค่าย"}},{"type":"Feature","geometry":{"type":"Point","coordinates":[99.50638977,8.42516897]},"properties":{"name":"ไม่มีข้อมูล","Long":"99.50639","Lat":"8.425169","NameT":"ไม่มีข้อมูล"}},{"type":"Feature","geometry":{"type":"Point","coordinates":[99.54292234,8.385102164]},"properties":{"name":"ศาลเจ้าฮุกกวนตัง","Long":"99.542922","Lat":"8.385102","NameT":"ศาลเจ้าฮุกกวนตัง"}},{"type":"Feature","geometry":{"type":"Point","coordinates":[99.71119417,8.346414917]},"properties":{"name":"ศาลพ่อท่านคล้าย","Long":"99.711194","Lat":"8.346415","NameT":"ศาลพ่อท่านคล้าย"}},{"type":"Feature","geometry":{"type":"Point","coordinates":[99.59428527,8.267249389]},"properties":{"name":"ศาลเจาสามพี่น้อง","Long":"99.594285","Lat":"8.267249","NameT":"ศาลเจาสามพี่น้อง"}},{"type":"Feature","geometry":{"type":"Point","coordinates":[99.59550329,8.267242033]},"properties":{"name":"ศาลเจ้าฮกฮัวเก็ง","Long":"99.595503","Lat":"8.267242","NameT":"ศาลเจ้าฮกฮัวเก็ง"}},{"type":"Feature","geometry":{"type":"Point","coordinates":[99.96255665,8.430640747]},"properties":{"name":"ไม่มีข้อมูล","Long":"99.962557","Lat":"8.430641","NameT":"ไม่มีข้อมูล"}},{"type":"Feature","geometry":{"type":"Point","coordinates":[99.96566958,8.415248091]},"properties":{"name":"ไม่มีข้อมูล","Long":"99.96567","Lat":"8.415248","NameT":"ไม่มีข้อมูล"}},{"type":"Feature","geometry":{"type":"Point","coordinates":[99.63357522,7.781765786]},"properties":{"name":"ศาลเจ้าเต้าบ้อเกงห้วยยอด","Long":"99.633575","Lat":"7.781766","NameT":"ศาลเจ้าเต้าบ้อเกงห้วยยอด"}},{"type":"Feature","geometry":{"type":"Point","coordinates":[99.57719683,7.687595753]},"properties":{"name":"ศาลเจ้าแม่ควนอิมเนียะ","Long":"99.577197","Lat":"7.687596","NameT":"ศาลเจ้าแม่ควนอิมเนียะ"}},{"type":"Feature","geometry":{"type":"Point","coordinates":[99.5794209,7.683266953]},"properties":{"name":"ศาลเจ้าพ่อแก","Long":"99.579421","Lat":"7.683267","NameT":"ศาลเจ้าพ่อแก"}},{"type":"Feature","geometry":{"type":"Point","coordinates":[99.57891564,7.67974993]},"properties":{"name":"ศาลเจ้าพระ 109","Long":"99.578916","Lat":"7.67975","NameT":"ศาลเจ้าพระ 109"}},{"type":"Feature","geometry":{"type":"Point","coordinates":[99.60260127,7.589392449]},"properties":{"name":"ศาลเจ้า","Long":"99.602601","Lat":"7.589392","NameT":"ศาลเจ้า"}},{"type":"Feature","geometry":{"type":"Point","coordinates":[99.60297826,7.577134398]},"properties":{"name":"ศาลเจ้ากวนอู","Long":"99.602978","Lat":"7.577134","NameT":"ศาลเจ้ากวนอู"}},{"type":"Feature","geometry":{"type":"Point","coordinates":[99.61557193,7.566183791]},"properties":{"name":"ศาลเจ้าห้ามกงเยี้ย","Long":"99.615572","Lat":"7.566184","NameT":"ศาลเจ้าห้ามกงเยี้ย"}},{"type":"Feature","geometry":{"type":"Point","coordinates":[99.59920014,7.559760781]},"properties":{"name":"ไม่มีข้อมูล","Long":"99.5992","Lat":"7.559761","NameT":"ไม่มีข้อมูล"}},{"type":"Feature","geometry":{"type":"Point","coordinates":[99.55713655,7.523746775]},"properties":{"name":"ศาลหลักเมืองตรัง","Long":"99.557137","Lat":"7.523747","NameT":"ศาลหลักเมืองตรัง"}},{"type":"Feature","geometry":{"type":"Point","coordinates":[99.80295783,7.581721495]},"properties":{"name":"ศาลเทพารักษ์","Long":"99.802958","Lat":"7.581721","NameT":"ศาลเทพารักษ์"}},{"type":"Feature","geometry":{"type":"Point","coordinates":[99.51430299,7.4093168]},"properties":{"name":"ไม่มีข้อมูล","Long":"99.514303","Lat":"7.409317","NameT":"ไม่มีข้อมูล"}},{"type":"Feature","geometry":{"type":"Point","coordinates":[99.66773844,7.376875739]},"properties":{"name":"ศาลเจ้าพระพิฆเนศร์","Long":"99.667738","Lat":"7.376876","NameT":"ศาลเจ้าพระพิฆเนศร์"}},{"type":"Feature","geometry":{"type":"Point","coordinates":[99.67506771,7.375580555]},"properties":{"name":"ศาลเจ้าพระร้อยเก้า","Long":"99.675068","Lat":"7.375581","NameT":"ศาลเจ้าพระร้อยเก้า"}},{"type":"Feature","geometry":{"type":"Point","coordinates":[99.78672145,6.884083462]},"properties":{"name":"ไม่มีข้อมูล","Long":"99.786721","Lat":"6.884083","NameT":"ไม่มีข้อมูล"}},{"type":"Feature","geometry":{"type":"Point","coordinates":[99.23090025,10.84966395]},"properties":{"name":"ศาลพ่อตาหินช้าง","Long":"99.2309","Lat":"10.849664","NameT":"ศาลพ่อตาหินช้าง"}},{"type":"Feature","geometry":{"type":"Point","coordinates":[99.1158801,10.57189479]},"properties":{"name":"ศาลเสด็จในกรมหลวงชุมพร","Long":"99.11588","Lat":"10.571895","NameT":"ศาลเสด็จในกรมหลวงชุมพร"}},{"type":"Feature","geometry":{"type":"Point","coordinates":[99.27964141,10.58548099]},"properties":{"name":"ศาลเจ้าพ่อกวนอู","Long":"99.279641","Lat":"10.585481","NameT":"ศาลเจ้าพ่อกวนอู"}},{"type":"Feature","geometry":{"type":"Point","coordinates":[99.33346041,10.8974568]},"properties":{"name":"ศาลเจ้าแม่กวนอิม","Long":"99.33346","Lat":"10.897457","NameT":"ศาลเจ้าแม่กวนอิม"}},{"type":"Feature","geometry":{"type":"Point","coordinates":[99.34737762,10.86903283]},"properties":{"name":"ศาลเจ้าไก่ฮั้ว","Long":"99.347378","Lat":"10.869033","NameT":"ศาลเจ้าไก่ฮั้ว"}},{"type":"Feature","geometry":{"type":"Point","coordinates":[99.33707713,10.86717867]},"properties":{"name":"ศาลกรมหลวงชุมพรเขตรอุดมศักดิ์","Long":"99.337077","Lat":"10.867179","NameT":"ศาลกรมหลวงชุมพรเขตรอุดมศักดิ์"}},{"type":"Feature","geometry":{"type":"Point","coordinates":[99.0747816,9.953852501]},"properties":{"name":"ศาลเจ้า","Long":"99.074782","Lat":"9.953853","NameT":"ศาลเจ้า"}},{"type":"Feature","geometry":{"type":"Point","coordinates":[99.08815294,9.948172704]},"properties":{"name":"ศาลเจ้ายีโร","Long":"99.088153","Lat":"9.948173","NameT":"ศาลเจ้ายีโร"}},{"type":"Feature","geometry":{"type":"Point","coordinates":[99.0938731,9.948011366]},"properties":{"name":"ไม่มีข้อมูล","Long":"99.093873","Lat":"9.948011","NameT":"ไม่มีข้อมูล"}},{"type":"Feature","geometry":{"type":"Point","coordinates":[99.07875181,9.945999255]},"properties":{"name":"ศาลสมเด็จกรมหลวงชุมพรเขตอุดมศักดิ์","Long":"99.078752","Lat":"9.945999","NameT":"ศาลสมเด็จกรมหลวงชุมพรเขตอุดมศักดิ์"}},{"type":"Feature","geometry":{"type":"Point","coordinates":[99.32171599,9.139162119]},"properties":{"name":"ศาลหลักเมือง","Long":"99.321716","Lat":"9.139162","NameT":"ศาลหลักเมือง"}},{"type":"Feature","geometry":{"type":"Point","coordinates":[99.03344706,7.949872934]},"properties":{"name":"ศาลเจ้าสามเชียน","Long":"99.033447","Lat":"7.949873","NameT":"ศาลเจ้าสามเชียน"}},{"type":"Feature","geometry":{"type":"Point","coordinates":[99.48318951,7.78315225]},"properties":{"name":"ศาลเจ้าเจาก๋งเยี้ย","Long":"99.48319","Lat":"7.783152","NameT":"ศาลเจ้าเจาก๋งเยี้ย"}},{"type":"Feature","geometry":{"type":"Point","coordinates":[99.4942344,7.756741318]},"properties":{"name":"ศาลเจ้าโปเช้งไท้เท้","Long":"99.494234","Lat":"7.756741","NameT":"ศาลเจ้าโปเช้งไท้เท้"}},{"type":"Feature","geometry":{"type":"Point","coordinates":[98.64066375,9.962371421]},"properties":{"name":"ศาลหลักเมือง","Long":"98.640664","Lat":"9.962371","NameT":"ศาลหลักเมือง"}},{"type":"Feature","geometry":{"type":"Point","coordinates":[98.90748453,9.91054214]},"properties":{"name":"ศาลเจ้านแม่จุ้ยโบ๊ยเนี้ยว","Long":"98.907485","Lat":"9.910542","NameT":"ศาลเจ้านแม่จุ้ยโบ๊ยเนี้ยว"}},{"type":"Feature","geometry":{"type":"Point","coordinates":[98.50071399,8.492090408]},"properties":{"name":"ศาลเจ้าปูจง","Long":"98.500714","Lat":"8.49209","NameT":"ศาลเจ้าปูจง"}},{"type":"Feature","geometry":{"type":"Point","coordinates":[98.52905704,8.470562795]},"properties":{"name":"ศาลหลักเมืองจังหวัดพังงา","Long":"98.529057","Lat":"8.470563","NameT":"ศาลหลักเมืองจังหวัดพังงา"}},{"type":"Feature","geometry":{"type":"Point","coordinates":[98.53218556,8.466307319]},"properties":{"name":"ศาลเจ้าแม่ฉ้อโป","Long":"98.532186","Lat":"8.466307","NameT":"ศาลเจ้าแม่ฉ้อโป"}},{"type":"Feature","geometry":{"type":"Point","coordinates":[98.65236874,8.278332703]},"properties":{"name":"ไม่มีข้อมูล","Long":"98.652369","Lat":"8.278333","NameT":"ไม่มีข้อมูล"}},{"type":"Feature","geometry":{"type":"Point","coordinates":[98.96150871,8.129828134]},"properties":{"name":"ศาลเจ้าก๋ายีเซียน","Long":"98.961509","Lat":"8.129828","NameT":"ศาลเจ้าก๋ายีเซียน"}},{"type":"Feature","geometry":{"type":"Point","coordinates":[98.96215799,8.114966758]},"properties":{"name":"ศาลเจ้าเฉ่งจุ้ยจ้อสู้","Long":"98.962158","Lat":"8.114967","NameT":"ศาลเจ้าเฉ่งจุ้ยจ้อสู้"}},{"type":"Feature","geometry":{"type":"Point","coordinates":[98.85597723,8.079531269]},"properties":{"name":"ศาลเจ้าซำเพียจ้อซือ","Long":"98.855977","Lat":"8.079531","NameT":"ศาลเจ้าซำเพียจ้อซือ"}},{"type":"Feature","geometry":{"type":"Point","coordinates":[98.25657378,9.131557632]},"properties":{"name":"ศาลเจ้าพ่อหินกอง","Long":"98.256574","Lat":"9.131558","NameT":"ศาลเจ้าพ่อหินกอง"}},{"type":"Feature","geometry":{"type":"Point","coordinates":[98.24036106,8.626261395]},"properties":{"name":"ศาลเจ้าพ่อเขาหลัก","Long":"98.240361","Lat":"8.626261","NameT":"ศาลเจ้าพ่อเขาหลัก"}},{"type":"Feature","geometry":{"type":"Point","coordinates":[98.36494726,8.821248827]},"properties":{"name":"ศาลเจ้าแม่กวนอิม","Long":"98.364947","Lat":"8.821249","NameT":"ศาลเจ้าแม่กวนอิม"}},{"type":"Feature","geometry":{"type":"Point","coordinates":[98.31356868,8.007761657]},"properties":{"name":"ศาลเจ้าเต้ก่นไต่เต","Long":"98.313569","Lat":"8.007762","NameT":"ศาลเจ้าเต้ก่นไต่เต"}},{"type":"Feature","geometry":{"type":"Point","coordinates":[98.25971297,8.392240069]},"properties":{"name":"ศาลเจ้าเล่งสั้นเก้ง","Long":"98.259713","Lat":"8.39224","NameT":"ศาลเจ้าเล่งสั้นเก้ง"}},{"type":"Feature","geometry":{"type":"Point","coordinates":[98.45261845,8.388210977]},"properties":{"name":"ศาลเจ้าต่าวไบ่เก้ง","Long":"98.452618","Lat":"8.388211","NameT":"ศาลเจ้าต่าวไบ่เก้ง"}},{"type":"Feature","geometry":{"type":"Point","coordinates":[98.37955076,7.953357153]},"properties":{"name":"ศาลเจ้าบางคู","Long":"98.379551","Lat":"7.953357","NameT":"ศาลเจ้าบางคู"}},{"type":"Feature","geometry":{"type":"Point","coordinates":[98.37495494,7.907327172]},"properties":{"name":"ศาลเจ้าฮีกลิ้มฮู้ให้ซู่","Long":"98.374955","Lat":"7.907327","NameT":"ศาลเจ้าฮีกลิ้มฮู้ให้ซู่"}},{"type":"Feature","geometry":{"type":"Point","coordinates":[98.3204658,7.9021144]},"properties":{"name":"ศาลเจ้าพระปุ้นถำก๋ง","Long":"98.320466","Lat":"7.902114","NameT":"ศาลเจ้าพระปุ้นถำก๋ง"}},{"type":"Feature","geometry":{"type":"Point","coordinates":[98.38285279,7.885672839]},"properties":{"name":"ศาลเจ้าซับส้วนเทียนเฮวกึ้ง","Long":"98.382853","Lat":"7.885673","NameT":"ศาลเจ้าซับส้วนเทียนเฮวกึ้ง"}},{"type":"Feature","geometry":{"type":"Point","coordinates":[98.38292058,7.88348825]},"properties":{"name":"ศาลเจ้าปุดจุ้ย","Long":"98.382921","Lat":"7.883488","NameT":"ศาลเจ้าปุดจุ้ย"}},{"type":"Feature","geometry":{"type":"Point","coordinates":[98.39436952,7.87660499]},"properties":{"name":"ศาลเจ้ามูลนิธิเทพราศี","Long":"98.39437","Lat":"7.876605","NameT":"ศาลเจ้ามูลนิธิเทพราศี"}},{"type":"Feature","geometry":{"type":"Point","coordinates":[98.39349592,7.876576872]},"properties":{"name":"ศาลเจ้าฮกหงวนกัง","Long":"98.393496","Lat":"7.876577","NameT":"ศาลเจ้าฮกหงวนกัง"}},{"type":"Feature","geometry":{"type":"Point","coordinates":[98.39877631,7.864788816]},"properties":{"name":"ศาลเสด็จเตี้ย","Long":"98.398776","Lat":"7.864789","NameT":"ศาลเสด็จเตี้ย"}},{"type":"Feature","geometry":{"type":"Point","coordinates":[98.40012579,7.862441789]},"properties":{"name":"ศาลเจ้ากิ้วเทียนกัง","Long":"98.400126","Lat":"7.862442","NameT":"ศาลเจ้ากิ้วเทียนกัง"}},{"type":"Feature","geometry":{"type":"Point","coordinates":[101.9663345,6.024282339]},"properties":{"name":"ไม่มีข้อมูล","Long":"101.966335","Lat":"6.024282","NameT":"ไม่มีข้อมูล"}},{"type":"Feature","geometry":{"type":"Point","coordinates":[101.7111019,5.804538373]},"properties":{"name":"ไม่มีข้อมูล","Long":"101.711102","Lat":"5.804538","NameT":"ไม่มีข้อมูล"}},{"type":"Feature","geometry":{"type":"Point","coordinates":[101.6304105,6.718713761]},"properties":{"name":"ไม่มีข้อมูล","Long":"101.630411","Lat":"6.718714","NameT":"ไม่มีข้อมูล"}},{"type":"Feature","geometry":{"type":"Point","coordinates":[101.1032326,15.24799838]},"properties":{"name":"ไม่มีข้อมูล","Long":"101.103233","Lat":"15.247998","NameT":"ไม่มีข้อมูล"}},{"type":"Feature","geometry":{"type":"Point","coordinates":[101.2010888,14.64700873]},"properties":{"name":"ไม่มีข้อมูล","Long":"101.201089","Lat":"14.647009","NameT":"ไม่มีข้อมูล"}},{"type":"Feature","geometry":{"type":"Point","coordinates":[101.005338,14.591414]},"properties":{"name":"ไม่มีข้อมูล","Long":"101.005338","Lat":"14.591414","NameT":"ไม่มีข้อมูล"}},{"type":"Feature","geometry":{"type":"Point","coordinates":[101.0044853,14.59164264]},"properties":{"name":"ไม่มีข้อมูล","Long":"101.004485","Lat":"14.591643","NameT":"ไม่มีข้อมูล"}},{"type":"Feature","geometry":{"type":"Point","coordinates":[100.6096064,14.80331553]},"properties":{"name":"ไม่มีข้อมูล","Long":"100.609606","Lat":"14.803316","NameT":"ไม่มีข้อมูล"}},{"type":"Feature","geometry":{"type":"Point","coordinates":[100.6151068,14.8023812]},"properties":{"name":"ไม่มีข้อมูล","Long":"100.615107","Lat":"14.802381","NameT":"ไม่มีข้อมูล"}},{"type":"Feature","geometry":{"type":"Point","coordinates":[100.8670293,14.69348694]},"properties":{"name":"ศาลเจ้าพ่อเขาขาว","Long":"100.867029","Lat":"14.693487","NameT":"ศาลเจ้าพ่อเขาขาว"}},{"type":"Feature","geometry":{"type":"Point","coordinates":[100.7913823,14.72107432]},"properties":{"name":"ไม่มีข้อมูล","Long":"100.791382","Lat":"14.721074","NameT":"ไม่มีข้อมูล"}},{"type":"Feature","geometry":{"type":"Point","coordinates":[100.7803273,14.69875113]},"properties":{"name":"เจ้าพ่อเขาตก","Long":"100.780327","Lat":"14.698751","NameT":"เจ้าพ่อเขาตก"}},{"type":"Feature","geometry":{"type":"Point","coordinates":[100.5600637,14.35166887]},"properties":{"name":"ไม่มีข้อมูล","Long":"100.560064","Lat":"14.351669","NameT":"ไม่มีข้อมูล"}},{"type":"Feature","geometry":{"type":"Point","coordinates":[100.7192824,14.23075453]},"properties":{"name":"ศาลเจ้าบึงเก้ากงม้า","Long":"100.719282","Lat":"14.230755","NameT":"ศาลเจ้าบึงเก้ากงม้า"}},{"type":"Feature","geometry":{"type":"Point","coordinates":[100.7823566,14.48832769]},"properties":{"name":"ไม่มีข้อมูล","Long":"100.782357","Lat":"14.488328","NameT":"ไม่มีข้อมูล"}},{"type":"Feature","geometry":{"type":"Point","coordinates":[100.9158639,14.48909289]},"properties":{"name":"ศาลเจ้าพ่อเขาตก","Long":"100.915864","Lat":"14.489093","NameT":"ศาลเจ้าพ่อเขาตก"}},{"type":"Feature","geometry":{"type":"Point","coordinates":[100.8276315,14.27924387]},"properties":{"name":"ศาลเจ้าแม่ทับทิม","Long":"100.827632","Lat":"14.279244","NameT":"ศาลเจ้าแม่ทับทิม"}},{"type":"Feature","geometry":{"type":"Point","coordinates":[100.9444811,14.30238196]},"properties":{"name":"ศาลเจ้าพ่อหนองหมู","Long":"100.944481","Lat":"14.302382","NameT":"ศาลเจ้าพ่อหนองหมู"}},{"type":"Feature","geometry":{"type":"Point","coordinates":[100.8621065,14.34541804]},"properties":{"name":"ศาลเจ้าพ่อหนองแค","Long":"100.862107","Lat":"14.345418","NameT":"ศาลเจ้าพ่อหนองแค"}},{"type":"Feature","geometry":{"type":"Point","coordinates":[100.8681858,14.34414932]},"properties":{"name":"ศาลเจ้าพ่อมังกรทอง","Long":"100.868186","Lat":"14.344149","NameT":"ศาลเจ้าพ่อมังกรทอง"}},{"type":"Feature","geometry":{"type":"Point","coordinates":[100.9981743,14.33838722]},"properties":{"name":"ไม่มีข้อมูล","Long":"100.998174","Lat":"14.338387","NameT":"ไม่มีข้อมูล"}},{"type":"Feature","geometry":{"type":"Point","coordinates":[100.138455,14.6531347]},"properties":{"name":"ศาลเจ้าแม่พังม่วง","Long":"100.138455","Lat":"14.653135","NameT":"ศาลเจ้าแม่พังม่วง"}},{"type":"Feature","geometry":{"type":"Point","coordinates":[100.1413295,14.56288089]},"properties":{"name":"ศาลเจ้าพ่อเขาสามยอด","Long":"100.14133","Lat":"14.562881","NameT":"ศาลเจ้าพ่อเขาสามยอด"}},{"type":"Feature","geometry":{"type":"Point","coordinates":[100.1246925,14.53740303]},"properties":{"name":"ศาลเจ้าพ่อศักดิ์สิทธิ์","Long":"100.124692","Lat":"14.537403","NameT":"ศาลเจ้าพ่อศักดิ์สิทธิ์"}},{"type":"Feature","geometry":{"type":"Point","coordinates":[100.4567068,14.59729856]},"properties":{"name":"ไม่มีข้อมูล","Long":"100.456707","Lat":"14.597299","NameT":"ไม่มีข้อมูล"}},{"type":"Feature","geometry":{"type":"Point","coordinates":[100.0158216,14.49557737]},"properties":{"name":"ไม่มีข้อมูล","Long":"100.015822","Lat":"14.495577","NameT":"ไม่มีข้อมูล"}},{"type":"Feature","geometry":{"type":"Point","coordinates":[100.1186793,14.47064298]},"properties":{"name":"ไม่มีข้อมูล","Long":"100.118679","Lat":"14.470643","NameT":"ไม่มีข้อมูล"}},{"type":"Feature","geometry":{"type":"Point","coordinates":[100.1096555,14.47823886]},"properties":{"name":"ไม่มีข้อมูล","Long":"100.109656","Lat":"14.478239","NameT":"ไม่มีข้อมูล"}},{"type":"Feature","geometry":{"type":"Point","coordinates":[100.1365912,14.40702995]},"properties":{"name":"ไม่มีข้อมูล","Long":"100.136591","Lat":"14.40703","NameT":"ไม่มีข้อมูล"}},{"type":"Feature","geometry":{"type":"Point","coordinates":[100.3733962,14.31717651]},"properties":{"name":"ไม่มีข้อมูล","Long":"100.373396","Lat":"14.317177","NameT":"ไม่มีข้อมูล"}},{"type":"Feature","geometry":{"type":"Point","coordinates":[100.3720871,14.44882139]},"properties":{"name":"ไม่มีข้อมูล","Long":"100.372087","Lat":"14.448821","NameT":"ไม่มีข้อมูล"}},{"type":"Feature","geometry":{"type":"Point","coordinates":[100.0283384,13.59806905]},"properties":{"name":"ศาลเจ้าไล่กิ้กตัว","Long":"100.028338","Lat":"13.598069","NameT":"ศาลเจ้าไล่กิ้กตัว"}},{"type":"Feature","geometry":{"type":"Point","coordinates":[100.0417454,13.55653698]},"properties":{"name":"ไม่มีข้อมูล","Long":"100.041745","Lat":"13.556537","NameT":"ไม่มีข้อมูล"}},{"type":"Feature","geometry":{"type":"Point","coordinates":[100.0090686,13.54275554]},"properties":{"name":"ศาลเจ้ากิมเซี้ยงกง","Long":"100.009069","Lat":"13.542756","NameT":"ศาลเจ้ากิมเซี้ยงกง"}},{"type":"Feature","geometry":{"type":"Point","coordinates":[100.078492,13.42551559]},"properties":{"name":"ไม่มีข้อมูล","Long":"100.078492","Lat":"13.425516","NameT":"ไม่มีข้อมูล"}},{"type":"Feature","geometry":{"type":"Point","coordinates":[100.0227355,13.36216971]},"properties":{"name":"ศาลกรมหลวงชุมพรเขตอุดมศักดิ์","Long":"100.022736","Lat":"13.36217","NameT":"ศาลกรมหลวงชุมพรเขตอุดมศักดิ์"}},{"type":"Feature","geometry":{"type":"Point","coordinates":[99.64748545,13.56300179]},"properties":{"name":"ศาลเจ้าหินลับ","Long":"99.647485","Lat":"13.563002","NameT":"ศาลเจ้าหินลับ"}},{"type":"Feature","geometry":{"type":"Point","coordinates":[99.90179073,13.73509711]},"properties":{"name":"ศาลเจ้าแม่เบิกไพร","Long":"99.901791","Lat":"13.735097","NameT":"ศาลเจ้าแม่เบิกไพร"}},{"type":"Feature","geometry":{"type":"Point","coordinates":[99.84980696,13.72848192]},"properties":{"name":"ศาลเจ้าพ่อหลักเมือง","Long":"99.849807","Lat":"13.728482","NameT":"ศาลเจ้าพ่อหลักเมือง"}},{"type":"Feature","geometry":{"type":"Point","coordinates":[99.92619493,13.70195602]},"properties":{"name":"ศาลเจ้าพ่อปู่ไทรน้อย","Long":"99.926195","Lat":"13.701956","NameT":"ศาลเจ้าพ่อปู่ไทรน้อย"}},{"type":"Feature","geometry":{"type":"Point","coordinates":[99.93312177,13.69321618]},"properties":{"name":"ศาลพ่อบ้านแหลม","Long":"99.933122","Lat":"13.693216","NameT":"ศาลพ่อบ้านแหลม"}},{"type":"Feature","geometry":{"type":"Point","coordinates":[99.84931044,13.691786]},"properties":{"name":"ไม่มีข้อมูล","Long":"99.84931","Lat":"13.691786","NameT":"ไม่มีข้อมูล"}},{"type":"Feature","geometry":{"type":"Point","coordinates":[99.87433019,13.68989]},"properties":{"name":"ศาลปู่ตา","Long":"99.87433","Lat":"13.68989","NameT":"ศาลปู่ตา"}},{"type":"Feature","geometry":{"type":"Point","coordinates":[99.85827621,13.68727873]},"properties":{"name":"ศาลเจ้าซีวเทียนตัว","Long":"99.858276","Lat":"13.687279","NameT":"ศาลเจ้าซีวเทียนตัว"}},{"type":"Feature","geometry":{"type":"Point","coordinates":[99.89360816,13.67837251]},"properties":{"name":"ศาลเจ้าพ่อหลวงราม","Long":"99.893608","Lat":"13.678373","NameT":"ศาลเจ้าพ่อหลวงราม"}},{"type":"Feature","geometry":{"type":"Point","coordinates":[99.81747622,13.65302204]},"properties":{"name":"ศาลเจ้าแม่ทับทิม","Long":"99.817476","Lat":"13.653022","NameT":"ศาลเจ้าแม่ทับทิม"}},{"type":"Feature","geometry":{"type":"Point","coordinates":[99.7934179,13.60458748]},"properties":{"name":"ศาลเจ้าปุ้นเถ่ากงม่า","Long":"99.793418","Lat":"13.604587","NameT":"ศาลเจ้าปุ้นเถ่ากงม่า"}},{"type":"Feature","geometry":{"type":"Point","coordinates":[99.96771064,13.59581044]},"properties":{"name":"ศาลเจ้าเม่งซวงซัวจึง","Long":"99.967711","Lat":"13.59581","NameT":"ศาลเจ้าเม่งซวงซัวจึง"}},{"type":"Feature","geometry":{"type":"Point","coordinates":[99.96973222,13.56655127]},"properties":{"name":"อารามคุณพ่อหณุมาน","Long":"99.969732","Lat":"13.566551","NameT":"อารามคุณพ่อหณุมาน"}},{"type":"Feature","geometry":{"type":"Point","coordinates":[99.96809422,13.56201575]},"properties":{"name":"ศาลเจ้าแป๊ะกง","Long":"99.968094","Lat":"13.562016","NameT":"ศาลเจ้าแป๊ะกง"}},{"type":"Feature","geometry":{"type":"Point","coordinates":[99.81791302,13.55130424]},"properties":{"name":"ไม่มีข้อมูล","Long":"99.817913","Lat":"13.551304","NameT":"ไม่มีข้อมูล"}},{"type":"Feature","geometry":{"type":"Point","coordinates":[99.81604056,13.5463505]},"properties":{"name":"ไม่มีข้อมูล","Long":"99.816041","Lat":"13.546351","NameT":"ไม่มีข้อมูล"}},{"type":"Feature","geometry":{"type":"Point","coordinates":[99.96474756,13.54567569]},"properties":{"name":"วิหารหลวงพ่อแหลม","Long":"99.964748","Lat":"13.545676","NameT":"วิหารหลวงพ่อแหลม"}},{"type":"Feature","geometry":{"type":"Point","coordinates":[99.82554157,13.54409793]},"properties":{"name":"ไม่มีข้อมูล","Long":"99.825542","Lat":"13.544098","NameT":"ไม่มีข้อมูล"}},{"type":"Feature","geometry":{"type":"Point","coordinates":[99.81672943,13.5414726]},"properties":{"name":"ไม่มีข้อมูล","Long":"99.816729","Lat":"13.541473","NameT":"ไม่มีข้อมูล"}},{"type":"Feature","geometry":{"type":"Point","coordinates":[99.82170133,13.54031377]},"properties":{"name":"ไม่มีข้อมูล","Long":"99.821701","Lat":"13.540314","NameT":"ไม่มีข้อมูล"}},{"type":"Feature","geometry":{"type":"Point","coordinates":[99.81418053,13.54005976]},"properties":{"name":"ไม่มีข้อมูล","Long":"99.814181","Lat":"13.54006","NameT":"ไม่มีข้อมูล"}},{"type":"Feature","geometry":{"type":"Point","coordinates":[99.8198097,13.53819579]},"properties":{"name":"ไม่มีข้อมูล","Long":"99.81981","Lat":"13.538196","NameT":"ไม่มีข้อมูล"}},{"type":"Feature","geometry":{"type":"Point","coordinates":[99.99102016,13.53524492]},"properties":{"name":"ศาลเจ้าท่งเฮงตั้ว","Long":"99.99102","Lat":"13.535245","NameT":"ศาลเจ้าท่งเฮงตั้ว"}},{"type":"Feature","geometry":{"type":"Point","coordinates":[99.804683,13.53513349]},"properties":{"name":"ไม่มีข้อมูล","Long":"99.804683","Lat":"13.535133","NameT":"ไม่มีข้อมูล"}},{"type":"Feature","geometry":{"type":"Point","coordinates":[99.981645,13.53114298]},"properties":{"name":"ไม่มีข้อมูล","Long":"99.981645","Lat":"13.531143","NameT":"ไม่มีข้อมูล"}},{"type":"Feature","geometry":{"type":"Point","coordinates":[99.78867255,13.51647217]},"properties":{"name":"ศาลเจ้าแม่แก่นจันทร์","Long":"99.788673","Lat":"13.516472","NameT":"ศาลเจ้าแม่แก่นจันทร์"}},{"type":"Feature","geometry":{"type":"Point","coordinates":[99.99224149,13.51472548]},"properties":{"name":"ศาลเจ้ายีเนีย","Long":"99.992241","Lat":"13.514725","NameT":"ศาลเจ้ายีเนีย"}},{"type":"Feature","geometry":{"type":"Point","coordinates":[99.80735348,13.51111202]},"properties":{"name":"ศาลเจ้าไต๋ฮ่องกง","Long":"99.807353","Lat":"13.511112","NameT":"ศาลเจ้าไต๋ฮ่องกง"}},{"type":"Feature","geometry":{"type":"Point","coordinates":[99.80633214,13.50848551]},"properties":{"name":"ศาลเจ้ากวนอู","Long":"99.806332","Lat":"13.508486","NameT":"ศาลเจ้ากวนอู"}},{"type":"Feature","geometry":{"type":"Point","coordinates":[99.82228506,13.87636488]},"properties":{"name":"ศาลเจ้าพ่อนาคราช","Long":"99.822285","Lat":"13.876365","NameT":"ศาลเจ้าพ่อนาคราช"}},{"type":"Feature","geometry":{"type":"Point","coordinates":[99.86303133,13.79319484]},"properties":{"name":"ศาลเจ้าเบิกไพร","Long":"99.863031","Lat":"13.793195","NameT":"ศาลเจ้าเบิกไพร"}},{"type":"Feature","geometry":{"type":"Point","coordinates":[99.74864289,13.38513509]},"properties":{"name":"ไม่มีข้อมูล","Long":"99.748643","Lat":"13.385135","NameT":"ไม่มีข้อมูล"}},{"type":"Feature","geometry":{"type":"Point","coordinates":[99.7180718,13.11263343]},"properties":{"name":"ศาลเจ้าพ่อหลักเมือง","Long":"99.718072","Lat":"13.112633","NameT":"ศาลเจ้าพ่อหลักเมือง"}},{"type":"Feature","geometry":{"type":"Point","coordinates":[99.98373974,13.21428841]},"properties":{"name":"ศาลเจ้าอุดโจว","Long":"99.98374","Lat":"13.214288","NameT":"ศาลเจ้าอุดโจว"}},{"type":"Feature","geometry":{"type":"Point","coordinates":[99.79185182,13.20184839]},"properties":{"name":"ศาลเจ้าแม่กวนอิม","Long":"99.791852","Lat":"13.201848","NameT":"ศาลเจ้าแม่กวนอิม"}},{"type":"Feature","geometry":{"type":"Point","coordinates":[99.95214935,13.16829971]},"properties":{"name":"ศาลเจ้าพ่อขุน","Long":"99.952149","Lat":"13.1683","NameT":"ศาลเจ้าพ่อขุน"}},{"type":"Feature","geometry":{"type":"Point","coordinates":[99.93456498,13.13688831]},"properties":{"name":"ศาลเจ้าแม่กวนอิม","Long":"99.934565","Lat":"13.136888","NameT":"ศาลเจ้าแม่กวนอิม"}},{"type":"Feature","geometry":{"type":"Point","coordinates":[99.95390404,13.10588558]},"properties":{"name":"ไม่มีข้อมูล","Long":"99.953904","Lat":"13.105886","NameT":"ไม่มีข้อมูล"}},{"type":"Feature","geometry":{"type":"Point","coordinates":[99.9487766,13.10176106]},"properties":{"name":"ไม่มีข้อมูล","Long":"99.948777","Lat":"13.101761","NameT":"ไม่มีข้อมูล"}},{"type":"Feature","geometry":{"type":"Point","coordinates":[99.94946033,13.0983119]},"properties":{"name":"ไม่มีข้อมูล","Long":"99.94946","Lat":"13.098312","NameT":"ไม่มีข้อมูล"}},{"type":"Feature","geometry":{"type":"Point","coordinates":[99.94375667,13.49071484]},"properties":{"name":"วิหารเจ้าแม่กวนอิม","Long":"99.943757","Lat":"13.490715","NameT":"วิหารเจ้าแม่กวนอิม"}},{"type":"Feature","geometry":{"type":"Point","coordinates":[99.92285583,13.48784165]},"properties":{"name":"ศาลเจ้าแม่แป๊ะกง","Long":"99.922856","Lat":"13.487842","NameT":"ศาลเจ้าแม่แป๊ะกง"}},{"type":"Feature","geometry":{"type":"Point","coordinates":[99.99633726,13.48699798]},"properties":{"name":"ศาลเจ้าอาม้า","Long":"99.996337","Lat":"13.486998","NameT":"ศาลเจ้าอาม้า"}},{"type":"Feature","geometry":{"type":"Point","coordinates":[99.92926751,13.48354996]},"properties":{"name":"ศาลเจ้าแม่อากาศ","Long":"99.929268","Lat":"13.48355","NameT":"ศาลเจ้าแม่อากาศ"}},{"type":"Feature","geometry":{"type":"Point","coordinates":[99.89096611,13.46820379]},"properties":{"name":"ศาลเจ้าแม่ทับทิม","Long":"99.890966","Lat":"13.468204","NameT":"ศาลเจ้าแม่ทับทิม"}},{"type":"Feature","geometry":{"type":"Point","coordinates":[99.81695643,13.46456724]},"properties":{"name":"ศาลเจ้าโรงหีบ","Long":"99.816956","Lat":"13.464567","NameT":"ศาลเจ้าโรงหีบ"}},{"type":"Feature","geometry":{"type":"Point","coordinates":[99.98209892,13.46253933]},"properties":{"name":"ศาลเจ้าอาเนี้ย","Long":"99.982099","Lat":"13.462539","NameT":"ศาลเจ้าอาเนี้ย"}},{"type":"Feature","geometry":{"type":"Point","coordinates":[99.88720818,13.45374126]},"properties":{"name":"ศาลเจ้าพ่อหลักหิน","Long":"99.887208","Lat":"13.453741","NameT":"ศาลเจ้าพ่อหลักหิน"}},{"type":"Feature","geometry":{"type":"Point","coordinates":[99.94385617,13.44098027]},"properties":{"name":"ศาลเจ้าไทยเพ็งอ้วง","Long":"99.943856","Lat":"13.44098","NameT":"ศาลเจ้าไทยเพ็งอ้วง"}},{"type":"Feature","geometry":{"type":"Point","coordinates":[99.94576784,13.43805023]},"properties":{"name":"ศาลเจ้าเช่ชึ้ม","Long":"99.945768","Lat":"13.43805","NameT":"ศาลเจ้าเช่ชึ้ม"}},{"type":"Feature","geometry":{"type":"Point","coordinates":[99.9939167,13.41093178]},"properties":{"name":"ศาลเจ้าแม่ทับทิมฉื้อเล้งเก็ง","Long":"99.993917","Lat":"13.410932","NameT":"ศาลเจ้าแม่ทับทิมฉื้อเล้งเก็ง"}},{"type":"Feature","geometry":{"type":"Point","coordinates":[99.97690558,13.41037052]},"properties":{"name":"ศาลอากง","Long":"99.976906","Lat":"13.410371","NameT":"ศาลอากง"}},{"type":"Feature","geometry":{"type":"Point","coordinates":[99.99497831,13.3991077]},"properties":{"name":"ศาลเจ้าพ่อกวนอู","Long":"99.994978","Lat":"13.399108","NameT":"ศาลเจ้าพ่อกวนอู"}},{"type":"Feature","geometry":{"type":"Point","coordinates":[99.99034513,13.39900065]},"properties":{"name":"ศาลเจ้าหน้าโอ้กวงอิมตัว","Long":"99.990345","Lat":"13.399001","NameT":"ศาลเจ้าหน้าโอ้กวงอิมตัว"}},{"type":"Feature","geometry":{"type":"Point","coordinates":[99.98368257,13.38760375]},"properties":{"name":"ศาลเจ้าแซ่ลิ้ม","Long":"99.983683","Lat":"13.387604","NameT":"ศาลเจ้าแซ่ลิ้ม"}},{"type":"Feature","geometry":{"type":"Point","coordinates":[99.9462695,13.38714661]},"properties":{"name":"ศาลเจ้าพ่อโกมินทร์","Long":"99.94627","Lat":"13.387147","NameT":"ศาลเจ้าพ่อโกมินทร์"}},{"type":"Feature","geometry":{"type":"Point","coordinates":[99.84529149,13.37606545]},"properties":{"name":"ศาลเจ้าพ่อปู","Long":"99.845291","Lat":"13.376065","NameT":"ศาลเจ้าพ่อปู"}},{"type":"Feature","geometry":{"type":"Point","coordinates":[99.82698496,13.34487718]},"properties":{"name":"ศาลเจ้าแม่โจ้วเขาหลาว","Long":"99.826985","Lat":"13.344877","NameT":"ศาลเจ้าแม่โจ้วเขาหลาว"}},{"type":"Feature","geometry":{"type":"Point","coordinates":[99.7858485,13.3120618]},"properties":{"name":"ศาลเจ้าไคง่อนเสียงตึ้ง","Long":"99.785849","Lat":"13.312062","NameT":"ศาลเจ้าไคง่อนเสียงตึ้ง"}},{"type":"Feature","geometry":{"type":"Point","coordinates":[99.83078058,13.29371345]},"properties":{"name":"ศาลเจ้าพ่อด่าน","Long":"99.830781","Lat":"13.293713","NameT":"ศาลเจ้าพ่อด่าน"}},{"type":"Feature","geometry":{"type":"Point","coordinates":[99.82692555,13.25227717]},"properties":{"name":"ศาลเจ้าพ่อวังทอง","Long":"99.826926","Lat":"13.252277","NameT":"ศาลเจ้าพ่อวังทอง"}},{"type":"Feature","geometry":{"type":"Point","coordinates":[99.92205193,12.6275609]},"properties":{"name":"ศาลเจ้าแม่กวนอิม","Long":"99.922052","Lat":"12.627561","NameT":"ศาลเจ้าแม่กวนอิม"}},{"type":"Feature","geometry":{"type":"Point","coordinates":[99.96949402,12.523178]},"properties":{"name":"ศาลพระพรหม","Long":"99.969494","Lat":"12.523178","NameT":"ศาลพระพรหม"}},{"type":"Feature","geometry":{"type":"Point","coordinates":[99.91326065,12.96140685]},"properties":{"name":"ศาลเจ้า","Long":"99.913261","Lat":"12.961407","NameT":"ศาลเจ้า"}},{"type":"Feature","geometry":{"type":"Point","coordinates":[99.95458772,12.80501045]},"properties":{"name":"ศาลเจ้า","Long":"99.954588","Lat":"12.80501","NameT":"ศาลเจ้า"}},{"type":"Feature","geometry":{"type":"Point","coordinates":[99.86623375,12.22758375]},"properties":{"name":"ศาลเจ้าโป๊ยเซียนโจวซือ","Long":"99.866234","Lat":"12.227584","NameT":"ศาลเจ้าโป๊ยเซียนโจวซือ"}},{"type":"Feature","geometry":{"type":"Point","coordinates":[99.86882631,12.06779761]},"properties":{"name":"ไม่มีข้อมูล","Long":"99.868826","Lat":"12.067798","NameT":"ไม่มีข้อมูล"}},{"type":"Feature","geometry":{"type":"Point","coordinates":[99.97998092,12.45640816]},"properties":{"name":"ศาลเจ้าพ่อเขาเต่า","Long":"99.979981","Lat":"12.456408","NameT":"ศาลเจ้าพ่อเขาเต่า"}},{"type":"Feature","geometry":{"type":"Point","coordinates":[99.97102134,12.43896364]},"properties":{"name":"ศาลเจ้าพ่อชมพูทวีป","Long":"99.971021","Lat":"12.438964","NameT":"ศาลเจ้าพ่อชมพูทวีป"}},{"type":"Feature","geometry":{"type":"Point","coordinates":[99.97691488,12.40946804]},"properties":{"name":"ศาลเจ้าแม่ทับทิมทอง","Long":"99.976915","Lat":"12.409468","NameT":"ศาลเจ้าแม่ทับทิมทอง"}},{"type":"Feature","geometry":{"type":"Point","coordinates":[99.99389644,12.40595848]},"properties":{"name":"ศาลเสด็จกรมหลวงชุมพรเขตอุดมศักดิ์","Long":"99.993896","Lat":"12.405958","NameT":"ศาลเสด็จกรมหลวงชุมพรเขตอุดมศักดิ์"}},{"type":"Feature","geometry":{"type":"Point","coordinates":[99.9895124,12.40262765]},"properties":{"name":"ศาลเจ้าปิงเถ่ากง","Long":"99.989512","Lat":"12.402628","NameT":"ศาลเจ้าปิงเถ่ากง"}},{"type":"Feature","geometry":{"type":"Point","coordinates":[99.88615128,12.36380903]},"properties":{"name":"ศาลเจ้าพ่อหนองตาเย็น","Long":"99.886151","Lat":"12.363809","NameT":"ศาลเจ้าพ่อหนองตาเย็น"}},{"type":"Feature","geometry":{"type":"Point","coordinates":[99.97531943,12.27861663]},"properties":{"name":"ศาลเจ้าพ่อแน่แท้","Long":"99.975319","Lat":"12.278617","NameT":"ศาลเจ้าพ่อแน่แท้"}},{"type":"Feature","geometry":{"type":"Point","coordinates":[99.77780653,11.91829095]},"properties":{"name":"ศาลเจ้า","Long":"99.777807","Lat":"11.918291","NameT":"ศาลเจ้า"}},{"type":"Feature","geometry":{"type":"Point","coordinates":[99.80102739,11.87906944]},"properties":{"name":"ไม่มีข้อมูล","Long":"99.801027","Lat":"11.879069","NameT":"ไม่มีข้อมูล"}},{"type":"Feature","geometry":{"type":"Point","coordinates":[99.79680565,11.81121603]},"properties":{"name":"ไม่มีข้อมูล","Long":"99.796806","Lat":"11.811216","NameT":"ไม่มีข้อมูล"}},{"type":"Feature","geometry":{"type":"Point","coordinates":[99.7868477,11.8096569]},"properties":{"name":"ไม่มีข้อมูล","Long":"99.786848","Lat":"11.809657","NameT":"ไม่มีข้อมูล"}},{"type":"Feature","geometry":{"type":"Point","coordinates":[99.81478205,11.79350901]},"properties":{"name":"ศาลสมเด็จกรมหลวงชุมพรเขตอุดมศักดิ์","Long":"99.814782","Lat":"11.793509","NameT":"ศาลสมเด็จกรมหลวงชุมพรเขตอุดมศักดิ์"}},{"type":"Feature","geometry":{"type":"Point","coordinates":[99.18581855,14.11767371]},"properties":{"name":"ศาลเจ้าพีอเขาสามชั้น","Long":"99.185819","Lat":"14.117674","NameT":"ศาลเจ้าพีอเขาสามชั้น"}},{"type":"Feature","geometry":{"type":"Point","coordinates":[99.45900194,13.63004092]},"properties":{"name":"ศาลเจ้าศรีมงคล","Long":"99.459002","Lat":"13.630041","NameT":"ศาลเจ้าศรีมงคล"}},{"type":"Feature","geometry":{"type":"Point","coordinates":[99.44374104,13.54599649]},"properties":{"name":"ศาลเจ้าแม่กวนอิมองค์ใหญ่","Long":"99.443741","Lat":"13.545996","NameT":"ศาลเจ้าแม่กวนอิมองค์ใหญ่"}},{"type":"Feature","geometry":{"type":"Point","coordinates":[98.84130068,14.48189826]},"properties":{"name":"วัดเล็งเนยยี","Long":"98.841301","Lat":"14.481898","NameT":"วัดเล็งเนยยี"}},{"type":"Feature","geometry":{"type":"Point","coordinates":[99.61821048,11.49808433]},"properties":{"name":"ศาลเจ้าฮดโจ้ว","Long":"99.61821","Lat":"11.498084","NameT":"ศาลเจ้าฮดโจ้ว"}},{"type":"Feature","geometry":{"type":"Point","coordinates":[99.57024513,11.46444053]},"properties":{"name":"ศาลเจ้าพ่อปู่เขาหลอด","Long":"99.570245","Lat":"11.464441","NameT":"ศาลเจ้าพ่อปู่เขาหลอด"}},{"type":"Feature","geometry":{"type":"Point","coordinates":[99.52033528,11.21140269]},"properties":{"name":"ศาลเจ้าพ่อแหลมงิ้ว","Long":"99.520335","Lat":"11.211403","NameT":"ศาลเจ้าพ่อแหลมงิ้ว"}},{"type":"Feature","geometry":{"type":"Point","coordinates":[99.52814997,11.20092699]},"properties":{"name":"ศาลเจ้าบึงเกากง","Long":"99.52815","Lat":"11.200927","NameT":"ศาลเจ้าบึงเกากง"}},{"type":"Feature","geometry":{"type":"Point","coordinates":[99.48147528,11.08500838]},"properties":{"name":"ไม่มีข้อมูล","Long":"99.481475","Lat":"11.085008","NameT":"ไม่มีข้อมูล"}},{"type":"Feature","geometry":{"type":"Point","coordinates":[99.97783688,13.20891985]},"properties":{"name":"ศาลเจ้าตึก","Long":"99.977837","Lat":"13.20892","NameT":"ศาลเจ้าตึก"}},{"type":"Feature","geometry":{"type":"Point","coordinates":[101.7105491,14.02889879]},"properties":{"name":"ไม่มีข้อมูล","Long":"101.710549","Lat":"14.028899","NameT":"ไม่มีข้อมูล"}},{"type":"Feature","geometry":{"type":"Point","coordinates":[101.8659454,14.30752388]},"properties":{"name":"ไม่มีข้อมูล","Long":"101.865945","Lat":"14.307524","NameT":"ไม่มีข้อมูล"}},{"type":"Feature","geometry":{"type":"Point","coordinates":[101.5127471,13.75990291]},"properties":{"name":"ศาลพระบาทสมเด็จพระปิ่นเกล้า","Long":"101.512747","Lat":"13.759903","NameT":"ศาลพระบาทสมเด็จพระปิ่นเกล้า"}},{"type":"Feature","geometry":{"type":"Point","coordinates":[101.5176979,13.64666466]},"properties":{"name":"ศาลพ่อเฒ่า","Long":"101.517698","Lat":"13.646665","NameT":"ศาลพ่อเฒ่า"}},{"type":"Feature","geometry":{"type":"Point","coordinates":[101.9204175,13.93778668]},"properties":{"name":"ศาลเจ้าพ่อพระปรง","Long":"101.920418","Lat":"13.937787","NameT":"ศาลเจ้าพ่อพระปรง"}},{"type":"Feature","geometry":{"type":"Point","coordinates":[101.6577082,13.44976213]},"properties":{"name":"ศาลเจ้าพ่อเขากา","Long":"101.657708","Lat":"13.449762","NameT":"ศาลเจ้าพ่อเขากา"}},{"type":"Feature","geometry":{"type":"Point","coordinates":[101.5789536,13.19923306]},"properties":{"name":"ศาลเจ้าเตียวเทียวซือ","Long":"101.578954","Lat":"13.199233","NameT":"ศาลเจ้าเตียวเทียวซือ"}},{"type":"Feature","geometry":{"type":"Point","coordinates":[101.5773723,13.11491895]},"properties":{"name":"ศาลเจ้าพ่อหลวงพ่อทุ่ง","Long":"101.577372","Lat":"13.114919","NameT":"ศาลเจ้าพ่อหลวงพ่อทุ่ง"}},{"type":"Feature","geometry":{"type":"Point","coordinates":[101.5144278,13.11252312]},"properties":{"name":"ศาลเจ้าจีน","Long":"101.514428","Lat":"13.112523","NameT":"ศาลเจ้าจีน"}},{"type":"Feature","geometry":{"type":"Point","coordinates":[101.6421141,12.78173421]},"properties":{"name":"ไม่มีข้อมูล","Long":"101.642114","Lat":"12.781734","NameT":"ไม่มีข้อมูล"}},{"type":"Feature","geometry":{"type":"Point","coordinates":[101.7134789,12.77989569]},"properties":{"name":"ศาลเจ้าพ่อเขาดิน","Long":"101.713479","Lat":"12.779896","NameT":"ศาลเจ้าพ่อเขาดิน"}},{"type":"Feature","geometry":{"type":"Point","coordinates":[101.7354455,12.77639633]},"properties":{"name":"ศาลเจ้าพ่อกระแส","Long":"101.735446","Lat":"12.776396","NameT":"ศาลเจ้าพ่อกระแส"}},{"type":"Feature","geometry":{"type":"Point","coordinates":[101.5901313,12.73341433]},"properties":{"name":"ศาลเจ้าเนินดินแดง","Long":"101.590131","Lat":"12.733414","NameT":"ศาลเจ้าเนินดินแดง"}},{"type":"Feature","geometry":{"type":"Point","coordinates":[101.7034906,12.70760487]},"properties":{"name":"ศาลเจ้าแซ่ตัน","Long":"101.703491","Lat":"12.707605","NameT":"ศาลเจ้าแซ่ตัน"}},{"type":"Feature","geometry":{"type":"Point","coordinates":[101.7041458,12.70707007]},"properties":{"name":"ศาลเจ้าเซงจุ้ยโจ้วซือกง","Long":"101.704146","Lat":"12.70707","NameT":"ศาลเจ้าเซงจุ้ยโจ้วซือกง"}},{"type":"Feature","geometry":{"type":"Point","coordinates":[101.7041944,12.70177446]},"properties":{"name":"ศาลเจ้าพ่กื้ออีไทรน้อย","Long":"101.704194","Lat":"12.701774","NameT":"ศาลเจ้าพ่กื้ออีไทรน้อย"}},{"type":"Feature","geometry":{"type":"Point","coordinates":[101.7029745,12.70095578]},"properties":{"name":"ศาลเจ้าพ่อประแส","Long":"101.702975","Lat":"12.700956","NameT":"ศาลเจ้าพ่อประแส"}},{"type":"Feature","geometry":{"type":"Point","coordinates":[101.5013075,12.66699031]},"properties":{"name":"ศาลเจ้าพ่อเฮ่งเจีย","Long":"101.501308","Lat":"12.66699","NameT":"ศาลเจ้าพ่อเฮ่งเจีย"}},{"type":"Feature","geometry":{"type":"Point","coordinates":[101.6386893,12.64307856]},"properties":{"name":"ศาลเจ้ามรกตแม่พิมพ์","Long":"101.638689","Lat":"12.643079","NameT":"ศาลเจ้ามรกตแม่พิมพ์"}},{"type":"Feature","geometry":{"type":"Point","coordinates":[101.6921735,12.59696385]},"properties":{"name":"ศาลเจ้าแม่กวนอิม","Long":"101.692174","Lat":"12.596964","NameT":"ศาลเจ้าแม่กวนอิม"}},{"type":"Feature","geometry":{"type":"Point","coordinates":[101.8153084,12.73533928]},"properties":{"name":"ศาลเจ้าถึย","Long":"101.815308","Lat":"12.735339","NameT":"ศาลเจ้าถึย"}},{"type":"Feature","geometry":{"type":"Point","coordinates":[101.7851259,12.69628984]},"properties":{"name":"ศาลเจ้าอุ้ยชินโต๊ะ","Long":"101.785126","Lat":"12.69629","NameT":"ศาลเจ้าอุ้ยชินโต๊ะ"}},{"type":"Feature","geometry":{"type":"Point","coordinates":[101.8106925,12.67962395]},"properties":{"name":"ศาลเจ้าพ่อตากสิน","Long":"101.810693","Lat":"12.679624","NameT":"ศาลเจ้าพ่อตากสิน"}},{"type":"Feature","geometry":{"type":"Point","coordinates":[101.9985769,12.55080183]},"properties":{"name":"ไม่มีข้อมูล","Long":"101.998577","Lat":"12.550802","NameT":"ไม่มีข้อมูล"}},{"type":"Feature","geometry":{"type":"Point","coordinates":[101.0282076,14.30543101]},"properties":{"name":"ศาลเจ้าพ่อบ้านพริก","Long":"101.028208","Lat":"14.305431","NameT":"ศาลเจ้าพ่อบ้านพริก"}},{"type":"Feature","geometry":{"type":"Point","coordinates":[101.0688776,14.25913069]},"properties":{"name":"ไม่มีข้อมูล","Long":"101.068878","Lat":"14.259131","NameT":"ไม่มีข้อมูล"}},{"type":"Feature","geometry":{"type":"Point","coordinates":[101.1648943,14.29178612]},"properties":{"name":"ศาลเจ้าพ่อขุนด่าน","Long":"101.164894","Lat":"14.291786","NameT":"ศาลเจ้าพ่อขุนด่าน"}},{"type":"Feature","geometry":{"type":"Point","coordinates":[101.1761251,14.02672295]},"properties":{"name":"ไม่มีข้อมูล","Long":"101.176125","Lat":"14.026723","NameT":"ไม่มีข้อมูล"}},{"type":"Feature","geometry":{"type":"Point","coordinates":[101.1610329,14.1801001]},"properties":{"name":"ไม่มีข้อมูล","Long":"101.161033","Lat":"14.1801","NameT":"ไม่มีข้อมูล"}},{"type":"Feature","geometry":{"type":"Point","coordinates":[101.2151327,14.20266591]},"properties":{"name":"ไม่มีข้อมูล","Long":"101.215133","Lat":"14.202666","NameT":"ไม่มีข้อมูล"}},{"type":"Feature","geometry":{"type":"Point","coordinates":[101.2619338,14.21714382]},"properties":{"name":"ศาลเจ้าแม่ทับทิม","Long":"101.261934","Lat":"14.217144","NameT":"ศาลเจ้าแม่ทับทิม"}},{"type":"Feature","geometry":{"type":"Point","coordinates":[101.3746387,14.13319567]},"properties":{"name":"ศาลสมเด็จพระนเรศวรมหาราช","Long":"101.374639","Lat":"14.133196","NameT":"ศาลสมเด็จพระนเรศวรมหาราช"}},{"type":"Feature","geometry":{"type":"Point","coordinates":[101.3652053,14.05264617]},"properties":{"name":"ไม่มีข้อมูล","Long":"101.365205","Lat":"14.052646","NameT":"ไม่มีข้อมูล"}},{"type":"Feature","geometry":{"type":"Point","coordinates":[101.3790131,14.05323248]},"properties":{"name":"ไม่มีข้อมูล","Long":"101.379013","Lat":"14.053232","NameT":"ไม่มีข้อมูล"}},{"type":"Feature","geometry":{"type":"Point","coordinates":[101.3718963,14.05298986]},"properties":{"name":"ไม่มีข้อมูล","Long":"101.371896","Lat":"14.05299","NameT":"ไม่มีข้อมูล"}},{"type":"Feature","geometry":{"type":"Point","coordinates":[101.3737762,14.04896669]},"properties":{"name":"วิหารพระพุทธปราจีนชินราชบพิตร","Long":"101.373776","Lat":"14.048967","NameT":"วิหารพระพุทธปราจีนชินราชบพิตร"}},{"type":"Feature","geometry":{"type":"Point","coordinates":[101.3891062,14.38311342]},"properties":{"name":"ศาลเจ้าพ่อเขาเขียว","Long":"101.389106","Lat":"14.383113","NameT":"ศาลเจ้าพ่อเขาเขียว"}},{"type":"Feature","geometry":{"type":"Point","coordinates":[101.4051357,14.36958869]},"properties":{"name":"ศาลเจ้าพระยาโกษาเทพประสิทธฺ์","Long":"101.405136","Lat":"14.369589","NameT":"ศาลเจ้าพระยาโกษาเทพประสิทธฺ์"}},{"type":"Feature","geometry":{"type":"Point","coordinates":[101.2288184,13.74125879]},"properties":{"name":"ศาลเจ้าตระกูลเดีย","Long":"101.228818","Lat":"13.741259","NameT":"ศาลเจ้าตระกูลเดีย"}},{"type":"Feature","geometry":{"type":"Point","coordinates":[101.2046588,13.72268553]},"properties":{"name":"ไม่มีข้อมูล","Long":"101.204659","Lat":"13.722686","NameT":"ไม่มีข้อมูล"}},{"type":"Feature","geometry":{"type":"Point","coordinates":[101.2052077,13.72230999]},"properties":{"name":"ไม่มีข้อมูล","Long":"101.205208","Lat":"13.72231","NameT":"ไม่มีข้อมูล"}},{"type":"Feature","geometry":{"type":"Point","coordinates":[101.036693,13.71178528]},"properties":{"name":"ศาลเจ้าแม่กวนอิม","Long":"101.036693","Lat":"13.711785","NameT":"ศาลเจ้าแม่กวนอิม"}},{"type":"Feature","geometry":{"type":"Point","coordinates":[101.1022424,13.70818459]},"properties":{"name":"ศาลเจ้าไต้เซียฮุดโจ๊ว","Long":"101.102242","Lat":"13.708185","NameT":"ศาลเจ้าไต้เซียฮุดโจ๊ว"}},{"type":"Feature","geometry":{"type":"Point","coordinates":[101.0888034,13.69791913]},"properties":{"name":"ไม่มีข้อมูล","Long":"101.088803","Lat":"13.697919","NameT":"ไม่มีข้อมูล"}},{"type":"Feature","geometry":{"type":"Point","coordinates":[101.0890013,13.69505209]},"properties":{"name":"ไม่มีข้อมูล","Long":"101.089001","Lat":"13.695052","NameT":"ไม่มีข้อมูล"}},{"type":"Feature","geometry":{"type":"Point","coordinates":[101.1576663,13.69385275]},"properties":{"name":"ไม่มีข้อมูล","Long":"101.157666","Lat":"13.693853","NameT":"ไม่มีข้อมูล"}},{"type":"Feature","geometry":{"type":"Point","coordinates":[101.1594782,13.69332009]},"properties":{"name":"ไม่มีข้อมูล","Long":"101.159478","Lat":"13.69332","NameT":"ไม่มีข้อมูล"}},{"type":"Feature","geometry":{"type":"Point","coordinates":[101.084513,13.69345535]},"properties":{"name":"ไม่มีข้อมูล","Long":"101.084513","Lat":"13.693455","NameT":"ไม่มีข้อมูล"}},{"type":"Feature","geometry":{"type":"Point","coordinates":[101.0680339,13.6611695]},"properties":{"name":"ศาลเจ้าตั๊กม้อโจ๋วซือ","Long":"101.068034","Lat":"13.66117","NameT":"ศาลเจ้าตั๊กม้อโจ๋วซือ"}},{"type":"Feature","geometry":{"type":"Point","coordinates":[101.0091191,13.64057408]},"properties":{"name":"ไม่มีข้อมูล","Long":"101.009119","Lat":"13.640574","NameT":"ไม่มีข้อมูล"}},{"type":"Feature","geometry":{"type":"Point","coordinates":[101.2480723,13.60386038]},"properties":{"name":"ศาลเจ้าพ่อด่านเงิน","Long":"101.248072","Lat":"13.60386","NameT":"ศาลเจ้าพ่อด่านเงิน"}},{"type":"Feature","geometry":{"type":"Point","coordinates":[101.2055255,13.52162465]},"properties":{"name":"ไม่มีข้อมูล","Long":"101.205525","Lat":"13.521625","NameT":"ไม่มีข้อมูล"}},{"type":"Feature","geometry":{"type":"Point","coordinates":[101.2052551,13.72458747]},"properties":{"name":"ศาลเจ้าพ่อหลักเมือง","Long":"101.205255","Lat":"13.724587","NameT":"ศาลเจ้าพ่อหลักเมือง"}},{"type":"Feature","geometry":{"type":"Point","coordinates":[101.0728148,13.68578116]},"properties":{"name":"ศาลหลักเมืองฉะเชิงเทรา","Long":"101.072815","Lat":"13.685781","NameT":"ศาลหลักเมืองฉะเชิงเทรา"}},{"type":"Feature","geometry":{"type":"Point","coordinates":[101.3451635,13.74893742]},"properties":{"name":"ศาลเจ้ากวนตี้กุนอามัา","Long":"101.345164","Lat":"13.748937","NameT":"ศาลเจ้ากวนตี้กุนอามัา"}},{"type":"Feature","geometry":{"type":"Point","coordinates":[101.3769288,13.73054875]},"properties":{"name":"ศาลเจ้าแม่ทับทิม","Long":"101.376929","Lat":"13.730549","NameT":"ศาลเจ้าแม่ทับทิม"}},{"type":"Feature","geometry":{"type":"Point","coordinates":[101.4075293,13.88252596]},"properties":{"name":"ไม่มีข้อมูล","Long":"101.407529","Lat":"13.882526","NameT":"ไม่มีข้อมูล"}},{"type":"Feature","geometry":{"type":"Point","coordinates":[101.2134798,13.47793204]},"properties":{"name":"ไม่มีข้อมูล","Long":"101.21348","Lat":"13.477932","NameT":"ไม่มีข้อมูล"}},{"type":"Feature","geometry":{"type":"Point","coordinates":[101.0998946,13.47130476]},"properties":{"name":"ศาลเจ้ากวงฮกติ๊ง","Long":"101.099895","Lat":"13.471305","NameT":"ศาลเจ้ากวงฮกติ๊ง"}},{"type":"Feature","geometry":{"type":"Point","coordinates":[101.1875239,13.45590016]},"properties":{"name":"ไม่มีข้อมูล","Long":"101.187524","Lat":"13.4559","NameT":"ไม่มีข้อมูล"}},{"type":"Feature","geometry":{"type":"Point","coordinates":[101.1788022,13.45120998]},"properties":{"name":"ไม่มีข้อมูล","Long":"101.178802","Lat":"13.45121","NameT":"ไม่มีข้อมูล"}},{"type":"Feature","geometry":{"type":"Point","coordinates":[101.1827342,13.44627434]},"properties":{"name":"ไม่มีข้อมูล","Long":"101.182734","Lat":"13.446274","NameT":"ไม่มีข้อมูล"}},{"type":"Feature","geometry":{"type":"Point","coordinates":[101.1918799,13.44030906]},"properties":{"name":"ไม่มีข้อมูล","Long":"101.19188","Lat":"13.440309","NameT":"ไม่มีข้อมูล"}},{"type":"Feature","geometry":{"type":"Point","coordinates":[101.1965521,13.43810264]},"properties":{"name":"ไม่มีข้อมูล","Long":"101.196552","Lat":"13.438103","NameT":"ไม่มีข้อมูล"}},{"type":"Feature","geometry":{"type":"Point","coordinates":[101.1404692,13.43651087]},"properties":{"name":"ไม่มีข้อมูล","Long":"101.140469","Lat":"13.436511","NameT":"ไม่มีข้อมูล"}},{"type":"Feature","geometry":{"type":"Point","coordinates":[101.0617054,13.43379995]},"properties":{"name":"ศาลเจ้าพ่อหลวงปากทาง","Long":"101.061705","Lat":"13.4338","NameT":"ศาลเจ้าพ่อหลวงปากทาง"}},{"type":"Feature","geometry":{"type":"Point","coordinates":[101.2008995,13.42950182]},"properties":{"name":"ไม่มีข้อมูล","Long":"101.2009","Lat":"13.429502","NameT":"ไม่มีข้อมูล"}},{"type":"Feature","geometry":{"type":"Point","coordinates":[101.1065163,13.42426844]},"properties":{"name":"ศาลเจ้าปุนเท่าม้า","Long":"101.106516","Lat":"13.424268","NameT":"ศาลเจ้าปุนเท่าม้า"}},{"type":"Feature","geometry":{"type":"Point","coordinates":[101.1080528,13.42426196]},"properties":{"name":"ศาลเจ้าอาเนี้ยว","Long":"101.108053","Lat":"13.424262","NameT":"ศาลเจ้าอาเนี้ยว"}},{"type":"Feature","geometry":{"type":"Point","coordinates":[101.2011659,13.42317616]},"properties":{"name":"ไม่มีข้อมูล","Long":"101.201166","Lat":"13.423176","NameT":"ไม่มีข้อมูล"}},{"type":"Feature","geometry":{"type":"Point","coordinates":[101.0639326,13.42258687]},"properties":{"name":"ศาลเจ้าพ่อปลัดพลาย","Long":"101.063933","Lat":"13.422587","NameT":"ศาลเจ้าพ่อปลัดพลาย"}},{"type":"Feature","geometry":{"type":"Point","coordinates":[101.0676817,13.41683432]},"properties":{"name":"ศาลเจ้าโหงวเฮี้ยงเจียงกุน","Long":"101.067682","Lat":"13.416834","NameT":"ศาลเจ้าโหงวเฮี้ยงเจียงกุน"}},{"type":"Feature","geometry":{"type":"Point","coordinates":[101.0444761,13.41419164]},"properties":{"name":"ไม่มีข้อมูล","Long":"101.044476","Lat":"13.414192","NameT":"ไม่มีข้อมูล"}},{"type":"Feature","geometry":{"type":"Point","coordinates":[101.2150116,13.41058]},"properties":{"name":"ไม่มีข้อมูล","Long":"101.215012","Lat":"13.41058","NameT":"ไม่มีข้อมูล"}},{"type":"Feature","geometry":{"type":"Point","coordinates":[101.1903549,13.39657298]},"properties":{"name":"ศาลเจ้าไต่แป๊ะกง","Long":"101.190355","Lat":"13.396573","NameT":"ศาลเจ้าไต่แป๊ะกง"}},{"type":"Feature","geometry":{"type":"Point","coordinates":[101.1785552,13.36552255]},"properties":{"name":"ศาลเจ้าซื้อปุยเนี้ยว","Long":"101.178555","Lat":"13.365523","NameT":"ศาลเจ้าซื้อปุยเนี้ยว"}},{"type":"Feature","geometry":{"type":"Point","coordinates":[101.1702177,13.36076584]},"properties":{"name":"ศาลเจ้าน่ำเท่ยนมึ่งไต่เซียฮุดโจ้ว","Long":"101.170218","Lat":"13.360766","NameT":"ศาลเจ้าน่ำเท่ยนมึ่งไต่เซียฮุดโจ้ว"}},{"type":"Feature","geometry":{"type":"Point","coordinates":[101.0713846,13.35564249]},"properties":{"name":"ไม่มีข้อมูล","Long":"101.071385","Lat":"13.355642","NameT":"ไม่มีข้อมูล"}},{"type":"Feature","geometry":{"type":"Point","coordinates":[101.2254795,13.35274883]},"properties":{"name":"ศาลเจ้าหลักเซียนโกว","Long":"101.22548","Lat":"13.352749","NameT":"ศาลเจ้าหลักเซียนโกว"}},{"type":"Feature","geometry":{"type":"Point","coordinates":[101.082061,13.35036056]},"properties":{"name":"ไม่มีข้อมูล","Long":"101.082061","Lat":"13.350361","NameT":"ไม่มีข้อมูล"}},{"type":"Feature","geometry":{"type":"Point","coordinates":[101.1546129,13.34479723]},"properties":{"name":"ศาลเจ้าแป๊ะกง","Long":"101.154613","Lat":"13.344797","NameT":"ศาลเจ้าแป๊ะกง"}},{"type":"Feature","geometry":{"type":"Point","coordinates":[101.0488178,13.33935472]},"properties":{"name":"ไม่มีข้อมูล","Long":"101.048818","Lat":"13.339355","NameT":"ไม่มีข้อมูล"}},{"type":"Feature","geometry":{"type":"Point","coordinates":[101.0826993,13.32813657]},"properties":{"name":"ไม่มีข้อมูล","Long":"101.082699","Lat":"13.328137","NameT":"ไม่มีข้อมูล"}},{"type":"Feature","geometry":{"type":"Point","coordinates":[101.1830792,13.32437743]},"properties":{"name":"ศาลเจ้าเม่งเสียงเซียงตั๊ว","Long":"101.183079","Lat":"13.324377","NameT":"ศาลเจ้าเม่งเสียงเซียงตั๊ว"}},{"type":"Feature","geometry":{"type":"Point","coordinates":[101.0302068,13.32290653]},"properties":{"name":"ไม่มีข้อมูล","Long":"101.030207","Lat":"13.322907","NameT":"ไม่มีข้อมูล"}},{"type":"Feature","geometry":{"type":"Point","coordinates":[101.0346882,13.31392197]},"properties":{"name":"ศาลเจ้าพ่อลิง","Long":"101.034688","Lat":"13.313922","NameT":"ศาลเจ้าพ่อลิง"}},{"type":"Feature","geometry":{"type":"Point","coordinates":[101.1163678,13.31251962]},"properties":{"name":"ไม่มีข้อมูล","Long":"101.116368","Lat":"13.31252","NameT":"ไม่มีข้อมูล"}},{"type":"Feature","geometry":{"type":"Point","coordinates":[101.1134846,13.31083137]},"properties":{"name":"ไม่มีข้อมูล","Long":"101.113485","Lat":"13.310831","NameT":"ไม่มีข้อมูล"}},{"type":"Feature","geometry":{"type":"Point","coordinates":[101.1184362,13.30952968]},"properties":{"name":"ไม่มีข้อมูล","Long":"101.118436","Lat":"13.30953","NameT":"ไม่มีข้อมูล"}},{"type":"Feature","geometry":{"type":"Point","coordinates":[101.1149223,13.30945266]},"properties":{"name":"ไม่มีข้อมูล","Long":"101.114922","Lat":"13.309453","NameT":"ไม่มีข้อมูล"}},{"type":"Feature","geometry":{"type":"Point","coordinates":[101.1279884,13.30623062]},"properties":{"name":"ศาลเจ้าซาก๊กเอี้ย","Long":"101.127988","Lat":"13.306231","NameT":"ศาลเจ้าซาก๊กเอี้ย"}},{"type":"Feature","geometry":{"type":"Point","coordinates":[101.2075502,13.30390131]},"properties":{"name":"ศาลเจ้าฮกเต็กไต้ตี","Long":"101.20755","Lat":"13.303901","NameT":"ศาลเจ้าฮกเต็กไต้ตี"}},{"type":"Feature","geometry":{"type":"Point","coordinates":[101.0933896,13.292199]},"properties":{"name":"ศาลเจ้าแป๊ะกง","Long":"101.09339","Lat":"13.292199","NameT":"ศาลเจ้าแป๊ะกง"}},{"type":"Feature","geometry":{"type":"Point","coordinates":[101.1724831,13.28630426]},"properties":{"name":"ศาลเจ้าซำไชส่าย","Long":"101.172483","Lat":"13.286304","NameT":"ศาลเจ้าซำไชส่าย"}},{"type":"Feature","geometry":{"type":"Point","coordinates":[101.2331818,13.28063578]},"properties":{"name":"ศาลเจ้าพ่อเสือ","Long":"101.233182","Lat":"13.280636","NameT":"ศาลเจ้าพ่อเสือ"}},{"type":"Feature","geometry":{"type":"Point","coordinates":[101.1243436,13.2783967]},"properties":{"name":"ศาลเจ้าแป๊ะกง","Long":"101.124344","Lat":"13.278397","NameT":"ศาลเจ้าแป๊ะกง"}},{"type":"Feature","geometry":{"type":"Point","coordinates":[101.2139188,13.27254183]},"properties":{"name":"ศาลเจ้าหลวงเตี่ยอ่างเวียน","Long":"101.213919","Lat":"13.272542","NameT":"ศาลเจ้าหลวงเตี่ยอ่างเวียน"}},{"type":"Feature","geometry":{"type":"Point","coordinates":[101.2180815,13.26499701]},"properties":{"name":"ศาลเจ้าหลวงเตี่ย","Long":"101.218082","Lat":"13.264997","NameT":"ศาลเจ้าหลวงเตี่ย"}},{"type":"Feature","geometry":{"type":"Point","coordinates":[101.155154,13.25290717]},"properties":{"name":"ศาลเจ้าก่ำเทียนไตตี้","Long":"101.155154","Lat":"13.252907","NameT":"ศาลเจ้าก่ำเทียนไตตี้"}},{"type":"Feature","geometry":{"type":"Point","coordinates":[101.158485,13.25123228]},"properties":{"name":"ไม่มีข้อมูล","Long":"101.158485","Lat":"13.251232","NameT":"ไม่มีข้อมูล"}},{"type":"Feature","geometry":{"type":"Point","coordinates":[101.1483326,13.2450213]},"properties":{"name":"ศาลเจ้าแปะกง","Long":"101.148333","Lat":"13.245021","NameT":"ศาลเจ้าแปะกง"}},{"type":"Feature","geometry":{"type":"Point","coordinates":[101.006167,13.23723645]},"properties":{"name":"ศาลเจ้าเจียวกัวแป๊ะกอ","Long":"101.006167","Lat":"13.237236","NameT":"ศาลเจ้าเจียวกัวแป๊ะกอ"}},{"type":"Feature","geometry":{"type":"Point","coordinates":[101.1313341,13.23602735]},"properties":{"name":"ศาลเจ้าแปะกง","Long":"101.131334","Lat":"13.236027","NameT":"ศาลเจ้าแปะกง"}},{"type":"Feature","geometry":{"type":"Point","coordinates":[101.1162408,13.23178082]},"properties":{"name":"ศาลเจ้านิ่วโท้วแปะกง","Long":"101.116241","Lat":"13.231781","NameT":"ศาลเจ้านิ่วโท้วแปะกง"}},{"type":"Feature","geometry":{"type":"Point","coordinates":[101.1618718,13.2164133]},"properties":{"name":"ศาลพระแม่กวนอิม","Long":"101.161872","Lat":"13.216413","NameT":"ศาลพระแม่กวนอิม"}},{"type":"Feature","geometry":{"type":"Point","coordinates":[101.248364,13.20047592]},"properties":{"name":"ศาลเจ้าชำไชช่วย","Long":"101.248364","Lat":"13.200476","NameT":"ศาลเจ้าชำไชช่วย"}},{"type":"Feature","geometry":{"type":"Point","coordinates":[101.245021,13.19991002]},"properties":{"name":"ศาลเจ้าอวโลถิเตศวร","Long":"101.245021","Lat":"13.19991","NameT":"ศาลเจ้าอวโลถิเตศวร"}},{"type":"Feature","geometry":{"type":"Point","coordinates":[101.2490121,13.19532054]},"properties":{"name":"ไม่มีข้อมูล","Long":"101.249012","Lat":"13.195321","NameT":"ไม่มีข้อมูล"}},{"type":"Feature","geometry":{"type":"Point","coordinates":[101.195383,13.19533056]},"properties":{"name":"ศาลพระแม่กวนอิม","Long":"101.195383","Lat":"13.195331","NameT":"ศาลพระแม่กวนอิม"}},{"type":"Feature","geometry":{"type":"Point","coordinates":[101.1944195,13.19071053]},"properties":{"name":"ศาลแปะกง","Long":"101.19442","Lat":"13.190711","NameT":"ศาลแปะกง"}},{"type":"Feature","geometry":{"type":"Point","coordinates":[101.0229711,13.1915083]},"properties":{"name":"ศาลเจ้าพ่อกวนอู","Long":"101.022971","Lat":"13.191508","NameT":"ศาลเจ้าพ่อกวนอู"}},{"type":"Feature","geometry":{"type":"Point","coordinates":[101.0048192,13.095318]},"properties":{"name":"ศาลเจ้าเต้เซียนฮุดโจ้วกงเล่าฮุด (สมเด็จพระพุทธมารวิชัย)","Long":"101.004819","Lat":"13.095318","NameT":"ศาลเจ้าเต้เซียนฮุดโจ้วกงเล่าฮุด (สมเด็จพระพุทธมารวิชัย)"}},{"type":"Feature","geometry":{"type":"Point","coordinates":[101.2097374,13.08699583]},"properties":{"name":"ศาลเจ้าแปะกง","Long":"101.209737","Lat":"13.086996","NameT":"ศาลเจ้าแปะกง"}},{"type":"Feature","geometry":{"type":"Point","coordinates":[101.0021568,13.07850152]},"properties":{"name":"ศาลเจ้าแปะกง","Long":"101.002157","Lat":"13.078502","NameT":"ศาลเจ้าแปะกง"}},{"type":"Feature","geometry":{"type":"Point","coordinates":[101.1974409,13.05806788]},"properties":{"name":"ศาลจอมพลเจ้าพระยาสุรศักดิ์มนตรี","Long":"101.197441","Lat":"13.058068","NameT":"ศาลจอมพลเจ้าพระยาสุรศักดิ์มนตรี"}},{"type":"Feature","geometry":{"type":"Point","coordinates":[101.1994249,13.05444942]},"properties":{"name":"ศาลเจ้าแปะกง","Long":"101.199425","Lat":"13.054449","NameT":"ศาลเจ้าแปะกง"}},{"type":"Feature","geometry":{"type":"Point","coordinates":[101.2972892,13.23790836]},"properties":{"name":"ศาลเจ้าโนทยาน","Long":"101.297289","Lat":"13.237908","NameT":"ศาลเจ้าโนทยาน"}},{"type":"Feature","geometry":{"type":"Point","coordinates":[101.3260093,13.2140578]},"properties":{"name":"ไม่มีข้อมูล","Long":"101.326009","Lat":"13.214058","NameT":"ไม่มีข้อมูล"}},{"type":"Feature","geometry":{"type":"Point","coordinates":[101.3559089,13.21094924]},"properties":{"name":"ศาลเจ้าพ่อไฮ้เล้งฮ๊วง","Long":"101.355909","Lat":"13.210949","NameT":"ศาลเจ้าพ่อไฮ้เล้งฮ๊วง"}},{"type":"Feature","geometry":{"type":"Point","coordinates":[101.4626205,13.19641278]},"properties":{"name":"ศาลเจ้าตั้งแปะกง","Long":"101.462621","Lat":"13.196413","NameT":"ศาลเจ้าตั้งแปะกง"}},{"type":"Feature","geometry":{"type":"Point","coordinates":[101.259577,13.19805486]},"properties":{"name":"ศาลเจ้าป่ายุบ","Long":"101.259577","Lat":"13.198055","NameT":"ศาลเจ้าป่ายุบ"}},{"type":"Feature","geometry":{"type":"Point","coordinates":[101.4076867,13.16374483]},"properties":{"name":"ศาลเจ้าแม่กวนอิม","Long":"101.407687","Lat":"13.163745","NameT":"ศาลเจ้าแม่กวนอิม"}},{"type":"Feature","geometry":{"type":"Point","coordinates":[101.3780847,13.15461877]},"properties":{"name":"ศาลเจ้าพ่อทองคำ","Long":"101.378085","Lat":"13.154619","NameT":"ศาลเจ้าพ่อทองคำ"}},{"type":"Feature","geometry":{"type":"Point","coordinates":[101.3381638,13.13613656]},"properties":{"name":"ศาลเจ้ากิมอ้วงเอี้ย","Long":"101.338164","Lat":"13.136137","NameT":"ศาลเจ้ากิมอ้วงเอี้ย"}},{"type":"Feature","geometry":{"type":"Point","coordinates":[101.347881,13.13535051]},"properties":{"name":"ไม่มีข้อมูล","Long":"101.347881","Lat":"13.135351","NameT":"ไม่มีข้อมูล"}},{"type":"Feature","geometry":{"type":"Point","coordinates":[101.4141643,13.1097091]},"properties":{"name":"ศาลเจ้าฮกเต็กแป๊ะกง","Long":"101.414164","Lat":"13.109709","NameT":"ศาลเจ้าฮกเต็กแป๊ะกง"}},{"type":"Feature","geometry":{"type":"Point","coordinates":[101.4102311,13.1091892]},"properties":{"name":"ศาลเจ้าซาเซียงกุง","Long":"101.410231","Lat":"13.109189","NameT":"ศาลเจ้าซาเซียงกุง"}},{"type":"Feature","geometry":{"type":"Point","coordinates":[101.3978526,13.41356575]},"properties":{"name":"ศาลเจ้าเจียวแปะกง","Long":"101.397853","Lat":"13.413566","NameT":"ศาลเจ้าเจียวแปะกง"}},{"type":"Feature","geometry":{"type":"Point","coordinates":[101.2846621,13.38650463]},"properties":{"name":"ศาลเจ้าเจียวตีกงเกาะโพธิ์","Long":"101.284662","Lat":"13.386505","NameT":"ศาลเจ้าเจียวตีกงเกาะโพธิ์"}},{"type":"Feature","geometry":{"type":"Point","coordinates":[101.3201382,13.38571935]},"properties":{"name":"ศาลเจ้าหลวยเตี้ย","Long":"101.320138","Lat":"13.385719","NameT":"ศาลเจ้าหลวยเตี้ย"}},{"type":"Feature","geometry":{"type":"Point","coordinates":[101.3397823,13.38443415]},"properties":{"name":"ศาลเจ้าเม้งหงษ์เปียว","Long":"101.339782","Lat":"13.384434","NameT":"ศาลเจ้าเม้งหงษ์เปียว"}},{"type":"Feature","geometry":{"type":"Point","coordinates":[101.3960985,13.29114079]},"properties":{"name":"ศาลพระแม่กวนอิมโพธิสัตว์","Long":"101.396098","Lat":"13.291141","NameT":"ศาลพระแม่กวนอิมโพธิสัตว์"}},{"type":"Feature","geometry":{"type":"Point","coordinates":[101.4373367,13.28487926]},"properties":{"name":"ศาลเจ้าน่ำเท่ยนไต่ตี้กง","Long":"101.437337","Lat":"13.284879","NameT":"ศาลเจ้าน่ำเท่ยนไต่ตี้กง"}},{"type":"Feature","geometry":{"type":"Point","coordinates":[101.3043996,13.26031213]},"properties":{"name":"ศาลเจ้าแป๊ะกง","Long":"101.3044","Lat":"13.260312","NameT":"ศาลเจ้าแป๊ะกง"}},{"type":"Feature","geometry":{"type":"Point","coordinates":[101.0314133,12.79326967]},"properties":{"name":"ศาลหลวงเตี่ยชากหมาก","Long":"101.031413","Lat":"12.79327","NameT":"ศาลหลวงเตี่ยชากหมาก"}},{"type":"Feature","geometry":{"type":"Point","coordinates":[101.011923,12.72951272]},"properties":{"name":"ศาลเจ้าพยัคฆ์ดารา","Long":"101.011923","Lat":"12.729513","NameT":"ศาลเจ้าพยัคฆ์ดารา"}},{"type":"Feature","geometry":{"type":"Point","coordinates":[101.3299794,12.70894539]},"properties":{"name":"ศาลเจ้านาตาขวัญ","Long":"101.329979","Lat":"12.708945","NameT":"ศาลเจ้านาตาขวัญ"}},{"type":"Feature","geometry":{"type":"Point","coordinates":[101.336512,12.69352412]},"properties":{"name":"ศาลเจ้าปุญเท่ากงเบี้ยว","Long":"101.336512","Lat":"12.693524","NameT":"ศาลเจ้าปุญเท่ากงเบี้ยว"}},{"type":"Feature","geometry":{"type":"Point","coordinates":[101.2769878,12.68134177]},"properties":{"name":"ไม่มีข้อมูล","Long":"101.276988","Lat":"12.681342","NameT":"ไม่มีข้อมูล"}},{"type":"Feature","geometry":{"type":"Point","coordinates":[101.2828234,12.67947959]},"properties":{"name":"ไม่มีข้อมูล","Long":"101.282823","Lat":"12.67948","NameT":"ไม่มีข้อมูล"}},{"type":"Feature","geometry":{"type":"Point","coordinates":[101.2788679,12.67905448]},"properties":{"name":"ไม่มีข้อมูล","Long":"101.278868","Lat":"12.679054","NameT":"ไม่มีข้อมูล"}},{"type":"Feature","geometry":{"type":"Point","coordinates":[101.2606314,12.66167838]},"properties":{"name":"ศาลเจ้าแม่ไสว","Long":"101.260631","Lat":"12.661678","NameT":"ศาลเจ้าแม่ไสว"}},{"type":"Feature","geometry":{"type":"Point","coordinates":[101.2761016,12.65679955]},"properties":{"name":"ศาลเจ้าแม่รำพึง","Long":"101.276102","Lat":"12.6568","NameT":"ศาลเจ้าแม่รำพึง"}},{"type":"Feature","geometry":{"type":"Point","coordinates":[101.341194,12.63314292]},"properties":{"name":"ศาลเจ้าแม่รำพึง","Long":"101.341194","Lat":"12.633143","NameT":"ศาลเจ้าแม่รำพึง"}},{"type":"Feature","geometry":{"type":"Point","coordinates":[101.4976294,12.62891993]},"properties":{"name":"ศาลเจ้าพ่อโต๊ะกง","Long":"101.497629","Lat":"12.62892","NameT":"ศาลเจ้าพ่อโต๊ะกง"}},{"type":"Feature","geometry":{"type":"Point","coordinates":[101.4645991,12.57414478]},"properties":{"name":"ศาลเจ้าแม่ทับทิมทอง","Long":"101.464599","Lat":"12.574145","NameT":"ศาลเจ้าแม่ทับทิมทอง"}},{"type":"Feature","geometry":{"type":"Point","coordinates":[101.4637278,12.57333785]},"properties":{"name":"ศาลเจ้าพ่อปู่ดำ","Long":"101.463728","Lat":"12.573338","NameT":"ศาลเจ้าพ่อปู่ดำ"}},{"type":"Feature","geometry":{"type":"Point","coordinates":[101.284681,12.98177146]},"properties":{"name":"ศาลเจ้าหลวงเตี่ย","Long":"101.284681","Lat":"12.981771","NameT":"ศาลเจ้าหลวงเตี่ย"}},{"type":"Feature","geometry":{"type":"Point","coordinates":[101.386435,12.92709921]},"properties":{"name":"ศาลเจ้าหลวงเตี่ย","Long":"101.386435","Lat":"12.927099","NameT":"ศาลเจ้าหลวงเตี่ย"}},{"type":"Feature","geometry":{"type":"Point","coordinates":[101.4815459,12.89085467]},"properties":{"name":"ศาลเจ้าหลวงเตี่ย","Long":"101.481546","Lat":"12.890855","NameT":"ศาลเจ้าหลวงเตี่ย"}},{"type":"Feature","geometry":{"type":"Point","coordinates":[101.4125088,12.8551725]},"properties":{"name":"ศาลเจ้าพ่อหลวงเตี่ย","Long":"101.412509","Lat":"12.855173","NameT":"ศาลเจ้าพ่อหลวงเตี่ย"}},{"type":"Feature","geometry":{"type":"Point","coordinates":[101.4864133,12.80031734]},"properties":{"name":"ศาลเจ้าไร่จันดี","Long":"101.486413","Lat":"12.800317","NameT":"ศาลเจ้าไร่จันดี"}},{"type":"Feature","geometry":{"type":"Point","coordinates":[101.2968552,12.78469217]},"properties":{"name":"ศาลเจ้าหลวงเตี่ยไหหลำ","Long":"101.296855","Lat":"12.784692","NameT":"ศาลเจ้าหลวงเตี่ยไหหลำ"}},{"type":"Feature","geometry":{"type":"Point","coordinates":[101.4146362,12.78291524]},"properties":{"name":"ศาลเจ้าหลวงเตี่ย","Long":"101.414636","Lat":"12.782915","NameT":"ศาลเจ้าหลวงเตี่ย"}},{"type":"Feature","geometry":{"type":"Point","coordinates":[101.2914969,12.76096517]},"properties":{"name":"ศาลเจ้าแม่หลักเมือง","Long":"101.291497","Lat":"12.760965","NameT":"ศาลเจ้าแม่หลักเมือง"}},{"type":"Feature","geometry":{"type":"Point","coordinates":[100.9827194,13.50809207]},"properties":{"name":"ศาลเจ้าพ่อโกมันทร์","Long":"100.982719","Lat":"13.508092","NameT":"ศาลเจ้าพ่อโกมันทร์"}},{"type":"Feature","geometry":{"type":"Point","coordinates":[100.9421842,13.21125289]},"properties":{"name":"ไม่มีข้อมูล","Long":"100.942184","Lat":"13.211253","NameT":"ไม่มีข้อมูล"}},{"type":"Feature","geometry":{"type":"Point","coordinates":[100.8060679,13.16950565]},"properties":{"name":"ศาลเจ้าพ่อเขาใหญ่","Long":"100.806068","Lat":"13.169506","NameT":"ศาลเจ้าพ่อเขาใหญ่"}},{"type":"Feature","geometry":{"type":"Point","coordinates":[100.8073618,13.16650632]},"properties":{"name":"ไม่มีข้อมูล","Long":"100.807362","Lat":"13.166506","NameT":"ไม่มีข้อมูล"}},{"type":"Feature","geometry":{"type":"Point","coordinates":[100.923383,13.1650046]},"properties":{"name":"ไม่มีข้อมูล","Long":"100.923383","Lat":"13.165005","NameT":"ไม่มีข้อมูล"}},{"type":"Feature","geometry":{"type":"Point","coordinates":[100.9238295,13.16377292]},"properties":{"name":"ไม่มีข้อมูล","Long":"100.92383","Lat":"13.163773","NameT":"ไม่มีข้อมูล"}},{"type":"Feature","geometry":{"type":"Point","coordinates":[100.9316782,13.15415949]},"properties":{"name":"ศาลเจ้าเพียวเมี้ยงไท้ศรีราชา","Long":"100.931678","Lat":"13.154159","NameT":"ศาลเจ้าเพียวเมี้ยงไท้ศรีราชา"}},{"type":"Feature","geometry":{"type":"Point","coordinates":[100.9859033,13.39844883]},"properties":{"name":"ศาลเจ้าหัวหิน","Long":"100.985903","Lat":"13.398449","NameT":"ศาลเจ้าหัวหิน"}},{"type":"Feature","geometry":{"type":"Point","coordinates":[100.9882043,13.37667013]},"properties":{"name":"ไม่มีข้อมูล","Long":"100.988204","Lat":"13.37667","NameT":"ไม่มีข้อมูล"}},{"type":"Feature","geometry":{"type":"Point","coordinates":[100.986421,13.36879239]},"properties":{"name":"ไม่มีข้อมูล","Long":"100.986421","Lat":"13.368792","NameT":"ไม่มีข้อมูล"}},{"type":"Feature","geometry":{"type":"Point","coordinates":[100.9870302,13.36839341]},"properties":{"name":"ไม่มีข้อมูล","Long":"100.98703","Lat":"13.368393","NameT":"ไม่มีข้อมูล"}},{"type":"Feature","geometry":{"type":"Point","coordinates":[100.9956567,13.36822175]},"properties":{"name":"ไม่มีข้อมูล","Long":"100.995657","Lat":"13.368222","NameT":"ไม่มีข้อมูล"}},{"type":"Feature","geometry":{"type":"Point","coordinates":[100.9960121,13.36791427]},"properties":{"name":"ไม่มีข้อมูล","Long":"100.996012","Lat":"13.367914","NameT":"ไม่มีข้อมูล"}},{"type":"Feature","geometry":{"type":"Point","coordinates":[100.9952645,13.36782876]},"properties":{"name":"ไม่มีข้อมูล","Long":"100.995265","Lat":"13.367829","NameT":"ไม่มีข้อมูล"}},{"type":"Feature","geometry":{"type":"Point","coordinates":[100.9946555,13.36755934]},"properties":{"name":"ไม่มีข้อมูล","Long":"100.994655","Lat":"13.367559","NameT":"ไม่มีข้อมูล"}},{"type":"Feature","geometry":{"type":"Point","coordinates":[100.9943438,13.36750086]},"properties":{"name":"ไม่มีข้อมูล","Long":"100.994344","Lat":"13.367501","NameT":"ไม่มีข้อมูล"}},{"type":"Feature","geometry":{"type":"Point","coordinates":[100.9866854,13.36695882]},"properties":{"name":"ไม่มีข้อมูล","Long":"100.986685","Lat":"13.366959","NameT":"ไม่มีข้อมูล"}},{"type":"Feature","geometry":{"type":"Point","coordinates":[100.927877,13.34023816]},"properties":{"name":"ไม่มีข้อมูล","Long":"100.927877","Lat":"13.340238","NameT":"ไม่มีข้อมูล"}},{"type":"Feature","geometry":{"type":"Point","coordinates":[100.9295651,13.33754588]},"properties":{"name":"ไม่มีข้อมูล","Long":"100.929565","Lat":"13.337546","NameT":"ไม่มีข้อมูล"}},{"type":"Feature","geometry":{"type":"Point","coordinates":[100.9746395,13.33000843]},"properties":{"name":"ศาลเจ้าพ่อเสือ","Long":"100.974639","Lat":"13.330008","NameT":"ศาลเจ้าพ่อเสือ"}},{"type":"Feature","geometry":{"type":"Point","coordinates":[100.9233863,13.32857154]},"properties":{"name":"ศาลเจ้าเหล่าซาจาไห้จือ","Long":"100.923386","Lat":"13.328572","NameT":"ศาลเจ้าเหล่าซาจาไห้จือ"}},{"type":"Feature","geometry":{"type":"Point","coordinates":[100.9432164,13.31743808]},"properties":{"name":"ไม่มีข้อมูล","Long":"100.943216","Lat":"13.317438","NameT":"ไม่มีข้อมูล"}},{"type":"Feature","geometry":{"type":"Point","coordinates":[100.9036152,13.31653643]},"properties":{"name":"ศาลเจ้าแม่เขาสามมุข","Long":"100.903615","Lat":"13.316536","NameT":"ศาลเจ้าแม่เขาสามมุข"}},{"type":"Feature","geometry":{"type":"Point","coordinates":[100.912292,13.31165922]},"properties":{"name":"ศาลธรรมวาที","Long":"100.912292","Lat":"13.311659","NameT":"ศาลธรรมวาที"}},{"type":"Feature","geometry":{"type":"Point","coordinates":[100.9095387,13.3096551]},"properties":{"name":"ศาลเจ้าพ่อหน้าทอง","Long":"100.909539","Lat":"13.309655","NameT":"ศาลเจ้าพ่อหน้าทอง"}},{"type":"Feature","geometry":{"type":"Point","coordinates":[100.9123601,13.30779536]},"properties":{"name":"ศาลเจ้าปุนเถ้าคงโรงเรียนสามมุขคริสเตียนวิทยา","Long":"100.91236","Lat":"13.307795","NameT":"ศาลเจ้าปุนเถ้าคงโรงเรียนสามมุขคริสเตียนวิทยา"}},{"type":"Feature","geometry":{"type":"Point","coordinates":[100.8996716,13.30241771]},"properties":{"name":"ศาลเจ้าปุ่นเถ้ากงม้า","Long":"100.899672","Lat":"13.302418","NameT":"ศาลเจ้าปุ่นเถ้ากงม้า"}},{"type":"Feature","geometry":{"type":"Point","coordinates":[100.9786257,13.28678664]},"properties":{"name":"ศาลเจ้าพ่อกวงตี้กุง","Long":"100.978626","Lat":"13.286787","NameT":"ศาลเจ้าพ่อกวงตี้กุง"}},{"type":"Feature","geometry":{"type":"Point","coordinates":[100.9364227,13.28172694]},"properties":{"name":"ไม่มีข้อมูล","Long":"100.936423","Lat":"13.281727","NameT":"ไม่มีข้อมูล"}},{"type":"Feature","geometry":{"type":"Point","coordinates":[100.9672466,13.27750242]},"properties":{"name":"ศาลเจ้าหลวงปู่พระพรหม","Long":"100.967247","Lat":"13.277502","NameT":"ศาลเจ้าหลวงปู่พระพรหม"}},{"type":"Feature","geometry":{"type":"Point","coordinates":[100.9940788,13.27537972]},"properties":{"name":"ศาลแป๊ะกง","Long":"100.994079","Lat":"13.27538","NameT":"ศาลแป๊ะกง"}},{"type":"Feature","geometry":{"type":"Point","coordinates":[100.9254992,13.26738375]},"properties":{"name":"ศาลเจ้าพ่อสุวรรณลองล่อง","Long":"100.925499","Lat":"13.267384","NameT":"ศาลเจ้าพ่อสุวรรณลองล่อง"}},{"type":"Feature","geometry":{"type":"Point","coordinates":[100.6775049,12.93688165]},"properties":{"name":"ไม่มีข้อมูล","Long":"100.677505","Lat":"12.936882","NameT":"ไม่มีข้อมูล"}},{"type":"Feature","geometry":{"type":"Point","coordinates":[100.9765883,12.68880774]},"properties":{"name":"ศาลเจ้าแม่กวนอิม","Long":"100.976588","Lat":"12.688808","NameT":"ศาลเจ้าแม่กวนอิม"}},{"type":"Feature","geometry":{"type":"Point","coordinates":[100.9001129,12.66288174]},"properties":{"name":"ไม่มีข้อมูล","Long":"100.900113","Lat":"12.662882","NameT":"ไม่มีข้อมูล"}},{"type":"Feature","geometry":{"type":"Point","coordinates":[100.9629411,12.59615318]},"properties":{"name":"วิหารหลวงพ่อดำ","Long":"100.962941","Lat":"12.596153","NameT":"วิหารหลวงพ่อดำ"}},{"type":"Feature","geometry":{"type":"Point","coordinates":[100.9109504,12.97697456]},"properties":{"name":"ไม่มีข้อมูล","Long":"100.91095","Lat":"12.976975","NameT":"ไม่มีข้อมูล"}},{"type":"Feature","geometry":{"type":"Point","coordinates":[100.9086438,12.9749774]},"properties":{"name":"ไม่มีข้อมูล","Long":"100.908644","Lat":"12.974977","NameT":"ไม่มีข้อมูล"}},{"type":"Feature","geometry":{"type":"Point","coordinates":[100.9092933,12.97473214]},"properties":{"name":"ไม่มีข้อมูล","Long":"100.909293","Lat":"12.974732","NameT":"ไม่มีข้อมูล"}},{"type":"Feature","geometry":{"type":"Point","coordinates":[100.9093912,12.97048582]},"properties":{"name":"ไม่มีข้อมูล","Long":"100.909391","Lat":"12.970486","NameT":"ไม่มีข้อมูล"}},{"type":"Feature","geometry":{"type":"Point","coordinates":[100.7885144,12.92306615]},"properties":{"name":"ศาลเจ้าแม่ชีวิต","Long":"100.788514","Lat":"12.923066","NameT":"ศาลเจ้าแม่ชีวิต"}},{"type":"Feature","geometry":{"type":"Point","coordinates":[100.7844726,12.9199889]},"properties":{"name":"ศาลเจ้าพ่อดำ","Long":"100.784473","Lat":"12.919989","NameT":"ศาลเจ้าพ่อดำ"}},{"type":"Feature","geometry":{"type":"Point","coordinates":[100.9680767,12.83309846]},"properties":{"name":"ศาลเจ้าแม่ทับทิม","Long":"100.968077","Lat":"12.833098","NameT":"ศาลเจ้าแม่ทับทิม"}},{"type":"Feature","geometry":{"type":"Point","coordinates":[100.9129984,12.8149884]},"properties":{"name":"ศาลเจ้าแม่ฝอยทอง","Long":"100.912998","Lat":"12.814988","NameT":"ศาลเจ้าแม่ฝอยทอง"}},{"type":"Feature","geometry":{"type":"Point","coordinates":[102.0817597,13.6597423]},"properties":{"name":"ศาลสมเด็จพระนเรศวรมหาราช","Long":"102.08176","Lat":"13.659742","NameT":"ศาลสมเด็จพระนเรศวรมหาราช"}},{"type":"Feature","geometry":{"type":"Point","coordinates":[102.176148,13.51925029]},"properties":{"name":"ศาลหลักเมืองวังน้ำเย็น","Long":"102.176148","Lat":"13.51925","NameT":"ศาลหลักเมืองวังน้ำเย็น"}},{"type":"Feature","geometry":{"type":"Point","coordinates":[102.1923972,13.36388403]},"properties":{"name":"ศาลเจ้าพ่อเจ้าแม่วังสมบูรณ์","Long":"102.192397","Lat":"13.363884","NameT":"ศาลเจ้าพ่อเจ้าแม่วังสมบูรณ์"}},{"type":"Feature","geometry":{"type":"Point","coordinates":[102.212436,13.12407238]},"properties":{"name":"ศาลเจ้าปะตง","Long":"102.212436","Lat":"13.124072","NameT":"ศาลเจ้าปะตง"}},{"type":"Feature","geometry":{"type":"Point","coordinates":[102.0164654,12.63345302]},"properties":{"name":"ศาลเจ้าอาเนียว","Long":"102.016465","Lat":"12.633453","NameT":"ศาลเจ้าอาเนียว"}},{"type":"Feature","geometry":{"type":"Point","coordinates":[102.0077842,12.62137221]},"properties":{"name":"ไม่มีข้อมูล","Long":"102.007784","Lat":"12.621372","NameT":"ไม่มีข้อมูล"}},{"type":"Feature","geometry":{"type":"Point","coordinates":[102.1047832,12.62233268]},"properties":{"name":"ไม่มีข้อมูล","Long":"102.104783","Lat":"12.622333","NameT":"ไม่มีข้อมูล"}},{"type":"Feature","geometry":{"type":"Point","coordinates":[102.0972627,12.6188463]},"properties":{"name":"ศาลเจ้า (สมาคมตั้งตระกูล)","Long":"102.097263","Lat":"12.618846","NameT":"ศาลเจ้า (สมาคมตั้งตระกูล)"}},{"type":"Feature","geometry":{"type":"Point","coordinates":[102.1099929,12.6164395]},"properties":{"name":"ไม่มีข้อมูล","Long":"102.109993","Lat":"12.61644","NameT":"ไม่มีข้อมูล"}},{"type":"Feature","geometry":{"type":"Point","coordinates":[102.1107575,12.61627722]},"properties":{"name":"ไม่มีข้อมูล","Long":"102.110758","Lat":"12.616277","NameT":"ไม่มีข้อมูล"}},{"type":"Feature","geometry":{"type":"Point","coordinates":[102.0273956,12.60822824]},"properties":{"name":"ศาลเจ้าพ่อหนองจอก","Long":"102.027396","Lat":"12.608228","NameT":"ศาลเจ้าพ่อหนองจอก"}},{"type":"Feature","geometry":{"type":"Point","coordinates":[102.1118845,12.60749259]},"properties":{"name":"ศาลเจ้าเม่งหวี่ตั้ว","Long":"102.111885","Lat":"12.607493","NameT":"ศาลเจ้าเม่งหวี่ตั้ว"}},