{"type":"FeatureCollection","features":[{"type":"Feature","geometry":{"type":"Point","coordinates":[99.51389021,16.51689163]},"properties":{"name":"เรือนจำกลางกำแพงเพชร","Long":"99.51389","Lat":"16.516892","NameT":"เรือนจำกลางกำแพงเพชร","NameE":"KAMPHAENG PHET CENTRAL PRISON"}},{"type":"Feature","geometry":{"type":"Point","coordinates":[102.8494999,16.43059477]},"properties":{"name":"เรือนจำกลางขอนแก่น","Long":"102.8495","Lat":"16.430595","NameT":"เรือนจำกลางขอนแก่น","NameE":"KHON KAEN CENTRAL PRISON"}},{"type":"Feature","geometry":{"type":"Point","coordinates":[100.5572697,13.84567494]},"properties":{"name":"เรือนจำกลางคลองเปรม","Long":"100.55727","Lat":"13.845675","NameT":"เรือนจำกลางคลองเปรม","NameE":"KHLONG PREM CENTRAL PRISON"}},{"type":"Feature","geometry":{"type":"Point","coordinates":[101.5742525,14.869541]},"properties":{"name":"เรือนจำกลางคลองไผ่","Long":"101.574253","Lat":"14.869541","NameT":"เรือนจำกลางคลองไผ่","NameE":"KHLONG PHAI CENTRAL PRISON"}},{"type":"Feature","geometry":{"type":"Point","coordinates":[101.0749847,13.68259522]},"properties":{"name":"เรือนจำกลางฉะเชิงเทรา","Long":"101.074985","Lat":"13.682595","NameT":"เรือนจำกลางฉะเชิงเทรา","NameE":"CHACHOENGSAO CENTRAL PRISON"}},{"type":"Feature","geometry":{"type":"Point","coordinates":[100.9819697,13.35167163]},"properties":{"name":"เรือนจำกลางชลบุรี","Long":"100.98197","Lat":"13.351672","NameT":"เรือนจำกลางชลบุรี","NameE":"CHON BURI CENTRAL PRISON"}},{"type":"Feature","geometry":{"type":"Point","coordinates":[98.97727861,18.83952255]},"properties":{"name":"เรือนจำกลางเชียงใหม่","Long":"98.977279","Lat":"18.839523","NameT":"เรือนจำกลางเชียงใหม่","NameE":"CHIANG MAI CENTRAL PRISON"}},{"type":"Feature","geometry":{"type":"Point","coordinates":[98.98817935,18.79011348]},"properties":{"name":"เรือนจำกลางเชียงใหม่หลั","Long":"98.988179","Lat":"18.790113","NameT":"เรือนจำกลางเชียงใหม่หลั","NameE":"FORMER CHIANG MAI CENTRAL PRISON"}},{"type":"Feature","geometry":{"type":"Point","coordinates":[100.0679322,13.81715239]},"properties":{"name":"เรือนจำกลางนครปฐม","Long":"100.067932","Lat":"13.817152","NameT":"เรือนจำกลางนครปฐม","NameE":"NAKHON PATHOM CENTRAL PRISON"}},{"type":"Feature","geometry":{"type":"Point","coordinates":[102.1144275,14.97003831]},"properties":{"name":"เรือนจำกลางนครราชสีมา","Long":"102.114428","Lat":"14.970038","NameT":"เรือนจำกลางนครราชสีมา","NameE":"NAKHON RATCHASIMA CENTRAL PRISON"}},{"type":"Feature","geometry":{"type":"Point","coordinates":[100.1152581,15.68838495]},"properties":{"name":"เรือนจำกลางนครสวรรค์","Long":"100.115258","Lat":"15.688385","NameT":"เรือนจำกลางนครสวรรค์","NameE":"NAKHON SAWAN CENTRAL PRISON"}},{"type":"Feature","geometry":{"type":"Point","coordinates":[100.4963628,13.84567822]},"properties":{"name":"เรือนจำกลางบางขวาง","Long":"100.496363","Lat":"13.845678","NameT":"เรือนจำกลางบางขวาง","NameE":"BANG KHWANG CENTRAL PRISON"}},{"type":"Feature","geometry":{"type":"Point","coordinates":[100.6176753,7.151813959]},"properties":{"name":"เรือนจำกลางประจำเขต 9","Long":"100.617675","Lat":"7.151814","NameT":"เรือนจำกลางประจำเขต 9","NameE":"CENTRAL PRISON DISTRICT 9"}},{"type":"Feature","geometry":{"type":"Point","coordinates":[100.610835,14.36959979]},"properties":{"name":"เรือนจำกลางพระนครศรีอยุ","Long":"100.610835","Lat":"14.3696","NameT":"เรือนจำกลางพระนครศรีอยุ","NameE":"PHRA NAKHON SI AYUTTHAYA CENTRAL PRISON"}},{"type":"Feature","geometry":{"type":"Point","coordinates":[100.0791237,7.619228894]},"properties":{"name":"เรือนจำกลางพัทลุง","Long":"100.079124","Lat":"7.619229","NameT":"เรือนจำกลางพัทลุง","NameE":"PHATTHALUNG CENTRAL PRISON"}},{"type":"Feature","geometry":{"type":"Point","coordinates":[99.91109981,8.334974758]},"properties":{"name":"เรือนจำกลางพิเศษนครศรีธ","Long":"99.9111","Lat":"8.334975","NameT":"เรือนจำกลางพิเศษนครศรีธ","NameE":"NAKHON SI THAMMARAT CENTRAL PRISON"}},{"type":"Feature","geometry":{"type":"Point","coordinates":[99.96553599,8.424749823]},"properties":{"name":"เรือนจำกลางพิเศษนครศรีธ","Long":"99.965536","Lat":"8.42475","NameT":"เรือนจำกลางพิเศษนครศรีธ","NameE":"NAKHON SI THAMMARAT CENTRAL PRISON"}},{"type":"Feature","geometry":{"type":"Point","coordinates":[100.3868121,16.83880173]},"properties":{"name":"เรือนจำกลางพิษณุโลก","Long":"100.386812","Lat":"16.838802","NameT":"เรือนจำกลางพิษณุโลก","NameE":"PHITSANULOK CENTRAL PRISON"}},{"type":"Feature","geometry":{"type":"Point","coordinates":[101.255987,6.537885221]},"properties":{"name":"เรือนจำกลางยะลา","Long":"101.255987","Lat":"6.537885","NameT":"เรือนจำกลางยะลา","NameE":"YALA CENTRAL PRISON"}},{"type":"Feature","geometry":{"type":"Point","coordinates":[101.2341759,12.86392952]},"properties":{"name":"เรือนจำกลางระยอง","Long":"101.234176","Lat":"12.86393","NameT":"เรือนจำกลางระยอง","NameE":"RAYONG CENTRAL PRISON"}},{"type":"Feature","geometry":{"type":"Point","coordinates":[99.82910883,13.53607514]},"properties":{"name":"เรือนจำกลางราชบุรี","Long":"99.829109","Lat":"13.536075","NameT":"เรือนจำกลางราชบุรี","NameE":"RATCHABURI CENTRAL PRISON"}},{"type":"Feature","geometry":{"type":"Point","coordinates":[99.65049091,13.56992236]},"properties":{"name":"เรือนจำกลางราชบุรีและเร","Long":"99.650491","Lat":"13.569922","NameT":"เรือนจำกลางราชบุรีและเร","NameE":"RATCHABURI CENTRAL PRISON AND RATCHABURI REMAND PRISON"}},{"type":"Feature","geometry":{"type":"Point","coordinates":[100.6531348,14.79299105]},"properties":{"name":"เรือนจำกลางลพบุรี","Long":"100.653135","Lat":"14.792991","NameT":"เรือนจำกลางลพบุรี","NameE":"LOP BURI CENTRAL PRISON"}},{"type":"Feature","geometry":{"type":"Point","coordinates":[99.51063463,18.28904936]},"properties":{"name":"เรือนจำกลางลำปาง","Long":"99.510635","Lat":"18.289049","NameT":"เรือนจำกลางลำปาง","NameE":"LAMPANG CENTRAL PRISON"}},{"type":"Feature","geometry":{"type":"Point","coordinates":[98.98716056,18.58676671]},"properties":{"name":"เรือนจำกลางลำพูน","Long":"98.987161","Lat":"18.586767","NameT":"เรือนจำกลางลำพูน","NameE":"LAMPHUN CENTRAL PRISON"}},{"type":"Feature","geometry":{"type":"Point","coordinates":[104.3220034,15.12162073]},"properties":{"name":"เรือนจำกลางศรีสะเกษ","Long":"104.322003","Lat":"15.121621","NameT":"เรือนจำกลางศรีสะเกษ","NameE":"SI SA KET CENTRAL PRISON"}},{"type":"Feature","geometry":{"type":"Point","coordinates":[100.8073078,13.50973864]},"properties":{"name":"เรือนจำกลางสมุทรปราการ","Long":"100.807308","Lat":"13.509739","NameT":"เรือนจำกลางสมุทรปราการ","NameE":"SAMUT PRAKAN CENTRAL PRISON"}},{"type":"Feature","geometry":{"type":"Point","coordinates":[99.33186633,9.131300828]},"properties":{"name":"เรือนจำกลางสุราษฎร์ธานี","Long":"99.331866","Lat":"9.131301","NameT":"เรือนจำกลางสุราษฎร์ธานี","NameE":"SURAT THANI CENTRAL PRISON"}},{"type":"Feature","geometry":{"type":"Point","coordinates":[102.7890964,17.40324386]},"properties":{"name":"เรือนจำกลางอุดรธานี","Long":"102.789096","Lat":"17.403244","NameT":"เรือนจำกลางอุดรธานี","NameE":"UDON THANI CENTRAL PRISON"}},{"type":"Feature","geometry":{"type":"Point","coordinates":[104.8453252,15.23036436]},"properties":{"name":"เรือนจำกลางอุบลราชธานี","Long":"104.845325","Lat":"15.230364","NameT":"เรือนจำกลางอุบลราชธานี","NameE":"UBON RATCHATHANI CENTRAL PRISON"}},{"type":"Feature","geometry":{"type":"Point","coordinates":[101.7085953,13.9825352]},"properties":{"name":"เรือนจำจังหวัดกบินทร์บุ","Long":"101.708595","Lat":"13.982535","NameT":"เรือนจำจังหวัดกบินทร์บุ","NameE":"KABIN BURI PROVINCIAL PRISON"}},{"type":"Feature","geometry":{"type":"Point","coordinates":[98.91674279,8.054780393]},"properties":{"name":"เรือนจำจังหวัดกระบี่","Long":"98.916743","Lat":"8.05478","NameT":"เรือนจำจังหวัดกระบี่","NameE":"KRABI PROVINCIAL PRISON"}},{"type":"Feature","geometry":{"type":"Point","coordinates":[99.55405816,14.00455353]},"properties":{"name":"เรือนจำจังหวัดกาญจนบุรี","Long":"99.554058","Lat":"14.004554","NameT":"เรือนจำจังหวัดกาญจนบุรี","NameE":"KANCHANABURI PROVINCIAL PRISON"}},{"type":"Feature","geometry":{"type":"Point","coordinates":[103.5234829,16.45317965]},"properties":{"name":"เรือนจำจังหวัดกาฬสินธุ์","Long":"103.523483","Lat":"16.45318","NameT":"เรือนจำจังหวัดกาฬสินธุ์","NameE":"KALASIN PROVINCIAL PRISON"}},{"type":"Feature","geometry":{"type":"Point","coordinates":[102.1167816,12.61334929]},"properties":{"name":"เรือนจำจังหวัดจันทบุรี","Long":"102.116782","Lat":"12.613349","NameT":"เรือนจำจังหวัดจันทบุรี","NameE":"CHANTHABURI PROVINCIAL PRISON"}},{"type":"Feature","geometry":{"type":"Point","coordinates":[100.1291915,15.18151955]},"properties":{"name":"เรือนจำจังหวัดชัยนาท","Long":"100.129192","Lat":"15.18152","NameT":"เรือนจำจังหวัดชัยนาท","NameE":"CHAI NAT PROVINCIAL PRISON"}},{"type":"Feature","geometry":{"type":"Point","coordinates":[102.0176015,15.80586316]},"properties":{"name":"เรือนจำจังหวัดชัยภูมิ","Long":"102.017602","Lat":"15.805863","NameT":"เรือนจำจังหวัดชัยภูมิ","NameE":"CHAIYAPHUM PROVINCIAL PRISON"}},{"type":"Feature","geometry":{"type":"Point","coordinates":[99.20389598,10.47834514]},"properties":{"name":"เรือนจำจังหวัดชุมพร","Long":"99.203896","Lat":"10.478345","NameT":"เรือนจำจังหวัดชุมพร","NameE":"CHUMPHON PROVINCIAL PRISON"}},{"type":"Feature","geometry":{"type":"Point","coordinates":[99.20735748,9.384609536]},"properties":{"name":"เรือนจำจังหวัดไชยา","Long":"99.207357","Lat":"9.38461","NameT":"เรือนจำจังหวัดไชยา","NameE":"CHAIYA PROVINCIAL PRISON"}},{"type":"Feature","geometry":{"type":"Point","coordinates":[99.61454414,7.48731062]},"properties":{"name":"เรือนจำจังหวัดตรัง","Long":"99.614544","Lat":"7.487311","NameT":"เรือนจำจังหวัดตรัง","NameE":"TRANG PROVINCIAL PRISON"}},{"type":"Feature","geometry":{"type":"Point","coordinates":[102.5442991,12.22956538]},"properties":{"name":"เรือนจำจังหวัดตราด","Long":"102.544299","Lat":"12.229565","NameT":"เรือนจำจังหวัดตราด","NameE":"TRAT PROVINCIAL PRISON"}},{"type":"Feature","geometry":{"type":"Point","coordinates":[99.14311063,16.8570741]},"properties":{"name":"เรือนจำจังหวัดตาก","Long":"99.143111","Lat":"16.857074","NameT":"เรือนจำจังหวัดตาก","NameE":"TAK PROVINCIAL PRISON"}},{"type":"Feature","geometry":{"type":"Point","coordinates":[99.94559861,13.09218215]},"properties":{"name":"เรือนจำจังหวัดทหารบกเพช","Long":"99.945599","Lat":"13.092182","NameT":"เรือนจำจังหวัดทหารบกเพช","NameE":"PHETCHABURI ARMY PROVINCIAL PRISON"}},{"type":"Feature","geometry":{"type":"Point","coordinates":[100.223137,19.68027858]},"properties":{"name":"เรือนจำจังหวัดเทิง","Long":"100.223137","Lat":"19.680279","NameT":"เรือนจำจังหวัดเทิง","NameE":"THOENG PROVINCIAL PRISON"}},{"type":"Feature","geometry":{"type":"Point","coordinates":[100.7364749,14.01984465]},"properties":{"name":"เรือนจำจังหวัดธัญบุรี","Long":"100.736475","Lat":"14.019845","NameT":"เรือนจำจังหวัดธัญบุรี","NameE":"THANYABURI PROVINCIAL PRISON"}},{"type":"Feature","geometry":{"type":"Point","coordinates":[101.2192295,14.20159286]},"properties":{"name":"เรือนจำจังหวัดนครนายก","Long":"101.21923","Lat":"14.201593","NameT":"เรือนจำจังหวัดนครนายก","NameE":"NAKHON NAYOK PROVINCIAL PRISON"}},{"type":"Feature","geometry":{"type":"Point","coordinates":[104.78135,17.28523265]},"properties":{"name":"เรือนจำจังหวัดนครพนม","Long":"104.78135","Lat":"17.285233","NameT":"เรือนจำจังหวัดนครพนม","NameE":"NAKHON PHANOM PROVINCIAL PRISON"}},{"type":"Feature","geometry":{"type":"Point","coordinates":[100.4971569,13.84212631]},"properties":{"name":"เรือนจำจังหวัดนนทบุรี","Long":"100.497157","Lat":"13.842126","NameT":"เรือนจำจังหวัดนนทบุรี","NameE":"NONTHABURI PROVINCIAL PRISON"}},{"type":"Feature","geometry":{"type":"Point","coordinates":[101.8276751,6.422121802]},"properties":{"name":"เรือนจำจังหวัดนราธิวาส","Long":"101.827675","Lat":"6.422122","NameT":"เรือนจำจังหวัดนราธิวาส","NameE":"NARATHIWAT PROVINCIAL PRISON"}},{"type":"Feature","geometry":{"type":"Point","coordinates":[100.7760601,18.7717964]},"properties":{"name":"เรือนจำจังหวัดน่าน","Long":"100.77606","Lat":"18.771796","NameT":"เรือนจำจังหวัดน่าน","NameE":"NAN PROVINCIAL PRISON"}},{"type":"Feature","geometry":{"type":"Point","coordinates":[102.4122497,15.62076597]},"properties":{"name":"เรือนจำจังหวัดบัวใหญ่","Long":"102.41225","Lat":"15.620766","NameT":"เรือนจำจังหวัดบัวใหญ่","NameE":"BUA YAI PROVINCIAL PRISON"}},{"type":"Feature","geometry":{"type":"Point","coordinates":[103.6426172,18.31355752]},"properties":{"name":"เรือนจำจังหวัดบึงกาฬ","Long":"103.642617","Lat":"18.313558","NameT":"เรือนจำจังหวัดบึงกาฬ","NameE":"BUENG KAN PROVINCIAL PRISON"}},{"type":"Feature","geometry":{"type":"Point","coordinates":[102.7653076,14.64724959]},"properties":{"name":"เรือนจำจังหวัดบุรีรัมย์","Long":"102.765308","Lat":"14.64725","NameT":"เรือนจำจังหวัดบุรีรัมย์","NameE":"BURI RAM PROVINCIAL PRISON"}},{"type":"Feature","geometry":{"type":"Point","coordinates":[103.1101639,14.97296987]},"properties":{"name":"เรือนจำจังหวัดบุรีรัมย์","Long":"103.110164","Lat":"14.97297","NameT":"เรือนจำจังหวัดบุรีรัมย์","NameE":"BURI RAM PROVINCIAL PRISON"}},{"type":"Feature","geometry":{"type":"Point","coordinates":[100.5186623,14.09818476]},"properties":{"name":"เรือนจำจังหวัดปทุมธานี","Long":"100.518662","Lat":"14.098185","NameT":"เรือนจำจังหวัดปทุมธานี","NameE":"PATHUM THANI PROVINCIAL PRISON"}},{"type":"Feature","geometry":{"type":"Point","coordinates":[99.79789862,11.81278874]},"properties":{"name":"เรือนจำจังหวัดประจวบคีร","Long":"99.797899","Lat":"11.812789","NameT":"เรือนจำจังหวัดประจวบคีร","NameE":"PRACHUAP KHIRI KHAN PROVINCIAL PRISON"}},{"type":"Feature","geometry":{"type":"Point","coordinates":[101.3700018,14.04835816]},"properties":{"name":"เรือนจำจังหวัดปราจีนบุร","Long":"101.370002","Lat":"14.048358","NameT":"เรือนจำจังหวัดปราจีนบุร","NameE":"PRACHIN BURI PROVINCIAL PRISON"}},{"type":"Feature","geometry":{"type":"Point","coordinates":[101.2718136,6.889772515]},"properties":{"name":"เรือนจำจังหวัดปัตตานี","Long":"101.271814","Lat":"6.889773","NameT":"เรือนจำจังหวัดปัตตานี","NameE":"PATTANI PROVINCIAL PRISON"}},{"type":"Feature","geometry":{"type":"Point","coordinates":[100.2026648,8.353202081]},"properties":{"name":"เรือนจำจังหวัดปากพนัง","Long":"100.202665","Lat":"8.353202","NameT":"เรือนจำจังหวัดปากพนัง","NameE":"PAK PHANANG PROVINCIAL PRISON"}},{"type":"Feature","geometry":{"type":"Point","coordinates":[99.22027616,19.93244113]},"properties":{"name":"เรือนจำจังหวัดฝาง","Long":"99.220276","Lat":"19.932441","NameT":"เรือนจำจังหวัดฝาง","NameE":"FANG PROVINCIAL PRISON"}},{"type":"Feature","geometry":{"type":"Point","coordinates":[100.5769193,14.3638736]},"properties":{"name":"เรือนจำจังหวัดพระนครศรี","Long":"100.576919","Lat":"14.363874","NameT":"เรือนจำจังหวัดพระนครศรี","NameE":"PHRA NAKHON SI AYUTTHAYA PROVINCIAL PRISON"}},{"type":"Feature","geometry":{"type":"Point","coordinates":[99.88834684,19.20146346]},"properties":{"name":"เรือนจำจังหวัดพะเยา","Long":"99.888347","Lat":"19.201463","NameT":"เรือนจำจังหวัดพะเยา","NameE":"PHAYAO PROVINCIAL PRISON"}},{"type":"Feature","geometry":{"type":"Point","coordinates":[98.52144206,8.441340139]},"properties":{"name":"เรือนจำจังหวัดพังงา","Long":"98.521442","Lat":"8.44134","NameT":"เรือนจำจังหวัดพังงา","NameE":"PHANGNGA PROVINCIAL PRISON"}},{"type":"Feature","geometry":{"type":"Point","coordinates":[100.354448,16.43613113]},"properties":{"name":"เรือนจำจังหวัดพิจิตร","Long":"100.354448","Lat":"16.436131","NameT":"เรือนจำจังหวัดพิจิตร","NameE":"PHICHIT PROVINCIAL PRISON"}},{"type":"Feature","geometry":{"type":"Point","coordinates":[99.95564948,13.10536258]},"properties":{"name":"เรือนจำจังหวัดเพชรบุรี","Long":"99.955649","Lat":"13.105363","NameT":"เรือนจำจังหวัดเพชรบุรี","NameE":"PHETCHABURI PROVINCIAL PRISON"}},{"type":"Feature","geometry":{"type":"Point","coordinates":[101.1562899,16.4098761]},"properties":{"name":"เรือนจำจังหวัดเพชรบูรณ์","Long":"101.15629","Lat":"16.409876","NameT":"เรือนจำจังหวัดเพชรบูรณ์","NameE":"PHETCHABUN PROVINCIAL PRISON"}},{"type":"Feature","geometry":{"type":"Point","coordinates":[100.147429,18.14586376]},"properties":{"name":"เรือนจำจังหวัดแพร่","Long":"100.147429","Lat":"18.145864","NameT":"เรือนจำจังหวัดแพร่","NameE":"PHRAE PROVINCIAL PRISON"}},{"type":"Feature","geometry":{"type":"Point","coordinates":[100.159131,18.13315252]},"properties":{"name":"เรือนจำจังหวัดแพร่","Long":"100.159131","Lat":"18.133153","NameT":"เรือนจำจังหวัดแพร่","NameE":"PHRAE PROVINCIAL PRISON"}},{"type":"Feature","geometry":{"type":"Point","coordinates":[98.39694693,7.888758298]},"properties":{"name":"เรือนจำจังหวัดภูเก็ต","Long":"98.396947","Lat":"7.888758","NameT":"เรือนจำจังหวัดภูเก็ต","NameE":"PHUKET PROVINCIAL PRISON"}},{"type":"Feature","geometry":{"type":"Point","coordinates":[103.3505462,16.15903268]},"properties":{"name":"เรือนจำจังหวัดมหาสารคาม","Long":"103.350546","Lat":"16.159033","NameT":"เรือนจำจังหวัดมหาสารคาม","NameE":"MAHA SARAKHAM PROVINCIAL PRISON"}},{"type":"Feature","geometry":{"type":"Point","coordinates":[104.708653,16.52982141]},"properties":{"name":"เรือนจำจังหวัดมุกดาหาร","Long":"104.708653","Lat":"16.529821","NameT":"เรือนจำจังหวัดมุกดาหาร","NameE":"MUKDAHAN PROVINCIAL PRISON"}},{"type":"Feature","geometry":{"type":"Point","coordinates":[98.5805749,16.71159483]},"properties":{"name":"เรือนจำจังหวัดแม่สอด","Long":"98.580575","Lat":"16.711595","NameT":"เรือนจำจังหวัดแม่สอด","NameE":"MAE SOT PROVINCIAL PRISON"}},{"type":"Feature","geometry":{"type":"Point","coordinates":[97.93848741,18.15960318]},"properties":{"name":"เรือนจำจังหวัดแม่สะเรีย","Long":"97.938487","Lat":"18.159603","NameT":"เรือนจำจังหวัดแม่สะเรีย","NameE":"MAE SARIANG PROVINCIAL PRISON"}},{"type":"Feature","geometry":{"type":"Point","coordinates":[97.96522517,19.3110336]},"properties":{"name":"เรือนจำจังหวัดแม่ฮ่องสอ","Long":"97.965225","Lat":"19.311034","NameT":"เรือนจำจังหวัดแม่ฮ่องสอ","NameE":"MAE HONG SON PROVINCIAL PRISON"}},{"type":"Feature","geometry":{"type":"Point","coordinates":[104.1574742,15.79000344]},"properties":{"name":"เรือนจำจังหวัดยโสธร","Long":"104.157474","Lat":"15.790003","NameT":"เรือนจำจังหวัดยโสธร","NameE":"YASOTHON PROVINCIAL PRISON"}},{"type":"Feature","geometry":{"type":"Point","coordinates":[103.6576015,16.03999543]},"properties":{"name":"เรือนจำจังหวัดร้อยเอ็ด","Long":"103.657602","Lat":"16.039995","NameT":"เรือนจำจังหวัดร้อยเอ็ด","NameE":"ROI ET PROVINCIAL PRISON"}},{"type":"Feature","geometry":{"type":"Point","coordinates":[98.63572573,9.968209409]},"properties":{"name":"เรือนจำจังหวัดระนอง","Long":"98.635726","Lat":"9.968209","NameT":"เรือนจำจังหวัดระนอง","NameE":"RANONG PROVINCIAL PRISON"}},{"type":"Feature","geometry":{"type":"Point","coordinates":[101.2857572,12.68958985]},"properties":{"name":"เรือนจำจังหวัดระยอง","Long":"101.285757","Lat":"12.68959","NameT":"เรือนจำจังหวัดระยอง","NameE":"RAYONG PROVINCIAL PRISON"}},{"type":"Feature","geometry":{"type":"Point","coordinates":[101.7215834,17.48734932]},"properties":{"name":"เรือนจำจังหวัดเลย","Long":"101.721583","Lat":"17.487349","NameT":"เรือนจำจังหวัดเลย","NameE":"LOEI PROVINCIAL PRISON"}},{"type":"Feature","geometry":{"type":"Point","coordinates":[104.1486373,17.16800444]},"properties":{"name":"เรือนจำจังหวัดสกลนคร","Long":"104.148637","Lat":"17.168004","NameT":"เรือนจำจังหวัดสกลนคร","NameE":"SAKON NAKHON PROVINCIAL PRISON"}},{"type":"Feature","geometry":{"type":"Point","coordinates":[100.6203152,7.151095108]},"properties":{"name":"เรือนจำจังหวัดสงขลา","Long":"100.620315","Lat":"7.151095","NameT":"เรือนจำจังหวัดสงขลา","NameE":"SONGKHLA PROVINCIAL PRISON"}},{"type":"Feature","geometry":{"type":"Point","coordinates":[100.0738653,6.617535513]},"properties":{"name":"เรือนจำจังหวัดสตูล","Long":"100.073865","Lat":"6.617536","NameT":"เรือนจำจังหวัดสตูล","NameE":"SATUN PROVINCIAL PRISON"}},{"type":"Feature","geometry":{"type":"Point","coordinates":[100.0224912,13.42253283]},"properties":{"name":"เรือนจำจังหวัดสมุทรสงคร","Long":"100.022491","Lat":"13.422533","NameT":"เรือนจำจังหวัดสมุทรสงคร","NameE":"SAMUT SONGKHRAM PROVINCIAL PRISON"}},{"type":"Feature","geometry":{"type":"Point","coordinates":[100.2859088,13.53682677]},"properties":{"name":"เรือนจำจังหวัดสมุทรสาคร","Long":"100.285909","Lat":"13.536827","NameT":"เรือนจำจังหวัดสมุทรสาคร","NameE":"SAMUT SAKHON PROVINCIAL PRISON"}},{"type":"Feature","geometry":{"type":"Point","coordinates":[102.028346,13.78957861]},"properties":{"name":"เรือนจำจังหวัดสระแก้ว","Long":"102.028346","Lat":"13.789579","NameT":"เรือนจำจังหวัดสระแก้ว","NameE":"SA KAEO PROVINCIAL PRISON"}},{"type":"Feature","geometry":{"type":"Point","coordinates":[100.9115821,14.53317281]},"properties":{"name":"เรือนจำจังหวัดสระบุรี","Long":"100.911582","Lat":"14.533173","NameT":"เรือนจำจังหวัดสระบุรี","NameE":"SARABURI PROVINCIAL PRISON"}},{"type":"Feature","geometry":{"type":"Point","coordinates":[99.83096516,17.3080265]},"properties":{"name":"เรือนจำจังหวัดสวรรคโลก","Long":"99.830965","Lat":"17.308027","NameT":"เรือนจำจังหวัดสวรรคโลก","NameE":"SAWANKHALOK PROVINCIAL PRISON"}},{"type":"Feature","geometry":{"type":"Point","coordinates":[100.3846421,14.84610276]},"properties":{"name":"เรือนจำจังหวัดสิงห์บุรี","Long":"100.384642","Lat":"14.846103","NameT":"เรือนจำจังหวัดสิงห์บุรี","NameE":"SING BURI PROVINCIAL PRISON"}},{"type":"Feature","geometry":{"type":"Point","coordinates":[99.83277534,17.00490475]},"properties":{"name":"เรือนจำจังหวัดสุโขทัย","Long":"99.832775","Lat":"17.004905","NameT":"เรือนจำจังหวัดสุโขทัย","NameE":"SUKHOTHAI PROVINCIAL PRISON"}},{"type":"Feature","geometry":{"type":"Point","coordinates":[100.1374072,14.44951296]},"properties":{"name":"เรือนจำจังหวัดสุพรรณบุร","Long":"100.137407","Lat":"14.449513","NameT":"เรือนจำจังหวัดสุพรรณบุร","NameE":"SUPHAN BURI PROVINCIAL PRISON"}},{"type":"Feature","geometry":{"type":"Point","coordinates":[103.467121,14.87912858]},"properties":{"name":"เรือนจำจังหวัดสุรินทร์","Long":"103.467121","Lat":"14.879129","NameT":"เรือนจำจังหวัดสุรินทร์","NameE":"SURIN PROVINCIAL PRISON"}},{"type":"Feature","geometry":{"type":"Point","coordinates":[102.7506778,17.86779005]},"properties":{"name":"เรือนจำจังหวัดหนองคาย","Long":"102.750678","Lat":"17.86779","NameT":"เรือนจำจังหวัดหนองคาย","NameE":"NONG KHAI PROVINCIAL PRISON"}},{"type":"Feature","geometry":{"type":"Point","coordinates":[102.3983197,17.23744432]},"properties":{"name":"เรือนจำจังหวัดหนองบัวลำ","Long":"102.39832","Lat":"17.237444","NameT":"เรือนจำจังหวัดหนองบัวลำ","NameE":"NONG BUA LAMPHU PROVINCIAL PRISON"}},{"type":"Feature","geometry":{"type":"Point","coordinates":[102.3889599,17.29579784]},"properties":{"name":"เรือนจำจังหวัดหนองบัวลำ","Long":"102.38896","Lat":"17.295798","NameT":"เรือนจำจังหวัดหนองบัวลำ","NameE":"NONG BUA LAMPHU PROVINCIAL PRISON"}},{"type":"Feature","geometry":{"type":"Point","coordinates":[101.2552354,16.8137106]},"properties":{"name":"เรือนจำจังหวัดหล่มสัก","Long":"101.255235","Lat":"16.813711","NameT":"เรือนจำจังหวัดหล่มสัก","NameE":"LOM SAK PROVINCIAL PRISON"}},{"type":"Feature","geometry":{"type":"Point","coordinates":[100.4454181,14.59320594]},"properties":{"name":"เรือนจำจังหวัดอ่างทอง","Long":"100.445418","Lat":"14.593206","NameT":"เรือนจำจังหวัดอ่างทอง","NameE":"ANG THONG PROVINCIAL PRISON"}},{"type":"Feature","geometry":{"type":"Point","coordinates":[104.6315638,15.83961719]},"properties":{"name":"เรือนจำจังหวัดอำนาจเจริ","Long":"104.631564","Lat":"15.839617","NameT":"เรือนจำจังหวัดอำนาจเจริ","NameE":"AMNAT CHAROEN PROVINCIAL PRISON"}},{"type":"Feature","geometry":{"type":"Point","coordinates":[100.0993658,17.62282044]},"properties":{"name":"เรือนจำจังหวัดอุตรดิตถ์","Long":"100.099366","Lat":"17.62282","NameT":"เรือนจำจังหวัดอุตรดิตถ์","NameE":"UTTARADIT PROVINCIAL PRISON"}},{"type":"Feature","geometry":{"type":"Point","coordinates":[100.0441663,15.36959927]},"properties":{"name":"เรือนจำจังหวัดอุทัยธานี","Long":"100.044166","Lat":"15.369599","NameT":"เรือนจำจังหวัดอุทัยธานี","NameE":"UTHAI THANI PROVINCIAL PRISON"}},{"type":"Feature","geometry":{"type":"Point","coordinates":[98.9473187,8.105480964]},"properties":{"name":"เรือนจำชั่วคราวกระบี่น้","Long":"98.947319","Lat":"8.105481","NameT":"เรือนจำชั่วคราวกระบี่น้","NameE":"KRABI NOI TEMPORARY PRISON"}},{"type":"Feature","geometry":{"type":"Point","coordinates":[99.49109134,18.21930774]},"properties":{"name":"เรือนจำชั่วคราวกล้วยแพะ","Long":"99.491091","Lat":"18.219308","NameT":"เรือนจำชั่วคราวกล้วยแพะ","NameE":"KLUAI PHAE TEMPORARY PRISON"}},{"type":"Feature","geometry":{"type":"Point","coordinates":[100.7523875,18.77466019]},"properties":{"name":"เรือนจำชั่วคราวเขาน้อย","Long":"100.752388","Lat":"18.77466","NameT":"เรือนจำชั่วคราวเขาน้อย","NameE":"KHAO NOI TEMPORARY PRISON"}},{"type":"Feature","geometry":{"type":"Point","coordinates":[101.5401903,14.8962838]},"properties":{"name":"เรือนจำชั่วคราวเขาพริก","Long":"101.54019","Lat":"14.896284","NameT":"เรือนจำชั่วคราวเขาพริก","NameE":"KHAO PHRIK TEMPORARY PRISON"}},{"type":"Feature","geometry":{"type":"Point","coordinates":[100.1462563,15.21213718]},"properties":{"name":"เรือนจำชั่วคราวเขาพลอง","Long":"100.146256","Lat":"15.212137","NameT":"เรือนจำชั่วคราวเขาพลอง","NameE":"KHAO PHLONG TEMPORARY PRISON"}},{"type":"Feature","geometry":{"type":"Point","coordinates":[101.2495345,12.863668]},"properties":{"name":"เรือนจำชั่วคราวเขาไม้แก","Long":"101.249535","Lat":"12.863668","NameT":"เรือนจำชั่วคราวเขาไม้แก","NameE":"KHAO MAI KAEO TEMPORARY PRISON"}},{"type":"Feature","geometry":{"type":"Point","coordinates":[102.4054306,12.28435631]},"properties":{"name":"เรือนจำชั่วคราวเขาระกำ","Long":"102.405431","Lat":"12.284356","NameT":"เรือนจำชั่วคราวเขาระกำ","NameE":"KHAO RAKAM TEMPORARY PRISON"}},{"type":"Feature","geometry":{"type":"Point","coordinates":[101.1607041,16.45703831]},"properties":{"name":"เรือนจำชั่วคราวแคน้อย","Long":"101.160704","Lat":"16.457038","NameT":"เรือนจำชั่วคราวแคน้อย","NameE":"KHAE NOI TEMPORARY PRISON"}},{"type":"Feature","geometry":{"type":"Point","coordinates":[101.9458847,6.32830672]},"properties":{"name":"เรือนจำชั่วคราวโคกกระดู","Long":"101.945885","Lat":"6.328307","NameT":"เรือนจำชั่วคราวโคกกระดู","NameE":"KHOK KRADUK MU TEMPORARY PRISON"}},{"type":"Feature","geometry":{"type":"Point","coordinates":[102.8303044,14.81389233]},"properties":{"name":"เรือนจำชั่วคราวโคกมะตูม","Long":"102.830304","Lat":"14.813892","NameT":"เรือนจำชั่วคราวโคกมะตูม","NameE":"KHOK MATUM TEMPORARY PRISON"}},{"type":"Feature","geometry":{"type":"Point","coordinates":[99.77889496,19.92096911]},"properties":{"name":"เรือนจำชั่วคราวดอยฮาง","Long":"99.778895","Lat":"19.920969","NameT":"เรือนจำชั่วคราวดอยฮาง","NameE":"DOI HANG TEMPORARY PRISON"}},{"type":"Feature","geometry":{"type":"Point","coordinates":[99.54023696,9.187804042]},"properties":{"name":"เรือนจำชั่วคราวทุ่งเขน","Long":"99.540237","Lat":"9.187804","NameT":"เรือนจำชั่วคราวทุ่งเขน","NameE":"THUNG KHEN TEMPORARY PRISON"}},{"type":"Feature","geometry":{"type":"Point","coordinates":[100.0392048,17.59634163]},"properties":{"name":"เรือนจำชั่วคราวทุ่งยั้ง","Long":"100.039205","Lat":"17.596342","NameT":"เรือนจำชั่วคราวทุ่งยั้ง","NameE":"THUNG YANG TEMPORARY PRISON"}},{"type":"Feature","geometry":{"type":"Point","coordinates":[104.5231882,16.52340425]},"properties":{"name":"เรือนจำชั่วคราวนาโสก","Long":"104.523188","Lat":"16.523404","NameT":"เรือนจำชั่วคราวนาโสก","NameE":"NA SOK TEMPORARY PRISON"}},{"type":"Feature","geometry":{"type":"Point","coordinates":[98.33836858,7.990825668]},"properties":{"name":"เรือนจำชั่วคราวบ้านบางโ","Long":"98.338369","Lat":"7.990826","NameT":"เรือนจำชั่วคราวบ้านบางโ","NameE":"BAN BANG CHO TEMPORARY PRISON"}},{"type":"Feature","geometry":{"type":"Point","coordinates":[99.41985485,18.30294356]},"properties":{"name":"เรือนจำชั่วคราวปงยางคก","Long":"99.419855","Lat":"18.302944","NameT":"เรือนจำชั่วคราวปงยางคก","NameE":"PONG YANG KHOK TEMPORARY PRISON"}},{"type":"Feature","geometry":{"type":"Point","coordinates":[101.7771174,17.47032401]},"properties":{"name":"เรือนจำชั่วคราวโพนเหล็ก","Long":"101.777117","Lat":"17.470324","NameT":"เรือนจำชั่วคราวโพนเหล็ก","NameE":"PHON LEK TEMPORARY PRISON"}},{"type":"Feature","geometry":{"type":"Point","coordinates":[103.597117,16.07047008]},"properties":{"name":"เรือนจำชั่วคราวรอบเมือง","Long":"103.597117","Lat":"16.07047","NameT":"เรือนจำชั่วคราวรอบเมือง","NameE":"ROP MUEANG TEMPORARY PRISON"}},{"type":"Feature","geometry":{"type":"Point","coordinates":[100.0138557,13.8558408]},"properties":{"name":"เรือนจำชั่วคราววังตะกู","Long":"100.013856","Lat":"13.855841","NameT":"เรือนจำชั่วคราววังตะกู","NameE":"WANG TAKU TEMPORARY PRISON"}},{"type":"Feature","geometry":{"type":"Point","coordinates":[99.0760762,9.976568255]},"properties":{"name":"เรือนจำชั่วคราวห้วยกลั้","Long":"99.076076","Lat":"9.976568","NameT":"เรือนจำชั่วคราวห้วยกลั้","NameE":"HUAI KLANG TEMPORARY PRISON"}},{"type":"Feature","geometry":{"type":"Point","coordinates":[98.62651582,16.76279986]},"properties":{"name":"เรือนจำชั่วคราวห้วยหินฝ","Long":"98.626516","Lat":"16.7628","NameT":"เรือนจำชั่วคราวห้วยหินฝ","NameE":"HUAI HIN FON TEMPORARY PRISON"}},{"type":"Feature","geometry":{"type":"Point","coordinates":[102.4255842,15.58145171]},"properties":{"name":"เรือนจำชั่วคราวอำเภอบัว","Long":"102.425584","Lat":"15.581452","NameT":"เรือนจำชั่วคราวอำเภอบัว","NameE":"AMPHOE BUA YAI TEMPORARY PRISON"}},{"type":"Feature","geometry":{"type":"Point","coordinates":[100.5813161,13.94273131]},"properties":{"name":"เรือนจำทหารอากาศ","Long":"100.581316","Lat":"13.942731","NameT":"เรือนจำทหารอากาศ","NameE":"ROYAL THAI AIR FORCE PRISON"}},{"type":"Feature","geometry":{"type":"Point","coordinates":[100.5538303,13.84828955]},"properties":{"name":"เรือนจำพิเศษกรุงเทพมหาน","Long":"100.55383","Lat":"13.84829","NameT":"เรือนจำพิเศษกรุงเทพมหาน","NameE":"BANGKOK REMAND PRISON"}},{"type":"Feature","geometry":{"type":"Point","coordinates":[102.1141088,14.96993888]},"properties":{"name":"เรือนจำพิเศษจังหวัดนครร","Long":"102.114109","Lat":"14.969939","NameT":"เรือนจำพิเศษจังหวัดนครร","NameE":"NAKHON RATCHASIMA REMAND PRISON"}},{"type":"Feature","geometry":{"type":"Point","coordinates":[100.3885949,13.64695255]},"properties":{"name":"เรือนจำพิเศษธนบุรี (ทัณฑ","Long":"100.388595","Lat":"13.646953","NameT":"เรือนจำพิเศษธนบุรี (ทัณฑ","NameE":"THON BURI REMAND PRISON (THON BURI INSTITUTION FOR FEMALE OFFENDERS)"}},{"type":"Feature","geometry":{"type":"Point","coordinates":[100.9640916,12.98821563]},"properties":{"name":"เรือนจำพิเศษพัทยา","Long":"100.964092","Lat":"12.988216","NameT":"เรือนจำพิเศษพัทยา","NameE":"PATTAYA REMAND PRISON"}},{"type":"Feature","geometry":{"type":"Point","coordinates":[100.7355259,13.81519797]},"properties":{"name":"เรือนจำพิเศษมีนบุรี","Long":"100.735526","Lat":"13.815198","NameT":"เรือนจำพิเศษมีนบุรี","NameE":"MIN BURI REMAND PRISON"}},{"type":"Feature","geometry":{"type":"Point","coordinates":[100.0948396,13.84326921]},"properties":{"name":"เรือนจำมณฑลทหารบกที่ 11","Long":"100.09484","Lat":"13.843269","NameT":"เรือนจำมณฑลทหารบกที่ 11","NameE":"ARMY PRECINCT PRISON 11"}},{"type":"Feature","geometry":{"type":"Point","coordinates":[104.5901234,14.67806025]},"properties":{"name":"เรือนจำอำเภอกันทรลักษ์","Long":"104.590123","Lat":"14.67806","NameT":"เรือนจำอำเภอกันทรลักษ์","NameE":"AMPHOE KANTHARALAK PRISON"}},{"type":"Feature","geometry":{"type":"Point","coordinates":[100.017752,9.446878518]},"properties":{"name":"เรือนจำอำเภอเกาะสมุย","Long":"100.017752","Lat":"9.446879","NameT":"เรือนจำอำเภอเกาะสมุย","NameE":"AMPHOE KO SAMUI PRISON"}},{"type":"Feature","geometry":{"type":"Point","coordinates":[98.34339497,8.867929374]},"properties":{"name":"เรือนจำอำเภอตะกั่วป่า","Long":"98.343395","Lat":"8.867929","NameT":"เรือนจำอำเภอตะกั่วป่า","NameE":"AMPHOE TAKUA PA PRISON"}},{"type":"Feature","geometry":{"type":"Point","coordinates":[98.59059955,14.77317619]},"properties":{"name":"เรือนจำอำเภอทองผาภูมิ","Long":"98.5906","Lat":"14.773176","NameT":"เรือนจำอำเภอทองผาภูมิ","NameE":"AMPHOE THONG PHA PHUM PRISON"}},{"type":"Feature","geometry":{"type":"Point","coordinates":[99.73706239,8.155747661]},"properties":{"name":"เรือนจำอำเภอทุ่งสง","Long":"99.737062","Lat":"8.155748","NameT":"เรือนจำอำเภอทุ่งสง","NameE":"AMPHOE THUNG SONG PRISON"}},{"type":"Feature","geometry":{"type":"Point","coordinates":[101.0699863,5.770737428]},"properties":{"name":"เรือนจำอำเภอเบตง","Long":"101.069986","Lat":"5.770737","NameT":"เรือนจำอำเภอเบตง","NameE":"AMPHOE BETONG PRISON"}},{"type":"Feature","geometry":{"type":"Point","coordinates":[102.5755021,15.81547528]},"properties":{"name":"เรือนจำอำเภอพล","Long":"102.575502","Lat":"15.815475","NameT":"เรือนจำอำเภอพล","NameE":"AMPHOE PHON PRISON"}},{"type":"Feature","geometry":{"type":"Point","coordinates":[102.1349881,16.36518286]},"properties":{"name":"เรือนจำอำเภอภูเขียว","Long":"102.134988","Lat":"16.365183","NameT":"เรือนจำอำเภอภูเขียว","NameE":"AMPHOE PHU KHIAO PRISON"}},{"type":"Feature","geometry":{"type":"Point","coordinates":[103.8663637,15.32410759]},"properties":{"name":"เรือนจำอำเภอรัตนบุรี","Long":"103.866364","Lat":"15.324108","NameT":"เรือนจำอำเภอรัตนบุรี","NameE":"AMPHOE RATTANA BURI PA PRISON"}},{"type":"Feature","geometry":{"type":"Point","coordinates":[103.3814775,17.40794269]},"properties":{"name":"เรือนจำอำเภอสว่างแดนดิน","Long":"103.381478","Lat":"17.407943","NameT":"เรือนจำอำเภอสว่างแดนดิน","NameE":"AMPHOE SAWANG DAEN DIN PRISON"}},{"type":"Feature","geometry":{"type":"Point","coordinates":[101.67302,14.85307584]},"properties":{"name":"เรือนจำอำเภอสีคิ้ว","Long":"101.67302","Lat":"14.853076","NameT":"เรือนจำอำเภอสีคิ้ว","NameE":"AMPHOE SI KHIO PRISON"}},{"type":"Feature","geometry":{"type":"Point","coordinates":[99.09003004,9.94698853]},"properties":{"name":"เรือนจำอำเภอหลังสวน","Long":"99.09003","Lat":"9.946989","NameT":"เรือนจำอำเภอหลังสวน","NameE":"AMPHOE LANG SUAN PRISON"}},{"type":"Feature","geometry":{"type":"Point","coordinates":[101.5403018,14.89158285]},"properties":{"name":"ทัณฑสถานเกษตรอุตสาหกรรม","Long":"101.540302","Lat":"14.891583","NameT":"ทัณฑสถานเกษตรอุตสาหกรรม","NameE":"KHAO PHRIK AGRICULTURAL INDUSTRAL CORRECTION INSTITUTION"}},{"type":"Feature","geometry":{"type":"Point","coordinates":[102.8497577,16.42885763]},"properties":{"name":"ทัณฑสถานบำบัดพิเศษขอนแก","Long":"102.849758","Lat":"16.428858","NameT":"ทัณฑสถานบำบัดพิเศษขอนแก","NameE":"KHON KAEN CORRECTION INSTITUTION OF DRUG ADDICTS"}},{"type":"Feature","geometry":{"type":"Point","coordinates":[101.5737688,14.85012275]},"properties":{"name":"ทัณฑสถานบำบัดพิเศษคลองไ","Long":"101.573769","Lat":"14.850123","NameT":"ทัณฑสถานบำบัดพิเศษคลองไ","NameE":"KHLONG PHAI CORRECTION INSTITUTION OF DRUG ADDICTS"}},{"type":"Feature","geometry":{"type":"Point","coordinates":[100.7138335,14.02093695]},"properties":{"name":"ทัณฑสถานบำบัดพิเศษปทุมธ","Long":"100.713834","Lat":"14.020937","NameT":"ทัณฑสถานบำบัดพิเศษปทุมธ","NameE":"PATHUM THANI CORRECTION INSTITUTION OF DRUG ADDICTS"}},{"type":"Feature","geometry":{"type":"Point","coordinates":[100.5622761,14.34562855]},"properties":{"name":"ทัณฑสถานบำบัดพิเศษพระนค","Long":"100.562276","Lat":"14.345629","NameT":"ทัณฑสถานบำบัดพิเศษพระนค","NameE":"PHRA NAKHON SI AYUTTHAYA CORRECTION INSTITUTION OF DRUG ADDICTS"}},{"type":"Feature","geometry":{"type":"Point","coordinates":[99.41968772,18.30142493]},"properties":{"name":"ทัณฑสถานบำบัดพิเศษลำปาง","Long":"99.419688","Lat":"18.301425","NameT":"ทัณฑสถานบำบัดพิเศษลำปาง","NameE":"LAMPANG CORRECTION INSTITUTION OF DRUG ADDICTS"}},{"type":"Feature","geometry":{"type":"Point","coordinates":[100.6506693,7.13249737]},"properties":{"name":"ทัณฑสถานบำบัดพิเศษสงขลา","Long":"100.650669","Lat":"7.132497","NameT":"ทัณฑสถานบำบัดพิเศษสงขลา","NameE":"SONGKHLA CORRECTION INSTITUTION OF DRUG ADDICTS"}},{"type":"Feature","geometry":{"type":"Point","coordinates":[100.714678,14.02517148]},"properties":{"name":"ทัณฑสถานบำบัดพิเศษหญิงธ","Long":"100.714678","Lat":"14.025171","NameT":"ทัณฑสถานบำบัดพิเศษหญิงธ","NameE":"THANYABURI FEMALE CORRECTION INSTITUTION OF DRUG ADDICTS"}},{"type":"Feature","geometry":{"type":"Point","coordinates":[99.73407121,12.92195759]},"properties":{"name":"ทัณฑสถานเปิดเขากลิ้ง","Long":"99.734071","Lat":"12.921958","NameT":"ทัณฑสถานเปิดเขากลิ้ง","NameE":"KHAO KLING CORRECTION INSTITUTION"}},{"type":"Feature","geometry":{"type":"Point","coordinates":[99.86256196,8.203517553]},"properties":{"name":"ทัณฑสถานเปิดเขาหมาก","Long":"99.862562","Lat":"8.203518","NameT":"ทัณฑสถานเปิดเขาหมาก","NameE":"KHAO MAK CORRECTION INSTITUTION"}},{"type":"Feature","geometry":{"type":"Point","coordinates":[103.4636694,14.88108931]},"properties":{"name":"ทัณฑสถานเปิดโคกตาบัน","Long":"103.463669","Lat":"14.881089","NameT":"ทัณฑสถานเปิดโคกตาบัน","NameE":"KHOK TA BAN CORRECTION INSTITUTION"}},{"type":"Feature","geometry":{"type":"Point","coordinates":[102.0368581,12.78392228]},"properties":{"name":"ทัณฑสถานเปิดทุ่งเบญจา","Long":"102.036858","Lat":"12.783922","NameT":"ทัณฑสถานเปิดทุ่งเบญจา","NameE":"THUNG BENCHA CORRECTION INSTITUTION"}},{"type":"Feature","geometry":{"type":"Point","coordinates":[104.138276,17.13171954]},"properties":{"name":"ทัณฑสถานเปิดนาอ้อย","Long":"104.138276","Lat":"17.13172","NameT":"ทัณฑสถานเปิดนาอ้อย","NameE":"NA OI CORRECTION INSTITUTION"}},{"type":"Feature","geometry":{"type":"Point","coordinates":[99.86297339,7.583281578]},"properties":{"name":"ทัณฑสถานเปิดบ้านนาวง","Long":"99.862973","Lat":"7.583282","NameT":"ทัณฑสถานเปิดบ้านนาวง","NameE":"BAN NA WONG CORRECTION INSTITUTION"}},{"type":"Feature","geometry":{"type":"Point","coordinates":[101.4023219,14.21235278]},"properties":{"name":"ทัณฑสถานเปิดบ้านเนินสูง","Long":"101.402322","Lat":"14.212353","NameT":"ทัณฑสถานเปิดบ้านเนินสูง","NameE":"BAN NOEN SUNG CORRECTION INSTITUTION"}},{"type":"Feature","geometry":{"type":"Point","coordinates":[101.1919291,13.21894915]},"properties":{"name":"ทัณฑสถานเปิดบ้านบึง","Long":"101.191929","Lat":"13.218949","NameT":"ทัณฑสถานเปิดบ้านบึง","NameE":"BAN BUENG CORRECTION INSTITUTION"}},{"type":"Feature","geometry":{"type":"Point","coordinates":[99.85883527,15.94010071]},"properties":{"name":"ทัณฑสถานเปิดหนองน้ำขุ่น","Long":"99.858835","Lat":"15.940101","NameT":"ทัณฑสถานเปิดหนองน้ำขุ่น","NameE":"NONG NAM KHUN CORRECTION INSTITUTION"}},{"type":"Feature","geometry":{"type":"Point","coordinates":[101.1825949,12.7055768]},"properties":{"name":"ทัณฑสถานเปิดห้วยโป่ง","Long":"101.182595","Lat":"12.705577","NameT":"ทัณฑสถานเปิดห้วยโป่ง","NameE":"HUAI PONG CORRECTION INSTITUTION"}},{"type":"Feature","geometry":{"type":"Point","coordinates":[100.7288251,14.05659186]},"properties":{"name":"ทัณฑสถานวัยหนุ่มกลาง","Long":"100.728825","Lat":"14.056592","NameT":"ทัณฑสถานวัยหนุ่มกลาง","NameE":"CENTRAL CORRECTION INSTITUTION FOR YOUNG OFFENDERS"}},{"type":"Feature","geometry":{"type":"Point","coordinates":[99.52503452,16.48255099]},"properties":{"name":"ทัณฑสถานวัยหนุ่มกำแพงเพ","Long":"99.525035","Lat":"16.482551","NameT":"ทัณฑสถานวัยหนุ่มกำแพงเพ","NameE":"KAMPHAENG PHET CORRECTION INSTITUTION FOR YOUNG OFFENDERS"}},{"type":"Feature","geometry":{"type":"Point","coordinates":[99.93082621,8.488954187]},"properties":{"name":"ทัณฑสถานวัยหนุ่มนครศรีธ","Long":"99.930826","Lat":"8.488954","NameT":"ทัณฑสถานวัยหนุ่มนครศรีธ","NameE":"NAKHON SI THAMMARAT CORRECTION INSTITUTION FOR YOUNG OFFENDERS"}},{"type":"Feature","geometry":{"type":"Point","coordinates":[100.6171873,14.36290624]},"properties":{"name":"ทัณฑสถานวัยหนุ่มพระนครศ","Long":"100.617187","Lat":"14.362906","NameT":"ทัณฑสถานวัยหนุ่มพระนครศ","NameE":"PHRA NAKHON SI AYUTTHAYA CORRECTION INSTITUTION FOR YOUNG OFFENDERS"}},{"type":"Feature","geometry":{"type":"Point","coordinates":[100.9880671,13.35776761]},"properties":{"name":"ทัณฑสถานหญิงชลบุรี","Long":"100.988067","Lat":"13.357768","NameT":"ทัณฑสถานหญิงชลบุรี","NameE":"CHON BURI CORRECTION INSTITUTION FOR FEMALE OFFENDERS"}},{"type":"Feature","geometry":{"type":"Point","coordinates":[100.6226144,7.15077239]},"properties":{"name":"ทัณฑสถานหญิงสงขลา","Long":"100.622614","Lat":"7.150772","NameT":"ทัณฑสถานหญิงสงขลา","NameE":"SONGKHLA CORRECTION INSTITUTION FOR FEMALE OFFENDERS"}},{"type":"Feature","geometry":{"type":"Point","coordinates":[101.248046,16.78039579]},"properties":{"name":"ทัณฑสถานหญิงหล่มสัก","Long":"101.248046","Lat":"16.780396","NameT":"ทัณฑสถานหญิงหล่มสัก","NameE":"LOM SAK CORRECTION INSTITUTION FOR FEMALE OFFENDERS"}},{"type":"Feature","geometry":{"type":"Point","coordinates":[101.206744,13.24744681]},"properties":{"name":"สถานพินิจและคุ้มครองเด็","Long":"101.206744","Lat":"13.247447","NameT":"สถานพินิจและคุ้มครองเด็","NameE":"CHON BURI OBSERVATION AND PROTECTION CENTER"}},{"type":"Feature","geometry":{"type":"Point","coordinates":[99.04032365,18.55799295]},"properties":{"name":"สถานพินิจและคุ้มครองเด็","Long":"99.040324","Lat":"18.557993","NameT":"สถานพินิจและคุ้มครองเด็","NameE":"LAMPHUN OBSERVATION AND PROTECTION CENTER"}},{"type":"Feature","geometry":{"type":"Point","coordinates":[102.8046505,16.47099321]},"properties":{"name":"สถานพินิจและคุ้มครองเด็","Long":"102.80465","Lat":"16.470993","NameT":"สถานพินิจและคุ้มครองเด็","NameE":"KHON KAEN OBSERVATION AND PROTECTION CENTER"}},{"type":"Feature","geometry":{"type":"Point","coordinates":[101.1707375,16.40135358]},"properties":{"name":"สถานพินิจและคุ้มครองเด็","Long":"101.170738","Lat":"16.401354","NameT":"สถานพินิจและคุ้มครองเด็","NameE":"PHETCHABUN OBSERVATION AND PROTECTION CENTER"}},{"type":"Feature","geometry":{"type":"Point","coordinates":[104.7279198,17.38556917]},"properties":{"name":"สถานพินิจและคุ้มครองเด็","Long":"104.72792","Lat":"17.385569","NameT":"สถานพินิจและคุ้มครองเด็","NameE":"NAKHON PHANOM OBSERVATION AND PROTECTION CENTER"}},{"type":"Feature","geometry":{"type":"Point","coordinates":[100.5745726,13.88814076]},"properties":{"name":"สถานพินิจและคุ้มครองเด็","Long":"100.574573","Lat":"13.888141","NameT":"สถานพินิจและคุ้มครองเด็","NameE":"BANGKOK OBSERVATION AND PROTECTION CENTER"}},{"type":"Feature","geometry":{"type":"Point","coordinates":[100.4035423,14.88629158]},"properties":{"name":"สถานพินิจและคุ้มครองเด็","Long":"100.403542","Lat":"14.886292","NameT":"สถานพินิจและคุ้มครองเด็","NameE":"SING BURI OBSERVATION AND PROTECTION CENTER"}},{"type":"Feature","geometry":{"type":"Point","coordinates":[100.5043609,14.02771366]},"properties":{"name":"สถานพินิจและคุ้มครองเด็","Long":"100.504361","Lat":"14.027714","NameT":"สถานพินิจและคุ้มครองเด็","NameE":"PATHUM THANI OBSERVATION AND PROTECTION CENTER"}},{"type":"Feature","geometry":{"type":"Point","coordinates":[100.4672678,14.57857381]},"properties":{"name":"สถานพินิจและคุ้มครองเด็","Long":"100.467268","Lat":"14.578574","NameT":"สถานพินิจและคุ้มครองเด็","NameE":"ANG THONG OBSERVATION AND PROTECTION CENTER"}},{"type":"Feature","geometry":{"type":"Point","coordinates":[100.0553641,7.609607049]},"properties":{"name":"สถานพินิจและคุ้มครองเด็","Long":"100.055364","Lat":"7.609607","NameT":"สถานพินิจและคุ้มครองเด็","NameE":"PHATTHALUNG OBSERVATION AND PROTECTION CENTER"}},{"type":"Feature","geometry":{"type":"Point","coordinates":[99.87746958,19.92688068]},"properties":{"name":"สถานพินิจและคุ้มครองเด็","Long":"99.87747","Lat":"19.926881","NameT":"สถานพินิจและคุ้มครองเด็","NameE":"CHIANG RAI OBSERVATION AND PROTECTION CENTER"}},{"type":"Feature","geometry":{"type":"Point","coordinates":[100.6403321,14.79471855]},"properties":{"name":"สถานพินิจและคุ้มครองเด็","Long":"100.640332","Lat":"14.794719","NameT":"สถานพินิจและคุ้มครองเด็","NameE":"OBSERVATION AND PROTECTION CENTER"}},{"type":"Feature","geometry":{"type":"Point","coordinates":[102.6808219,17.3458093]},"properties":{"name":"สถานพินิจและคุ้มครองเด็","Long":"102.680822","Lat":"17.345809","NameT":"สถานพินิจและคุ้มครองเด็","NameE":"UDON THANI OBSERVATION AND PROTECTION CENTER"}},{"type":"Feature","geometry":{"type":"Point","coordinates":[101.228818,12.68113933]},"properties":{"name":"สถานพินิจและคุ้มครองเด็","Long":"101.228818","Lat":"12.681139","NameT":"สถานพินิจและคุ้มครองเด็","NameE":"RAYONG OBSERVATION AND PROTECTION CENTER"}},{"type":"Feature","geometry":{"type":"Point","coordinates":[102.4441732,17.20130687]},"properties":{"name":"สถานพินิจและคุ้มครองเด็","Long":"102.444173","Lat":"17.201307","NameT":"สถานพินิจและคุ้มครองเด็","NameE":"NONG BUA LAMPHU OBSERVATION AND PROTECTION CENTER"}},{"type":"Feature","geometry":{"type":"Point","coordinates":[99.65969348,7.484336256]},"properties":{"name":"สถานพินิจและคุ้มครองเด็","Long":"99.659693","Lat":"7.484336","NameT":"สถานพินิจและคุ้มครองเด็","NameE":"TRANG OBSERVATION AND PROTECTION CENTER"}},{"type":"Feature","geometry":{"type":"Point","coordinates":[101.7200517,17.49328044]},"properties":{"name":"สถานพินิจและคุ้มครองเด็","Long":"101.720052","Lat":"17.49328","NameT":"สถานพินิจและคุ้มครองเด็","NameE":"LOEI OBSERVATION AND PROTECTION CENTER"}},{"type":"Feature","geometry":{"type":"Point","coordinates":[100.6067758,7.194186315]},"properties":{"name":"สถานพินิจและคุ้มครองเด็","Long":"100.606776","Lat":"7.194186","NameT":"สถานพินิจและคุ้มครองเด็","NameE":"SONGKHLA OBSERVATION AND PROTECTION CENTER"}},{"type":"Feature","geometry":{"type":"Point","coordinates":[100.146905,18.12545913]},"properties":{"name":"สถานพินิจและคุ้มครองเด็","Long":"100.146905","Lat":"18.125459","NameT":"สถานพินิจและคุ้มครองเด็","NameE":"PHRAE OBSERVATION AND PROTECTION CENTER"}},{"type":"Feature","geometry":{"type":"Point","coordinates":[99.54867154,18.34475565]},"properties":{"name":"สถานพินิจและคุ้มครองเด็","Long":"99.548672","Lat":"18.344756","NameT":"สถานพินิจและคุ้มครองเด็","NameE":"LAMPANG OBSERVATION AND PROTECTION CENTER"}},{"type":"Feature","geometry":{"type":"Point","coordinates":[100.8889955,14.63104728]},"properties":{"name":"สถานพินิจและคุ้มครองเด็","Long":"100.888995","Lat":"14.631047","NameT":"สถานพินิจและคุ้มครองเด็","NameE":"SARABURI OBSERVATION AND PROTECTION CENTER"}},{"type":"Feature","geometry":{"type":"Point","coordinates":[104.8262162,15.35914404]},"properties":{"name":"สถานพินิจและคุ้มครองเด็","Long":"104.826216","Lat":"15.359144","NameT":"สถานพินิจและคุ้มครองเด็","NameE":"UBON RATCHATHANI OBSERVATION AND PROTECTION CENTER"}},{"type":"Feature","geometry":{"type":"Point","coordinates":[100.2603172,16.84424041]},"properties":{"name":"สถานพินิจและคุ้มครองเด็","Long":"100.260317","Lat":"16.84424","NameT":"สถานพินิจและคุ้มครองเด็","NameE":"PHITSANULOK OBSERVATION AND PROTECTION CENTER"}},{"type":"Feature","geometry":{"type":"Point","coordinates":[101.7863184,6.430409733]},"properties":{"name":"สถานพินิจและคุ้มครองเด็","Long":"101.786318","Lat":"6.43041","NameT":"สถานพินิจและคุ้มครองเด็","NameE":"NARATHIWAT OBSERVATION AND PROTECTION CENTER"}},{"type":"Feature","geometry":{"type":"Point","coordinates":[99.54033805,14.11692797]},"properties":{"name":"สถานพินิจและคุ้มครองเด็","Long":"99.540338","Lat":"14.116928","NameT":"สถานพินิจและคุ้มครองเด็","NameE":"KANCHANABURI OBSERVATION AND PROTECTION CENTER"}},{"type":"Feature","geometry":{"type":"Point","coordinates":[100.0318524,15.37295993]},"properties":{"name":"สถานพินิจและคุ้มครองเด็","Long":"100.031852","Lat":"15.37296","NameT":"สถานพินิจและคุ้มครองเด็","NameE":"UTHAI THANI OBSERVATION AND PROTECTION CENTER"}},{"type":"Feature","geometry":{"type":"Point","coordinates":[100.5963987,13.67335634]},"properties":{"name":"สถานพินิจและคุ้มครองเด็","Long":"100.596399","Lat":"13.673356","NameT":"สถานพินิจและคุ้มค��องเด็","NameE":"CENTRAL OBSERVATION AND PROTECTION CENTER, BAN MUTHITA"}},{"type":"Feature","geometry":{"type":"Point","coordinates":[102.1351425,13.79543824]},"properties":{"name":"สถานพินิจและคุ้มครองเด็","Long":"102.135143","Lat":"13.795438","NameT":"สถานพินิจและคุ้มครองเด็","NameE":"SA KAEO OBSERVATION AND PROTECTION CENTER"}},{"type":"Feature","geometry":{"type":"Point","coordinates":[103.5341263,16.45180588]},"properties":{"name":"สถานพินิจและคุ้มครองเด็","Long":"103.534126","Lat":"16.451806","NameT":"สถานพินิจและคุ้มครองเด็","NameE":"KALASIN OBSERVATION AND PROTECTION CENTER"}},{"type":"Feature","geometry":{"type":"Point","coordinates":[102.7882702,17.41036175]},"properties":{"name":"สถานพินิจและคุ้มครองเด็","Long":"102.78827","Lat":"17.410362","NameT":"สถานพินิจและคุ้มครองเด็","NameE":"UDON THANI OBSERVATION AND PROTECTION CENTER"}},{"type":"Feature","geometry":{"type":"Point","coordinates":[103.4744404,14.88980141]},"properties":{"name":"สถานพินิจและคุ้มครองเด็","Long":"103.47444","Lat":"14.889801","NameT":"สถานพินิจและคุ้มครองเด็","NameE":"SURIN OBSERVATION AND PROTECTION CENTER"}},{"type":"Feature","geometry":{"type":"Point","coordinates":[98.89194406,8.093394493]},"properties":{"name":"สถานพินิจและคุ้มครองเด็","Long":"98.891944","Lat":"8.093394","NameT":"สถานพินิจและคุ้มครองเด็","NameE":"KRABI OBSERVATION AND PROTECTION CENTER"}},{"type":"Feature","geometry":{"type":"Point","coordinates":[100.6023827,13.67262501]},"properties":{"name":"สถานพินิจและคุ้มครองเด็","Long":"100.602383","Lat":"13.672625","NameT":"สถานพินิจและคุ้มครองเด็","NameE":"CENTRAL OBSERVATION AND PROTECTION CENTER, BAN KARUNA"}},{"type":"Feature","geometry":{"type":"Point","coordinates":[101.0532093,13.66243664]},"properties":{"name":"สถานพินิจและคุ้มครองเด็","Long":"101.053209","Lat":"13.662437","NameT":"สถานพินิจและคุ้มครองเด็","NameE":"CHACHOENGSAO OBSERVATION AND PROTECTION CENTER"}},{"type":"Feature","geometry":{"type":"Point","coordinates":[100.272083,13.85025169]},"properties":{"name":"สถานพินิจและคุ้มครองเด็","Long":"100.272083","Lat":"13.850252","NameT":"สถานพินิจและคุ้มครองเด็","NameE":"CENTRAL OBSERVATION AND PROTECTION CENTER, BAN PRANI"}},{"type":"Feature","geometry":{"type":"Point","coordinates":[104.3316891,15.11953226]},"properties":{"name":"สถานพินิจและคุ้มครองเด็","Long":"104.331689","Lat":"15.119532","NameT":"สถานพินิจและคุ้มครองเด็","NameE":"OBSERVATION AND PROTECTION CENTER"}},{"type":"Feature","geometry":{"type":"Point","coordinates":[103.0740296,14.9039552]},"properties":{"name":"สถานพินิจและคุ้มครองเด็","Long":"103.07403","Lat":"14.903955","NameT":"สถานพินิจและคุ้มครองเด็","NameE":"BURI RAM OBSERVATION AND PROTECTION CENTER"}},{"type":"Feature","geometry":{"type":"Point","coordinates":[100.5944493,14.36619618]},"properties":{"name":"สถานพินิจและคุ้มครองเด็","Long":"100.594449","Lat":"14.366196","NameT":"สถานพินิจและคุ้มครองเด็","NameE":"OBSERVATION AND PROTECTION CENTER"}},{"type":"Feature","geometry":{"type":"Point","coordinates":[100.4989704,13.75108258]},"properties":{"name":"สถานพินิจและคุ้มครองเด็","Long":"100.49897","Lat":"13.751083","NameT":"สถานพินิจและคุ้มครองเด็","NameE":"CENTRAL OBSERVATION AND PROTECTION CENTER"}},{"type":"Feature","geometry":{"type":"Point","coordinates":[103.5945325,16.071722]},"properties":{"name":"สถานพินิจและคุ้มครองเด็","Long":"103.594533","Lat":"16.071722","NameT":"สถานพินิจและคุ้มครองเด็","NameE":"ROI ET OBSERVATION AND PROTECTION CENTER"}},{"type":"Feature","geometry":{"type":"Point","coordinates":[100.0775492,15.70024353]},"properties":{"name":"สถานพินิจและคุ้มครองเด็","Long":"100.077549","Lat":"15.700244","NameT":"สถานพินิจและคุ้มครองเด็","NameE":"NAKHON SAWAN OBSERVATION AND PROTECTION CENTER"}},{"type":"Feature","geometry":{"type":"Point","coordinates":[98.39164076,7.870513086]},"properties":{"name":"สถานพินิจและคุ้มครองเด็","Long":"98.391641","Lat":"7.870513","NameT":"สถานพินิจและคุ้มครองเด็","NameE":"PHUKET OBSERVATION AND PROTECTION CENTER"}},{"type":"Feature","geometry":{"type":"Point","coordinates":[99.02111251,18.80124522]},"properties":{"name":"สถานพินิจและคุ้มครองเด็","Long":"99.021113","Lat":"18.801245","NameT":"สถานพินิจและคุ้มครองเด็","NameE":"CHIANG MAI OBSERVATION AND PROTECTION CENTER"}},{"type":"Feature","geometry":{"type":"Point","coordinates":[100.0477623,8.371167589]},"properties":{"name":"สถานพินิจและคุ้มครองเด็","Long":"100.047762","Lat":"8.371168","NameT":"สถานพินิจและคุ้มครองเด็","NameE":"NAKHON SI THAMMARAT OBSERVATION AND PROTECTION CENTER"}},{"type":"Feature","geometry":{"type":"Point","coordinates":[98.96999701,18.89053991]},"properties":{"name":"สถานพินิจและคุ้มครองเด็","Long":"98.969997","Lat":"18.89054","NameT":"สถานพินิจและคุ้มครองเด็","NameE":"OBSERVATION AND PROTECTION CENTER"}},{"type":"Feature","geometry":{"type":"Point","coordinates":[99.824532,17.01472669]},"properties":{"name":"สถานพินิจและคุ้มครองเด็","Long":"99.824532","Lat":"17.014727","NameT":"สถานพินิจและคุ้มครองเด็","NameE":"OBSERVATION AND PROTECTION CENTER"}},{"type":"Feature","geometry":{"type":"Point","coordinates":[102.0379381,14.94018251]},"properties":{"name":"สถานพินิจและคุ้มครองเด็","Long":"102.037938","Lat":"14.940183","NameT":"สถานพินิจและคุ้มครองเด็","NameE":"NAKHON RATCHASIMA OBSERVATION AND PROTECTION CENTER"}},{"type":"Feature","geometry":{"type":"Point","coordinates":[99.53496122,16.48521578]},"properties":{"name":"สถานพินิจและคุ้มครองเด็","Long":"99.534961","Lat":"16.485216","NameT":"สถานพินิจและคุ้มครองเด็","NameE":"KAMPHAENG PHET OBSERVATION AND PROTECTION CENTER"}},{"type":"Feature","geometry":{"type":"Point","coordinates":[100.0993422,6.676835808]},"properties":{"name":"สถานพินิจและคุ้มครองเด็","Long":"100.099342","Lat":"6.676836","NameT":"สถานพินิจและคุ้มครองเด็","NameE":"SATUN OBSERVATION AND PROTECTION CENTER"}},{"type":"Feature","geometry":{"type":"Point","coordinates":[101.8305631,6.422519813]},"properties":{"name":"สถานพินิจและคุ้มครองเด็","Long":"101.830563","Lat":"6.42252","NameT":"สถานพินิจและคุ้มครองเด็","NameE":"NARATHIWAT OBSERVATION AND PROTECTION CENTER"}}]}