{"type":"FeatureCollection","features":[{"type":"Feature","geometry":{"type":"Point","coordinates":[100.7112774,13.77028469]},"properties":{"name":"สำนักงานที่ดินกรุงเทพมห","Long":"100.711277","Lat":"13.770285","NameT":"สำนักงานที่ดินกรุงเทพมห","NameE":"BANGKOK LAND OFFICE BUENG KUM BRANCH"}},{"type":"Feature","geometry":{"type":"Point","coordinates":[100.3389921,13.70027633]},"properties":{"name":"สำนักงานที่ดินกรุงเทพมห","Long":"100.338992","Lat":"13.700276","NameT":"สำนักงานที่ดินกรุงเทพมห","NameE":"BANGKOK LAND OFFICE NONG KHAEM BRANCH"}},{"type":"Feature","geometry":{"type":"Point","coordinates":[100.6968726,13.73904937]},"properties":{"name":"สำนักงานที่ดินกรุงเทพมห","Long":"100.696873","Lat":"13.739049","NameT":"สำนักงานที่ดินกรุงเทพมห","NameE":"BANGKOK LAND OFFICE PRAWET BRANCH"}},{"type":"Feature","geometry":{"type":"Point","coordinates":[100.7362404,13.8128529]},"properties":{"name":"สำนักงานที่ดินกรุงเทพมห","Long":"100.73624","Lat":"13.812853","NameT":"สำนักงานที่ดินกรุงเทพมห","NameE":"BANGKOK LAND OFFICE MIN BURI BRANCH"}},{"type":"Feature","geometry":{"type":"Point","coordinates":[100.6504021,13.78244495]},"properties":{"name":"สำนักงานที่ดินกรุงเทพมห","Long":"100.650402","Lat":"13.782445","NameT":"สำนักงานที่ดินกรุงเทพมห","NameE":"BANGKOK LAND OFFICE BANG KAPI BRANCH"}},{"type":"Feature","geometry":{"type":"Point","coordinates":[100.5733899,13.82806403]},"properties":{"name":"สำนักงานที่ดินกรุงเทพมห","Long":"100.57339","Lat":"13.828064","NameT":"สำนักงานที่ดินกรุงเทพมห","NameE":"BANGKOK LAND OFFICE HUAI KHWANG BRANCH CHATUCHAK SUB-BRANCH"}},{"type":"Feature","geometry":{"type":"Point","coordinates":[100.6502982,13.6828542]},"properties":{"name":"สำนักงานที่ดินกรุงเทพมห","Long":"100.650298","Lat":"13.682854","NameT":"สำนักงานที่ดินกรุงเทพมห","NameE":"BANGKOK LAND OFFICE PHRA KHANONG BRANCH"}},{"type":"Feature","geometry":{"type":"Point","coordinates":[100.4389757,13.66207627]},"properties":{"name":"สำนักงานที่ดินกรุงเทพมห","Long":"100.438976","Lat":"13.662076","NameT":"สำนักงานที่ดินกรุงเทพมห","NameE":"BANGKOK LAND OFFICE BANG KHUN THIAN BRANCH"}},{"type":"Feature","geometry":{"type":"Point","coordinates":[100.5067025,13.71322684]},"properties":{"name":"สำนักงานที่ดินกรุงเทพมห","Long":"100.506703","Lat":"13.713227","NameT":"สำนักงานที่ดินกรุงเทพมห","NameE":"BANGKOK LAND OFFICE THON BURI BRANCH"}},{"type":"Feature","geometry":{"type":"Point","coordinates":[100.7354407,13.76369319]},"properties":{"name":"สำนักงานที่ดินกรุงเทพมห","Long":"100.735441","Lat":"13.763693","NameT":"สำนักงานที่ดินกรุงเทพมห","NameE":"BANGKOK LAND OFFICE LAT KRABANG BRANCH"}},{"type":"Feature","geometry":{"type":"Point","coordinates":[100.601298,13.9140908]},"properties":{"name":"สำนักงานที่ดินกรุงเทพมห","Long":"100.601298","Lat":"13.914091","NameT":"สำนักงานที่ดินกรุงเทพมห","NameE":"BANGKOK LAND OFFICE DON MUEANG BRANCH"}},{"type":"Feature","geometry":{"type":"Point","coordinates":[100.6493826,13.85189804]},"properties":{"name":"สำนักงานที่ดินกรุงเทพมห","Long":"100.649383","Lat":"13.851898","NameT":"สำนักงานที่ดินกรุงเทพมห","NameE":"BANGKOK LAND OFFICE LAT PHRAO BRANCH"}},{"type":"Feature","geometry":{"type":"Point","coordinates":[100.8304951,13.80147082]},"properties":{"name":"สำนักงานที่ดินกรุงเทพมห","Long":"100.830495","Lat":"13.801471","NameT":"สำนักงานที่ดินกรุงเทพมห","NameE":"BANGKOK LAND OFFICE NONG CHOK BRANCH"}},{"type":"Feature","geometry":{"type":"Point","coordinates":[100.499292,13.74327197]},"properties":{"name":"สำนักงานที่ดินกรุงเทพมห","Long":"100.499292","Lat":"13.743272","NameT":"สำนักงานที่ดินกรุงเทพมห","NameE":"BANGKOK LAND OFFICE"}},{"type":"Feature","geometry":{"type":"Point","coordinates":[100.5916962,13.86046984]},"properties":{"name":"สำนักงานที่ดินกรุงเทพมห","Long":"100.591696","Lat":"13.86047","NameT":"สำนักงานที่ดินกรุงเทพมห","NameE":"BANGKOK LAND OFFICE BANG KHEN BRANCH"}},{"type":"Feature","geometry":{"type":"Point","coordinates":[100.5831255,13.78287917]},"properties":{"name":"สำนักงานที่ดินกรุงเทพมห","Long":"100.583125","Lat":"13.782879","NameT":"สำนักงานที่ดินกรุงเทพมห","NameE":"BANGKOK LAND OFFICE HUAI KHWANG BRANCH"}},{"type":"Feature","geometry":{"type":"Point","coordinates":[100.4921623,13.77975468]},"properties":{"name":"สำนักงานที่ดินกรุงเทพมห","Long":"100.492162","Lat":"13.779755","NameT":"สำนักงานที่ดินกรุงเทพมห","NameE":"BANGKOK LAND OFFICE BANGKOK NOI BRANCH"}},{"type":"Feature","geometry":{"type":"Point","coordinates":[98.86634927,8.530935775]},"properties":{"name":"สำนักงานที่ดินจังหวัดกร","Long":"98.866349","Lat":"8.530936","NameT":"สำนักงานที่ดินจังหวัดกร","NameE":"KRABI LAND OFFICE PLAI PHRAYA BRANCH"}},{"type":"Feature","geometry":{"type":"Point","coordinates":[98.9209425,8.058185994]},"properties":{"name":"สำนักงานที่ดินจังหวัดกร","Long":"98.920942","Lat":"8.058186","NameT":"สำนักงานที่ดินจังหวัดกร","NameE":"KRABI LAND OFFICE"}},{"type":"Feature","geometry":{"type":"Point","coordinates":[99.05115784,8.261180627]},"properties":{"name":"สำนักงานที่ดินจังหวัดกร","Long":"99.051158","Lat":"8.261181","NameT":"สำนักงานที่ดินจังหวัดกร","NameE":"KRABI LAND OFFICE KHAO PHANOM BRANCH"}},{"type":"Feature","geometry":{"type":"Point","coordinates":[99.14945622,7.933060029]},"properties":{"name":"สำนักงานที่ดินจังหวัดกร","Long":"99.149456","Lat":"7.93306","NameT":"สำนักงานที่ดินจังหวัดกร","NameE":"KRABI LAND OFFICE KHLONG THOM BRANCH"}},{"type":"Feature","geometry":{"type":"Point","coordinates":[98.72466269,8.375118247]},"properties":{"name":"สำนักงานที่ดินจังหวัดกร","Long":"98.724663","Lat":"8.375118","NameT":"สำนักงานที่ดินจังหวัดกร","NameE":"KRABI LAND OFFICE AO LUEK BRANCH"}},{"type":"Feature","geometry":{"type":"Point","coordinates":[99.76900979,13.91911241]},"properties":{"name":"สำนักงานที่ดินจังหวัดกา","Long":"99.76901","Lat":"13.919112","NameT":"สำนักงานที่ดินจังหวัดกา","NameE":"KANCHANABURI LAND OFFICE THA MAKA SUB-BRANCH"}},{"type":"Feature","geometry":{"type":"Point","coordinates":[103.5113322,16.43278675]},"properties":{"name":"สำนักงานที่ดินจังหวัดกา","Long":"103.511332","Lat":"16.432787","NameT":"สำนักงานที่ดินจังหวัดกา","NameE":"KALASIN LAND OFFICE"}},{"type":"Feature","geometry":{"type":"Point","coordinates":[99.73764167,14.54385792]},"properties":{"name":"สำนักงานที่ดินจังหวัดกา","Long":"99.737642","Lat":"14.543858","NameT":"สำนักงานที่ดินจังหวัดกา","NameE":"KANCHANABURI LAND OFFICE LAO KHWAN SUB-BRANCH"}},{"type":"Feature","geometry":{"type":"Point","coordinates":[99.77831919,14.59599888]},"properties":{"name":"สำนักงานที่ดินจังหวัดกา","Long":"99.778319","Lat":"14.595999","NameT":"สำนักงานที่ดินจังหวัดกา","NameE":"KANCHANABURI LAND OFFICE"}},{"type":"Feature","geometry":{"type":"Point","coordinates":[103.2982162,16.6530776]},"properties":{"name":"สำนักงานที่ดินจังหวัดกา","Long":"103.298216","Lat":"16.653078","NameT":"สำนักงานที่ดินจังหวัดกา","NameE":"KALASIN LAND OFFICE NONG KUNG SI BRANCH"}},{"type":"Feature","geometry":{"type":"Point","coordinates":[103.378182,16.40300785]},"properties":{"name":"สำนักงานที่ดินจังหวัดกา","Long":"103.378182","Lat":"16.403008","NameT":"สำนักงานที่ดินจังหวัดกา","NameE":"KALASIN LAND OFFICE YANG TALAT BRANCH"}},{"type":"Feature","geometry":{"type":"Point","coordinates":[99.55243939,14.00328499]},"properties":{"name":"สำนักงานที่ดินจังหวัดกา","Long":"99.552439","Lat":"14.003285","NameT":"สำนักงานที่ดินจังหวัดกา","NameE":"KANCHANABURI LAND OFFICE"}},{"type":"Feature","geometry":{"type":"Point","coordinates":[103.6366363,16.91905371]},"properties":{"name":"สำนักงานที่ดินจังหวัดกา","Long":"103.636636","Lat":"16.919054","NameT":"สำนักงานที่ดินจังหวัดกา","NameE":"KALASIN LAND OFFICE KHAM MUANG BRANCH"}},{"type":"Feature","geometry":{"type":"Point","coordinates":[104.0580573,16.5355867]},"properties":{"name":"สำนักงานที่ดินจังหวัดกา","Long":"104.058057","Lat":"16.535587","NameT":"สำนักงานที่ดินจังหวัดกา","NameE":"KALASIN LAND OFFICE KUCHI NARAI BRANCH"}},{"type":"Feature","geometry":{"type":"Point","coordinates":[99.51238618,14.30549916]},"properties":{"name":"สำนักงานที่ดินจังหวัดกา","Long":"99.512386","Lat":"14.305499","NameT":"สำนักงานที่ดินจังหวัดกา","NameE":"KANCHANABURI LAND OFFICE BO PHLOI BRANCH"}},{"type":"Feature","geometry":{"type":"Point","coordinates":[103.5796301,16.33704895]},"properties":{"name":"สำนักงานที่ดินจังหวัดกา","Long":"103.57963","Lat":"16.337049","NameT":"สำนักงานที่ดินจังหวัดกา","NameE":"KALASIN LAND OFFICE KAMALASAI BRANCH"}},{"type":"Feature","geometry":{"type":"Point","coordinates":[103.248771,16.93860347]},"properties":{"name":"สำนักงานที่ดินจังหวัดกา","Long":"103.248771","Lat":"16.938603","NameT":"สำนักงานที่ดินจังหวัดกา","NameE":"KALASIN LAND OFFICE THA KHANTHO BRANCH"}},{"type":"Feature","geometry":{"type":"Point","coordinates":[103.7534569,16.7038982]},"properties":{"name":"สำนักงานที่ดินจังหวัดกา","Long":"103.753457","Lat":"16.703898","NameT":"สำนักงานที่ดินจังหวัดกา","NameE":"KALASIN LAND OFFICE SOMDET BRANCH"}},{"type":"Feature","geometry":{"type":"Point","coordinates":[99.52867225,16.48331479]},"properties":{"name":"สำนักงานที่ดินจังหวัดกำ","Long":"99.528672","Lat":"16.483315","NameT":"สำนักงานที่ดินจังหวัดกำ","NameE":"FORMER KAMPHAENG PHET LAND OFFICE"}},{"type":"Feature","geometry":{"type":"Point","coordinates":[99.59190144,16.66364025]},"properties":{"name":"สำนักงานที่ดินจังหวัดกำ","Long":"99.591901","Lat":"16.66364","NameT":"สำนักงานที่ดินจังหวัดกำ","NameE":"KAMPHAENG PHET LAND OFFICE PHRAN KRATAI BRANCH"}},{"type":"Feature","geometry":{"type":"Point","coordinates":[99.51617307,16.55000638]},"properties":{"name":"สำนักงานที่ดินจังหวัดกำ","Long":"99.516173","Lat":"16.550006","NameT":"สำนักงานที่ดินจังหวัดกำ","NameE":"KAMPHAENG PHET LAND OFFICE"}},{"type":"Feature","geometry":{"type":"Point","coordinates":[99.72101604,16.21462054]},"properties":{"name":"สำนักงานที่ดินจังหวัดกำ","Long":"99.721016","Lat":"16.214621","NameT":"สำนักงานที่ดินจังหวัดกำ","NameE":"KAMPHAENG PHET LAND OFFICE KHLONG KHLUNG BRANCH"}},{"type":"Feature","geometry":{"type":"Point","coordinates":[99.86354164,16.05966132]},"properties":{"name":"สำนักงานที่ดินจังหวัดกำ","Long":"99.863542","Lat":"16.059661","NameT":"สำนักงานที่ดินจังหวัดกำ","NameE":"KAMPHAENG PHET LAND OFFICE KHANU WORALAKBURI BRANCH"}},{"type":"Feature","geometry":{"type":"Point","coordinates":[99.71445548,16.21193804]},"properties":{"name":"สำนักงานที่ดินจังหวัดกำ","Long":"99.714455","Lat":"16.211938","NameT":"สำนักงานที่ดินจังหวัดกำ","NameE":"KAMPHAENG PHET LAND OFFICE"}},{"type":"Feature","geometry":{"type":"Point","coordinates":[102.6518744,16.32314018]},"properties":{"name":"สำนักงานที่ดินจังหวัดขอ","Long":"102.651874","Lat":"16.32314","NameT":"สำนักงานที่ดินจังหวัดขอ","NameE":"KHON KAEN LAND OFFICE PHRA YUEN SUB-BRANCH"}},{"type":"Feature","geometry":{"type":"Point","coordinates":[102.6423889,16.45138891]},"properties":{"name":"สำนักงานที่ดินจังหวัดขอ","Long":"102.642389","Lat":"16.451389","NameT":"สำนักงานที่ดินจังหวัดขอ","NameE":"KHON KAEN LAND OFFICE BAN FANG BRANCH"}},{"type":"Feature","geometry":{"type":"Point","coordinates":[102.6258718,16.08712633]},"properties":{"name":"สำนักงานที่ดินจังหวัดขอ","Long":"102.625872","Lat":"16.087126","NameT":"สำนักงานที่ดินจังหวัดขอ","NameE":"KHON KAEN LAND OFFICE CHONNABOT BRANCH"}},{"type":"Feature","geometry":{"type":"Point","coordinates":[102.4198041,15.80184203]},"properties":{"name":"สำนักงานที่ดินจังหวัดขอ","Long":"102.419804","Lat":"15.801842","NameT":"สำนักงานที่ดินจังหวัดขอ","NameE":"KHON KAEN LAND OFFICE PHON WAENG NOI SUB-BRANCH"}},{"type":"Feature","geometry":{"type":"Point","coordinates":[102.5898471,15.8089467]},"properties":{"name":"สำนักงานที่ดินจังหวัดขอ","Long":"102.589847","Lat":"15.808947","NameT":"สำนักงานที่ดินจังหวัดขอ","NameE":"KHON KAEN LAND OFFICE PHON BRANCH"}},{"type":"Feature","geometry":{"type":"Point","coordinates":[102.5462763,16.12384618]},"properties":{"name":"สำนักงานที่ดินจังหวัดขอ","Long":"102.546276","Lat":"16.123846","NameT":"สำนักงานที่ดินจังหวัดขอ","NameE":"KHON KAEN LAND OFFICE MANCHA KHIRI BRANCH"}},{"type":"Feature","geometry":{"type":"Point","coordinates":[102.1023539,16.5421811]},"properties":{"name":"สำนักงานที่ดินจังหวัดขอ","Long":"102.102354","Lat":"16.542181","NameT":"สำนักงานที่ดินจังหวัดขอ","NameE":"KHON KAEN LAND OFFICE CHUM PHAE BRANCH"}},{"type":"Feature","geometry":{"type":"Point","coordinates":[102.3808878,16.65301754]},"properties":{"name":"สำนักงานที่ดินจังหวัดขอ","Long":"102.380888","Lat":"16.653018","NameT":"สำนักงานที่ดินจังหวัดขอ","NameE":"KHON KAEN LAND OFFICE PHU WIANG BRANCH"}},{"type":"Feature","geometry":{"type":"Point","coordinates":[102.4363183,16.49126661]},"properties":{"name":"สำนักงานที่ดินจังหวัดขอ","Long":"102.436318","Lat":"16.491267","NameT":"สำนักงานที่ดินจังหวัดขอ","NameE":"KHON KAEN LAND OFFICE NONG RUEA BRANCH"}},{"type":"Feature","geometry":{"type":"Point","coordinates":[102.1908801,16.79976806]},"properties":{"name":"สำนักงานที่ดินจังหวัดขอ","Long":"102.19088","Lat":"16.799768","NameT":"สำนักงานที่ดินจังหวัดขอ","NameE":"KHON KAEN LAND OFFICE SI CHOMPHU BRANCH"}},{"type":"Feature","geometry":{"type":"Point","coordinates":[102.7448654,16.09328812]},"properties":{"name":"สำนักงานที่ดินจังหวัดขอ","Long":"102.744865","Lat":"16.093288","NameT":"สำนักงานที่ดินจังหวัดขอ","NameE":"KHON KAEN LAND OFFICE BAN PHAI BRANCH"}},{"type":"Feature","geometry":{"type":"Point","coordinates":[102.8595097,16.70002177]},"properties":{"name":"สำนักงานที่ดินจังหวัดขอ","Long":"102.85951","Lat":"16.700022","NameT":"สำนักงานที่ดินจังหวัดขอ","NameE":"KHON KAEN LAND OFFICE NAM PHONG BRANCH"}},{"type":"Feature","geometry":{"type":"Point","coordinates":[102.8414394,16.4393059]},"properties":{"name":"สำนักงานที่ดินจังหวัดขอ","Long":"102.841439","Lat":"16.439306","NameT":"สำนักงานที่ดินจังหวัดขอ","NameE":"KHON KAEN LAND OFFICE"}},{"type":"Feature","geometry":{"type":"Point","coordinates":[102.9106139,15.86856253]},"properties":{"name":"สำนักงานที่ดินจังหวัดขอ","Long":"102.910614","Lat":"15.868563","NameT":"สำนักงานที่ดินจังหวัดขอ","NameE":"KHON KAEN LAND OFFICE PUEAI NOI BRANCH"}},{"type":"Feature","geometry":{"type":"Point","coordinates":[102.7995178,15.73179916]},"properties":{"name":"สำนักงานที่ดินจังหวัดขอ","Long":"102.799518","Lat":"15.731799","NameT":"สำนักงานที่ดินจังหวัดขอ","NameE":"KHON KAEN LAND OFFICE NONG SONG HONG BRANCH"}},{"type":"Feature","geometry":{"type":"Point","coordinates":[103.0859996,16.71684626]},"properties":{"name":"สำนักงานที่ดินจังหวัดขอ","Long":"103.086","Lat":"16.716846","NameT":"สำนักงานที่ดินจังหวัดขอ","NameE":"KHON KAEN LAND OFFICE KRANUAN BRANCH"}},{"type":"Feature","geometry":{"type":"Point","coordinates":[102.0776165,12.47997861]},"properties":{"name":"สำนักงานที่ดินจังหวัดจั","Long":"102.077617","Lat":"12.479979","NameT":"สำนักงานที่ดินจังหวัดจั","NameE":"CHANTHABURI LAND OFFICE LAEM SING BRANCH"}},{"type":"Feature","geometry":{"type":"Point","coordinates":[102.0131407,12.61869803]},"properties":{"name":"สำนักงานที่ดินจังหวัดจั","Long":"102.013141","Lat":"12.618698","NameT":"สำนักงานที่ดินจังหวัดจั","NameE":"CHANTHABURI LAND OFFICE THA MAI BRANCH"}},{"type":"Feature","geometry":{"type":"Point","coordinates":[102.106552,12.60639713]},"properties":{"name":"สำนักงานที่ดินจังหวัดจั","Long":"102.106552","Lat":"12.606397","NameT":"สำนักงานที่ดินจังหวัดจั","NameE":"CHANTHABURI LAND OFFICE"}},{"type":"Feature","geometry":{"type":"Point","coordinates":[102.2000483,12.67218729]},"properties":{"name":"สำนักงานที่ดินจังหวัดจั","Long":"102.200048","Lat":"12.672187","NameT":"สำนักงานที่ดินจังหวัดจั","NameE":"CHANTHABURI LAND OFFICE MAKHAM BRANCH"}},{"type":"Feature","geometry":{"type":"Point","coordinates":[101.072458,13.68505319]},"properties":{"name":"สำนักงานที่ดินจังหวัดฉะ","Long":"101.072458","Lat":"13.685053","NameT":"สำนักงานที่ดินจังหวัดฉะ","NameE":"CHACHOENGSAO LAND OFFICE"}},{"type":"Feature","geometry":{"type":"Point","coordinates":[101.4429858,13.65687747]},"properties":{"name":"สำนักงานที่ดินจังหวัดฉะ","Long":"101.442986","Lat":"13.656877","NameT":"สำนักงานที่ดินจังหวัดฉะ","NameE":"CHACHOENGSAO LAND OFFICE SANAM CHAI KHET BRANCH"}},{"type":"Feature","geometry":{"type":"Point","coordinates":[101.2875052,13.58329025]},"properties":{"name":"สำนักงานที่ดินจังหวัดฉะ","Long":"101.287505","Lat":"13.58329","NameT":"สำนักงานที่ดินจังหวัดฉะ","NameE":"CHACHOENGSAO LAND OFFICE PLAENG YAO BRANCH"}},{"type":"Feature","geometry":{"type":"Point","coordinates":[101.2122605,13.72556239]},"properties":{"name":"สำนักงานที่ดินจังหวัดฉะ","Long":"101.212261","Lat":"13.725562","NameT":"สำนักงานที่ดินจังหวัดฉะ","NameE":"CHACHOENGSAO LAND OFFICE BANG KHLA BRANCH"}},{"type":"Feature","geometry":{"type":"Point","coordinates":[100.9778626,13.54562378]},"properties":{"name":"สำนักงานที่ดินจังหวัดฉะ","Long":"100.977863","Lat":"13.545624","NameT":"สำนักงานที่ดินจังหวัดฉะ","NameE":"CHACHOENGSAO LAND OFFICE"}},{"type":"Feature","geometry":{"type":"Point","coordinates":[100.98717,13.35654182]},"properties":{"name":"สำนักงานที่ดินจังหวัดชล","Long":"100.98717","Lat":"13.356542","NameT":"สำนักงานที่ดินจังหวัดชล","NameE":"CHON BURI LAND OFFICE"}},{"type":"Feature","geometry":{"type":"Point","coordinates":[100.9166126,12.97512965]},"properties":{"name":"สำนักงานที่ดินจังหวัดชล","Long":"100.916613","Lat":"12.97513","NameT":"สำนักงานที่ดินจังหวัดชล","NameE":"CHON BURI LAND OFFICE BANG LAMUNG BRANCH"}},{"type":"Feature","geometry":{"type":"Point","coordinates":[100.9073938,12.66121526]},"properties":{"name":"สำนักงานที่ดินจังหวัดชล","Long":"100.907394","Lat":"12.661215","NameT":"สำนักงานที่ดินจังหวัดชล","NameE":"CHON BURI LAND OFFICE SATTAHIP BRANCH"}},{"type":"Feature","geometry":{"type":"Point","coordinates":[101.1865775,13.46417293]},"properties":{"name":"สำนักงานที่ดินจังหวัดชล","Long":"101.186578","Lat":"13.464173","NameT":"สำนักงานที่ดินจังหวัดชล","NameE":"CHON BURI LAND OFFICE PHANAT NIKHOM BRANCH"}},{"type":"Feature","geometry":{"type":"Point","coordinates":[101.1159554,13.30948951]},"properties":{"name":"สำนักงานที่ดินจังหวัดชล","Long":"101.115955","Lat":"13.30949","NameT":"สำนักงานที่ดินจังหวัดชล","NameE":"CHON BURI LAND OFFICE BAN BUENG BRANCH"}},{"type":"Feature","geometry":{"type":"Point","coordinates":[100.1485386,15.20247119]},"properties":{"name":"สำนักงานที่ดินจังหวัดชั","Long":"100.148539","Lat":"15.202471","NameT":"สำนักงานที่ดินจังหวัดชั","NameE":"CHAI NAT LAND OFFICE"}},{"type":"Feature","geometry":{"type":"Point","coordinates":[100.0406212,15.25384028]},"properties":{"name":"สำนักงานที่ดินจังหวัดชั","Long":"100.040621","Lat":"15.25384","NameT":"สำนักงานที่ดินจังหวัดชั","NameE":"CHAI NAT LAND OFFICE WAT SING BRANCH"}},{"type":"Feature","geometry":{"type":"Point","coordinates":[100.1641577,15.04535106]},"properties":{"name":"สำนักงานที่ดินจังหวัดชั","Long":"100.164158","Lat":"15.045351","NameT":"สำนักงานที่ดินจังหวัดชั","NameE":"CHAI NAT LAND OFFICE SANKHA BURI BRANCH"}},{"type":"Feature","geometry":{"type":"Point","coordinates":[102.3780784,16.40921552]},"properties":{"name":"สำนักงานที่ดินจังหวัดชั","Long":"102.378078","Lat":"16.409216","NameT":"สำนักงานที่ดินจังหวัดชั","NameE":"CHAIYAPHUM LAND OFFICE BAN THAEN BRANCH"}},{"type":"Feature","geometry":{"type":"Point","coordinates":[101.9576105,16.27928506]},"properties":{"name":"สำนักงานที่ดินจังหวัดชั","Long":"101.957611","Lat":"16.279285","NameT":"สำนักงานที่ดินจังหวัดชั","NameE":"CHAIYAPHUM LAND OFFICE KASET SOMBUN BRANCH"}},{"type":"Feature","geometry":{"type":"Point","coordinates":[102.2612275,16.10625278]},"properties":{"name":"สำนักงานที่ดินจังหวัดชั","Long":"102.261228","Lat":"16.106253","NameT":"สำนักงานที่ดินจังหวัดชั","NameE":"CHAIYAPHUM LAND OFFICE KAENG KHRO BRANCH"}},{"type":"Feature","geometry":{"type":"Point","coordinates":[101.8445361,15.55751906]},"properties":{"name":"สำนักงานที่ดินจังหวัดชั","Long":"101.844536","Lat":"15.557519","NameT":"สำนักงานที่ดินจังหวัดชั","NameE":"CHAIYAPHUM LAND OFFICE CHATTURAT BRANCH"}},{"type":"Feature","geometry":{"type":"Point","coordinates":[102.1432047,16.36801544]},"properties":{"name":"สำนักงานที่ดินจังหวัดชั","Long":"102.143205","Lat":"16.368015","NameT":"สำนักงานที่ดินจังหวัดชั","NameE":"CHAIYAPHUM LAND OFFICE PHU KHIAO BRANCH"}},{"type":"Feature","geometry":{"type":"Point","coordinates":[100.0088475,14.97761603]},"properties":{"name":"สำนักงานที่ดินจังหวัดชั","Long":"100.008848","Lat":"14.977616","NameT":"สำนักงานที่ดินจังหวัดชั","NameE":"CHAI NAT LAND OFFICE HAN KHA BRANCH"}},{"type":"Feature","geometry":{"type":"Point","coordinates":[100.2471432,15.13658155]},"properties":{"name":"สำนักงานที่ดินจังหวัดชั","Long":"100.247143","Lat":"15.136582","NameT":"สำนักงานที่ดินจังหวัดชั","NameE":"CHAI NAT LAND OFFICE SAPPHAYA BRANCH"}},{"type":"Feature","geometry":{"type":"Point","coordinates":[102.0346094,15.8041265]},"properties":{"name":"สำนักงานที่ดินจังหวัดชั","Long":"102.034609","Lat":"15.804127","NameT":"สำนักงานที่ดินจังหวัดชั","NameE":"CHAIYAPHUM LAND OFFICE"}},{"type":"Feature","geometry":{"type":"Point","coordinates":[101.6901952,15.49840738]},"properties":{"name":"สำนักงานที่ดินจังหวัดชั","Long":"101.690195","Lat":"15.498407","NameT":"สำนักงานที่ดินจังหวัดชั","NameE":"CHAIYAPHUM LAND OFFICE CHATTURAT BRANCH BAMNET NARONG SUB-BRANCH"}},{"type":"Feature","geometry":{"type":"Point","coordinates":[101.9238896,16.6118746]},"properties":{"name":"สำนักงานที่ดินจังหวัดชั","Long":"101.92389","Lat":"16.611875","NameT":"สำนักงานที่ดินจังหวัดชั","NameE":"CHAIYAPHUM LAND OFFICE KHON SAN BRANCH"}},{"type":"Feature","geometry":{"type":"Point","coordinates":[101.9110268,15.77669375]},"properties":{"name":"สำนักงานที่ดินจังหวัดชั","Long":"101.911027","Lat":"15.776694","NameT":"สำนักงานที่ดินจังหวัดชั","NameE":"CHAIYAPHUM LAND OFFICE BAN KHWAO BRANCH"}},{"type":"Feature","geometry":{"type":"Point","coordinates":[102.2842255,15.93019478]},"properties":{"name":"สำนักงานที่ดินจังหวัดชั","Long":"102.284226","Lat":"15.930195","NameT":"สำนักงานที่ดินจังหวัดชั","NameE":"CHAIYAPHUM LAND OFFICE KHON SAWAN BRANCH"}},{"type":"Feature","geometry":{"type":"Point","coordinates":[99.08058146,9.943989658]},"properties":{"name":"สำนักงานที่ดินจังหวัดชุ","Long":"99.080581","Lat":"9.94399","NameT":"สำนักงานที่ดินจังหวัดชุ","NameE":"CHUMPHON LAND OFFICE LANG SUAN BRANCH"}},{"type":"Feature","geometry":{"type":"Point","coordinates":[99.32233935,10.69994644]},"properties":{"name":"สำนักงานที่ดินจังหวัดชุ","Long":"99.322339","Lat":"10.699946","NameT":"สำนักงานที่ดินจังหวัดชุ","NameE":"CHUMPHON LAND OFFICE PATHIO BRANCH"}},{"type":"Feature","geometry":{"type":"Point","coordinates":[99.08715806,10.10801381]},"properties":{"name":"สำนักงานที่ดินจังหวัดชุ","Long":"99.087158","Lat":"10.108014","NameT":"สำนักงานที่ดินจังหวัดชุ","NameE":"CHUMPHON LAND OFFICE THUNG TAKO BRANCH"}},{"type":"Feature","geometry":{"type":"Point","coordinates":[99.17581773,10.66237561]},"properties":{"name":"สำนักงานที่ดินจังหวัดชุ","Long":"99.175818","Lat":"10.662376","NameT":"สำนักงานที่ดินจังหวัดชุ","NameE":"CHUMPHON LAND OFFICE THA SAE BRANCH"}},{"type":"Feature","geometry":{"type":"Point","coordinates":[99.12962056,10.48939609]},"properties":{"name":"สำนักงานที่ดินจังหวัดชุ","Long":"99.129621","Lat":"10.489396","NameT":"สำนักงานที่ดินจังหวัดชุ","NameE":"CHUMPHON LAND OFFICE"}},{"type":"Feature","geometry":{"type":"Point","coordinates":[99.09550413,9.765397287]},"properties":{"name":"สำนักงานที่ดินจังหวัดชุ","Long":"99.095504","Lat":"9.765397","NameT":"สำนักงานที่ดินจังหวัดชุ","NameE":"CHUMPHON LAND OFFICE LAMAE BRANCH"}},{"type":"Feature","geometry":{"type":"Point","coordinates":[98.77942437,9.788187617]},"properties":{"name":"สำนักงานที่ดินจังหวัดชุ","Long":"98.779424","Lat":"9.788188","NameT":"สำนักงานที่ดินจังหวัดชุ","NameE":"CHUMPHON LAND OFFICE PHATO BRANCH"}},{"type":"Feature","geometry":{"type":"Point","coordinates":[99.18306594,10.49189287]},"properties":{"name":"สำนักงานที่ดินจังหวัดชุ","Long":"99.183066","Lat":"10.491893","NameT":"สำนักงานที่ดินจังหวัดชุ","NameE":"CHUMPHON LAND OFFICE"}},{"type":"Feature","geometry":{"type":"Point","coordinates":[99.11263231,10.234428]},"properties":{"name":"สำนักงานที่ดินจังหวัดชุ","Long":"99.112632","Lat":"10.234428","NameT":"สำนักงานที่ดินจังหวัดชุ","NameE":"CHUMPHON LAND OFFICE LANG SUAN BRANCH SAWI SUB-BRANCH"}},{"type":"Feature","geometry":{"type":"Point","coordinates":[99.01923245,18.86821297]},"properties":{"name":"สำนักงานที่ดินจังหวัดเช","Long":"99.019232","Lat":"18.868213","NameT":"สำนักงานที่ดินจังหวัดเช","NameE":"CHIANG MAI LAND OFFICE SAN SAI BRANCH"}},{"type":"Feature","geometry":{"type":"Point","coordinates":[99.02116687,18.73259156]},"properties":{"name":"สำนักงานที่ดินจังหวัดเช","Long":"99.021167","Lat":"18.732592","NameT":"สำนักงานที่ดินจังหวัดเช","NameE":"CHIANG MAI LAND OFFICE SARAPHI BRANCH"}},{"type":"Feature","geometry":{"type":"Point","coordinates":[98.94853907,18.91231325]},"properties":{"name":"สำนักงานที่ดินจังหวัดเช","Long":"98.948539","Lat":"18.912313","NameT":"สำนักงานที่ดินจังหวัดเช","NameE":"CHIANG MAI LAND OFFICE MAE RIM BRANCH"}},{"type":"Feature","geometry":{"type":"Point","coordinates":[100.1966624,19.68467627]},"properties":{"name":"สำนักงานที่ดินจังหวัดเช","Long":"100.196662","Lat":"19.684676","NameT":"สำนักงานที่ดินจังหวัดเช","NameE":"CHIANG RAI LAND OFFICE THOENG BRANCH"}},{"type":"Feature","geometry":{"type":"Point","coordinates":[99.12311102,18.74423134]},"properties":{"name":"สำนักงานที่ดินจังหวัดเช","Long":"99.123111","Lat":"18.744231","NameT":"สำนักงานที่ดินจังหวัดเช","NameE":"CHIANG MAI LAND OFFICE SAN KAMPHAENG BRANCH"}},{"type":"Feature","geometry":{"type":"Point","coordinates":[98.96707707,19.35904291]},"properties":{"name":"สำนักงานที่ดินจังหวัดเช","Long":"98.967077","Lat":"19.359043","NameT":"สำนักงานที่ดินจังหวัดเช","NameE":"CHIANG MAI LAND OFFICE CHIANG DAO BRANCH"}},{"type":"Feature","geometry":{"type":"Point","coordinates":[99.22158446,19.93422711]},"properties":{"name":"สำนักงานที่ดินจังหวัดเช","Long":"99.221584","Lat":"19.934227","NameT":"สำนักงานที่ดินจังหวัดเช","NameE":"CHIANG MAI LAND OFFICE FANG BRANCH"}},{"type":"Feature","geometry":{"type":"Point","coordinates":[99.74392693,19.55305565]},"properties":{"name":"สำนักงานที่ดินจังหวัดเช","Long":"99.743927","Lat":"19.553056","NameT":"สำนักงานที่ดินจังหวัดเช","NameE":"CHIANG RAI LAND OFFICE PHAN BRANCH"}},{"type":"Feature","geometry":{"type":"Point","coordinates":[99.16668533,18.88628915]},"properties":{"name":"สำนักงานที่ดินจังหวัดเช","Long":"99.166685","Lat":"18.886289","NameT":"สำนักงานที่ดินจังหวัดเช","NameE":"CHIANG MAI LAND OFFICE DOI SAKET BRANCH"}},{"type":"Feature","geometry":{"type":"Point","coordinates":[99.51109363,19.34605111]},"properties":{"name":"สำนักงานที่ดินจังหวัดเช","Long":"99.511094","Lat":"19.346051","NameT":"สำนักงานที่ดินจังหวัดเช","NameE":"CHIANG RAI LAND OFFICE WIANG PA PAO BRANCH"}},{"type":"Feature","geometry":{"type":"Point","coordinates":[98.73551981,18.84765725]},"properties":{"name":"สำนักงานที่ดินจังหวัดเช","Long":"98.73552","Lat":"18.847657","NameT":"สำนักงานที่ดินจังหวัดเช","NameE":"CHIANG MAI LAND OFFICE SAMOENG SUB-BRANCH"}},{"type":"Feature","geometry":{"type":"Point","coordinates":[100.0908831,20.27286291]},"properties":{"name":"สำนักงานที่ดินจังหวัดเช","Long":"100.090883","Lat":"20.272863","NameT":"สำนักงานที่ดินจังหวัดเช","NameE":"CHIANG RAI LAND OFFICE CHIANG SAEN BRANCH"}},{"type":"Feature","geometry":{"type":"Point","coordinates":[98.87954272,18.59190475]},"properties":{"name":"สำนักงานที่ดินจังหวัดเช","Long":"98.879543","Lat":"18.591905","NameT":"สำนักงานที่ดินจังหวัดเช","NameE":"CHIANG MAI LAND OFFICE SAN PA TONG BRANCH"}},{"type":"Feature","geometry":{"type":"Point","coordinates":[99.29101908,20.03032415]},"properties":{"name":"สำนักงานที่ดินจังหวัดเช","Long":"99.291019","Lat":"20.030324","NameT":"สำนักงานที่ดินจังหวัดเช","NameE":"CHIANG MAI LAND OFFICE MAE AI BRANCH"}},{"type":"Feature","geometry":{"type":"Point","coordinates":[99.82783953,19.90872674]},"properties":{"name":"สำนักงานที่ดินจังหวัดเช","Long":"99.82784","Lat":"19.908727","NameT":"สำนักงานที่ดินจังหวัดเช","NameE":"CHIANG RAI LAND OFFICE"}},{"type":"Feature","geometry":{"type":"Point","coordinates":[100.4072028,20.21483756]},"properties":{"name":"สำนักงานที่ดินจังหวัดเช","Long":"100.407203","Lat":"20.214838","NameT":"สำนักงานที่ดินจังหวัดเช","NameE":"CHIANG RAI LAND OFFICE CHIANG KHONG BRANCH"}},{"type":"Feature","geometry":{"type":"Point","coordinates":[98.6789491,18.41499459]},"properties":{"name":"สำนักงานที่ดินจังหวัดเช","Long":"98.678949","Lat":"18.414995","NameT":"สำนักงานที่ดินจังหวัดเช","NameE":"CHIANG MAI LAND OFFICE CHOM THONG BRANCH"}},{"type":"Feature","geometry":{"type":"Point","coordinates":[98.92193615,18.68526903]},"properties":{"name":"สำนักงานที่ดินจังหวัดเช","Long":"98.921936","Lat":"18.685269","NameT":"สำนักงานที่ดินจังหวัดเช","NameE":"CHIANG MAI LAND OFFICE HANG DONG BRANCH"}},{"type":"Feature","geometry":{"type":"Point","coordinates":[99.19483651,19.33320841]},"properties":{"name":"สำนักงานที่ดินจังหวัดเช","Long":"99.194837","Lat":"19.333208","NameT":"สำนักงานที่ดินจังหวัดเช","NameE":"CHIANG MAI LAND OFFICE PHRAO BRANCH"}},{"type":"Feature","geometry":{"type":"Point","coordinates":[98.94634579,19.12067202]},"properties":{"name":"สำนักงานที่ดินจังหวัดเช","Long":"98.946346","Lat":"19.120672","NameT":"สำนักงานที่ดินจังหวัดเช","NameE":"CHIANG MAI LAND OFFICE MAE TAENG BRANCH"}},{"type":"Feature","geometry":{"type":"Point","coordinates":[99.8560849,20.14546966]},"properties":{"name":"สำนักงานที่ดินจังหวัดเช","Long":"99.856085","Lat":"20.14547","NameT":"สำนักงานที่ดินจังหวัดเช","NameE":"CHIANG RAI LAND OFFICE MAE CHAN BRANCH"}},{"type":"Feature","geometry":{"type":"Point","coordinates":[99.93631228,19.8820397]},"properties":{"name":"สำนักงานที่ดินจังหวัดเช","Long":"99.936312","Lat":"19.88204","NameT":"สำนักงานที่ดินจังหวัดเช","NameE":"CHIANG RAI LAND OFFICE WIANG CHAI BRANCH"}},{"type":"Feature","geometry":{"type":"Point","coordinates":[98.97462157,18.83802486]},"properties":{"name":"สำนักงานที่ดินจังหวัดเช","Long":"98.974622","Lat":"18.838025","NameT":"สำนักงานที่ดินจังหวัดเช","NameE":"CHIANG MAI LAND OFFICE"}},{"type":"Feature","geometry":{"type":"Point","coordinates":[99.34859065,7.568724715]},"properties":{"name":"สำนักงานที่ดินจังหวัดตร","Long":"99.348591","Lat":"7.568725","NameT":"สำนักงานที่ดินจังหวัดตร","NameE":"TRANG LAND OFFICE SIKAO BRANCH"}},{"type":"Feature","geometry":{"type":"Point","coordinates":[99.52071924,7.399136145]},"properties":{"name":"สำนักงานที่ดินจังหวัดตร","Long":"99.520719","Lat":"7.399136","NameT":"สำนักงานที่ดินจังหวัดตร","NameE":"TRANG LAND OFFICE KANTANG BRANCH"}},{"type":"Feature","geometry":{"type":"Point","coordinates":[102.5446028,12.57881412]},"properties":{"name":"สำนักงานที่ดินจังหวัดตร","Long":"102.544603","Lat":"12.578814","NameT":"สำนักงานที่ดินจังหวัดตร","NameE":"TRAT LAND OFFICE BO RAI BRANCH"}},{"type":"Feature","geometry":{"type":"Point","coordinates":[102.4389794,12.35155816]},"properties":{"name":"สำนักงานที่ดินจังหวัดตร","Long":"102.438979","Lat":"12.351558","NameT":"สำนักงานที่ดินจังหวัดตร","NameE":"TRAT LAND OFFICE KHAO SAMING BRANCH"}},{"type":"Feature","geometry":{"type":"Point","coordinates":[99.63428191,7.517824461]},"properties":{"name":"สำนักงานที่ดินจังหวัดตร","Long":"99.634282","Lat":"7.517824","NameT":"สำนักงานที่ดินจังหวัดตร","NameE":"TRANG LAND OFFICE"}},{"type":"Feature","geometry":{"type":"Point","coordinates":[99.39647711,7.733291216]},"properties":{"name":"สำนักงานที่ดินจังหวัดตร","Long":"99.396477","Lat":"7.733291","NameT":"สำนักงานที่ดินจังหวัดตร","NameE":"TRANG LAND OFFICE WANG WISET BRANCH"}},{"type":"Feature","geometry":{"type":"Point","coordinates":[99.6381827,7.786446889]},"properties":{"name":"สำนักงานที่ดินจังหวัดตร","Long":"99.638183","Lat":"7.786447","NameT":"สำนักงานที่ดินจังหวัดตร","NameE":"TRANG LAND OFFICE HUAI YOT BRANCH"}},{"type":"Feature","geometry":{"type":"Point","coordinates":[102.3978406,12.17051857]},"properties":{"name":"สำนักงานที่ดินจังหวัดตร","Long":"102.397841","Lat":"12.170519","NameT":"สำนักงานที่ดินจังหวัดตร","NameE":"TRAT LAND OFFICE LAEM NGOP SUB-BRANCH"}},{"type":"Feature","geometry":{"type":"Point","coordinates":[102.5307824,12.23162095]},"properties":{"name":"สำนักงานที่ดินจังหวัดตร","Long":"102.530782","Lat":"12.231621","NameT":"สำนักงานที่ดินจังหวัดตร","NameE":"TRAT LAND OFFICE"}},{"type":"Feature","geometry":{"type":"Point","coordinates":[99.13861819,16.86753541]},"properties":{"name":"สำนักงานที่ดินจังหวัดตา","Long":"99.138618","Lat":"16.867535","NameT":"สำนักงานที่ดินจังหวัดตา","NameE":"TAK LAND OFFICE"}},{"type":"Feature","geometry":{"type":"Point","coordinates":[99.07723479,17.04927031]},"properties":{"name":"สำนักงานที่ดินจังหวัดตา","Long":"99.077235","Lat":"17.04927","NameT":"สำนักงานที่ดินจังหวัดตา","NameE":"TAK LAND OFFICE BAN TAK BRANCH"}},{"type":"Feature","geometry":{"type":"Point","coordinates":[99.05612511,17.22425486]},"properties":{"name":"สำนักงานที่ดินจังหวัดตา","Long":"99.056125","Lat":"17.224255","NameT":"สำนักงานที่ดินจังหวัดตา","NameE":"TAK LAND OFFICE SAM NGAO BRANCH"}},{"type":"Feature","geometry":{"type":"Point","coordinates":[98.57586046,16.71062265]},"properties":{"name":"สำนักงานที่ดินจังหวัดตา","Long":"98.57586","Lat":"16.710623","NameT":"สำนักงานที่ดินจังหวัดตา","NameE":"TAK LAND OFFICE MAE SOT BRANCH"}},{"type":"Feature","geometry":{"type":"Point","coordinates":[100.7738393,18.77568187]},"properties":{"name":"สำนักงานที่ดินจังหวัดน่","Long":"100.773839","Lat":"18.775682","NameT":"สำนักงานที่ดินจังหวัดน่","NameE":"NAN LAND OFFICE"}},{"type":"Feature","geometry":{"type":"Point","coordinates":[100.713812,18.32623417]},"properties":{"name":"สำนักงานที่ดินจังหวัดน่","Long":"100.713812","Lat":"18.326234","NameT":"สำนักงานที่ดินจังหวัดน่","NameE":"NAN LAND OFFICE NA NOI BRANCH"}},{"type":"Feature","geometry":{"type":"Point","coordinates":[100.8836838,19.39448163]},"properties":{"name":"สำนักงานที่ดินจังหวัดน่","Long":"100.883684","Lat":"19.394482","NameT":"สำนักงานที่ดินจังหวัดน่","NameE":"NAN LAND OFFICE THUNG CHANG BRANCH"}},{"type":"Feature","geometry":{"type":"Point","coordinates":[100.9212651,19.1724732]},"properties":{"name":"สำนักงานที่ดินจังหวัดน่","Long":"100.921265","Lat":"19.172473","NameT":"สำนักงานที่ดินจังหวัดน่","NameE":"NAN LAND OFFICE PUA BRANCH"}},{"type":"Feature","geometry":{"type":"Point","coordinates":[100.7545352,18.56993527]},"properties":{"name":"สำนักงานที่ดินจังหวัดน่","Long":"100.754535","Lat":"18.569935","NameT":"สำนักงานที่ดินจังหวัดน่","NameE":"NAN LAND OFFICE WIANG SA BRANCH"}},{"type":"Feature","geometry":{"type":"Point","coordinates":[100.810519,19.0916326]},"properties":{"name":"สำนักงานที่ดินจังหวัดน่","Long":"100.810519","Lat":"19.091633","NameT":"สำนักงานที่ดินจังหวัดน่","NameE":"NAN LAND OFFICE THA WANG PHA BRANCH"}},{"type":"Feature","geometry":{"type":"Point","coordinates":[102.4165307,15.01191293]},"properties":{"name":"สำนักงานที่ดินจังหวัดนค","Long":"102.416531","Lat":"15.011913","NameT":"สำนักงานที่ดินจังหวัดนค","NameE":"NAKHON RATCHASIMA LAND OFFICE CHAKKARAT BRANCH"}},{"type":"Feature","geometry":{"type":"Point","coordinates":[101.4437411,14.66715648]},"properties":{"name":"สำนักงานที่ดินจังหวัดนค","Long":"101.443741","Lat":"14.667156","NameT":"สำนักงานที่ดินจังหวัดนค","NameE":"NAKHON RATCHASIMA LAND OFFICE PAK CHONG BRANCH"}},{"type":"Feature","geometry":{"type":"Point","coordinates":[102.4903918,15.21949335]},"properties":{"name":"สำนักงานที่ดินจังหวัดนค","Long":"102.490392","Lat":"15.219493","NameT":"สำนักงานที่ดินจังหวัดนค","NameE":"NAKHON RATCHASIMA LAND OFFICE PHIMAI BRANCH"}},{"type":"Feature","geometry":{"type":"Point","coordinates":[104.5300529,17.17872422]},"properties":{"name":"สำนักงานที่ดินจังหวัดนค","Long":"104.530053","Lat":"17.178724","NameT":"สำนักงานที่ดินจังหวัดนค","NameE":"NAKHON PHANOM LAND OFFICE PLA PAK BRANCH"}},{"type":"Feature","geometry":{"type":"Point","coordinates":[102.2575082,15.74826633]},"properties":{"name":"สำนักงานที่ดินจังหวัดนค","Long":"102.257508","Lat":"15.748266","NameT":"สำนักงานที่ดินจังหวัดนค","NameE":"NAKHON RATCHASIMA LAND OFFICE KAENG SANAM NANG BRANCH"}},{"type":"Feature","geometry":{"type":"Point","coordinates":[102.2526172,14.52165969]},"properties":{"name":"สำนักงานที่ดินจังหวัดนค","Long":"102.252617","Lat":"14.52166","NameT":"สำนักงานที่ดินจังหวัดนค","NameE":"NAKHON RATCHASIMA LAND OFFICE KHON BURI BRANCH"}},{"type":"Feature","geometry":{"type":"Point","coordinates":[100.1964567,13.76572678]},"properties":{"name":"สำนักงานที่ดินจังหวัดนค","Long":"100.196457","Lat":"13.765727","NameT":"สำนักงานที่ดินจังหวัดนค","NameE":"NAKHON PATHOM LAND OFFICE NAKHON CHAI SI BRANCH"}},{"type":"Feature","geometry":{"type":"Point","coordinates":[104.5981688,17.57803049]},"properties":{"name":"สำนักงานที่ดินจังหวัดนค","Long":"104.598169","Lat":"17.57803","NameT":"สำนักงานที่ดินจังหวัดนค","NameE":"NAKHON PHANOM LAND OFFICE THA UTHEN BRANCH"}},{"type":"Feature","geometry":{"type":"Point","coordinates":[102.725855,15.5317496]},"properties":{"name":"สำนักงานที่ดินจังหวัดนค","Long":"102.725855","Lat":"15.53175","NameT":"สำนักงานที่ดินจังหวัดนค","NameE":"NAKHON RATCHASIMA LAND OFFICE PRATHAI BRANCH"}},{"type":"Feature","geometry":{"type":"Point","coordinates":[101.9506477,14.95966116]},"properties":{"name":"สำนักงานที่ดินจังหวัดนค","Long":"101.950648","Lat":"14.959661","NameT":"สำนักงานที่ดินจังหวัดนค","NameE":"NAKHON RATCHASIMA LAND OFFICE KHAM THALE SO BRANCH"}},{"type":"Feature","geometry":{"type":"Point","coordinates":[104.7334753,16.94788685]},"properties":{"name":"สำนักงานที่ดินจังหวัดนค","Long":"104.733475","Lat":"16.947887","NameT":"สำนักงานที่ดินจังหวัดนค","NameE":"NAKHON PHANOM LAND OFFICE THAT PHANOM BRANCH"}},{"type":"Feature","geometry":{"type":"Point","coordinates":[104.7828114,17.40982467]},"properties":{"name":"สำนักงานที่ดินจังหวัดนค","Long":"104.782811","Lat":"17.409825","NameT":"สำนักงานที่ดินจังหวัดนค","NameE":"NAKHON PHANOM LAND OFFICE"}},{"type":"Feature","geometry":{"type":"Point","coordinates":[99.67462336,8.127512081]},"properties":{"name":"สำนักงานที่ดินจังหวัดนค","Long":"99.674623","Lat":"8.127512","NameT":"สำนักงานที่ดินจังหวัดนค","NameE":"NAKHON SI THAMMARAT LAND OFFICE THUNG SONG BRANCH"}},{"type":"Feature","geometry":{"type":"Point","coordinates":[100.1166041,15.68871093]},"properties":{"name":"สำนักงานที่ดินจังหวัดนค","Long":"100.116604","Lat":"15.688711","NameT":"สำนักงานที่ดินจังหวัดนค","NameE":"FORMER NAKHON SAWAN LAND OFFICE"}},{"type":"Feature","geometry":{"type":"Point","coordinates":[99.79242872,15.74968682]},"properties":{"name":"สำนักงานที่ดินจังหวัดนค","Long":"99.792429","Lat":"15.749687","NameT":"สำนักงานที่ดินจังหวัดนค","NameE":"NAKHON SAWAN LAND OFFICE LAT YAO BRANCH"}},{"type":"Feature","geometry":{"type":"Point","coordinates":[100.3458022,15.26203228]},"properties":{"name":"สำนักงานที่ดินจังหวัดนค","Long":"100.345802","Lat":"15.262032","NameT":"สำนักงานที่ดินจังหวัดนค","NameE":"NAKHON SAWAN LAND OFFICE TA KHLI BRANCH"}},{"type":"Feature","geometry":{"type":"Point","coordinates":[100.1462507,15.43258074]},"properties":{"name":"สำนักงานที่ดินจังหวัดนค","Long":"100.146251","Lat":"15.432581","NameT":"สำนักงานที่ดินจังหวัดนค","NameE":"NAKHON SAWAN LAND OFFICE PHAYUHA KHIRI BRANCH"}},{"type":"Feature","geometry":{"type":"Point","coordinates":[100.2417049,8.048320452]},"properties":{"name":"สำนักงานที่ดินจังหวัดนค","Long":"100.241705","Lat":"8.04832","NameT":"สำนักงานที่ดินจังหวัดนค","NameE":"NAKHON SI THAMMARAT LAND OFFICE HUA SAI BRANCH"}},{"type":"Feature","geometry":{"type":"Point","coordinates":[100.3057393,15.8786649]},"properties":{"name":"สำนักงานที่ดินจังหวัดนค","Long":"100.305739","Lat":"15.878665","NameT":"สำนักงานที่ดินจังหวัดนค","NameE":"NAKHON SAWAN LAND OFFICE CHUM SAENG BRANCH"}},{"type":"Feature","geometry":{"type":"Point","coordinates":[100.1693893,13.98649883]},"properties":{"name":"สำนักงานที่ดินจังหวัดนค","Long":"100.169389","Lat":"13.986499","NameT":"สำนักงานที่ดินจังหวัดนค","NameE":"NAKHON PATHOM LAND OFFICE BANG LEN BRANCH"}},{"type":"Feature","geometry":{"type":"Point","coordinates":[99.36875784,8.300900414]},"properties":{"name":"สำนักงานที่ดินจังหวัดนค","Long":"99.368758","Lat":"8.3009","NameT":"สำนักงานที่ดินจังหวัดนค","NameE":"NAKHON SI THAMMARAT LAND OFFICE THUNG YAI BRANCH"}},{"type":"Feature","geometry":{"type":"Point","coordinates":[100.0377369,13.81063077]},"properties":{"name":"สำนักงานที่ดินจังหวัดนค","Long":"100.037737","Lat":"13.810631","NameT":"สำนักงานที่ดินจังหวัดนค","NameE":"NAKHON PATHOM LAND OFFICE"}},{"type":"Feature","geometry":{"type":"Point","coordinates":[104.6843263,17.05460915]},"properties":{"name":"สำนักงานที่ดินจังหวัดนค","Long":"104.684326","Lat":"17.054609","NameT":"สำนักงานที่ดินจังหวัดนค","NameE":"NAKHON PHANOM LAND OFFICE RENU NAKHON BRANCH"}},{"type":"Feature","geometry":{"type":"Point","coordinates":[99.56371206,8.372952033]},"properties":{"name":"สำนักงานที่ดินจังหวัดนค","Long":"99.563712","Lat":"8.372952","NameT":"สำนักงานที่ดินจังหวัดนค","NameE":"NAKHON SI THAMMARAT LAND OFFICE KING AMPHOE CHANG KLANG BRANCH"}},{"type":"Feature","geometry":{"type":"Point","coordinates":[99.59783537,8.260148564]},"properties":{"name":"สำนักงานที่ดินจังหวัดนค","Long":"99.597835","Lat":"8.260149","NameT":"สำนักงานที่ดินจังหวัดนค","NameE":"NAKHON SI THAMMARAT LAND OFFICE NA BON BRANCH"}},{"type":"Feature","geometry":{"type":"Point","coordinates":[101.7691896,15.20745784]},"properties":{"name":"สำนักงานที่ดินจังหวัดนค","Long":"101.76919","Lat":"15.207458","NameT":"สำนักงานที่ดินจังหวัดนค","NameE":"NAKHON RATCHASIMA LAND OFFICE DAN KHUN THOT BRANCH"}},{"type":"Feature","geometry":{"type":"Point","coordinates":[104.2187344,17.96600459]},"properties":{"name":"สำนักงานที่ดินจังหวัดนค","Long":"104.218734","Lat":"17.966005","NameT":"สำนักงานที่ดินจังหวัดนค","NameE":"NAKHON PHANOM LAND OFFICE THA UTHEN BRANCH"}},{"type":"Feature","geometry":{"type":"Point","coordinates":[104.5048211,16.94468687]},"properties":{"name":"สำนักงานที่ดินจังหวัดนค","Long":"104.504821","Lat":"16.944687","NameT":"สำนักงานที่ดินจังหวัดนค","NameE":"NAKHON PHANOM LAND OFFICE NA KAE BRANCH"}},{"type":"Feature","geometry":{"type":"Point","coordinates":[102.7450243,15.34728117]},"properties":{"name":"สำนักงานที่ดินจังหวัดนค","Long":"102.745024","Lat":"15.347281","NameT":"สำนักงานที่ดินจังหวัดนค","NameE":"NAKHON RATCHASIMA LAND OFFICE CHUM PHUANG BRANCH"}},{"type":"Feature","geometry":{"type":"Point","coordinates":[99.93404678,8.66518767]},"properties":{"name":"สำนักงานที่ดินจังหวัดนค","Long":"99.934047","Lat":"8.665188","NameT":"สำนักงานที่ดินจังหวัดนค","NameE":"NAKHON SI THAMMARAT LAND OFFICE THA SALA BRANCH"}},{"type":"Feature","geometry":{"type":"Point","coordinates":[100.4993176,15.3460453]},"properties":{"name":"สำนักงานที่ดินจังหวัดนค","Long":"100.499318","Lat":"15.346045","NameT":"สำนักงานที่ดินจังหวัดนค","NameE":"NAKHON SAWAN LAND OFFICE TAK FA BRANCH"}},{"type":"Feature","geometry":{"type":"Point","coordinates":[99.85792468,8.17675459]},"properties":{"name":"สำนักงานที่ดินจังหวัดนค","Long":"99.857925","Lat":"8.176755","NameT":"สำนักงานที่ดินจังหวัดนค","NameE":"NAKHON SI THAMMARAT LAND OFFICE RON PHIBUN BRANCH"}},{"type":"Feature","geometry":{"type":"Point","coordinates":[100.148575,15.6645326]},"properties":{"name":"สำนักงานที่ดินจังหวัดนค","Long":"100.148575","Lat":"15.664533","NameT":"สำนักงานที่ดินจังหวัดนค","NameE":"NAKHON SAWAN LAND OFFICE"}},{"type":"Feature","geometry":{"type":"Point","coordinates":[101.2179522,14.20138736]},"properties":{"name":"สำนักงานที่ดินจังหวัดนค","Long":"101.217952","Lat":"14.201387","NameT":"สำนักงานที่ดินจังหวัดนค","NameE":"NAKHON NAYOK LAND OFFICE"}},{"type":"Feature","geometry":{"type":"Point","coordinates":[100.9818206,14.10939979]},"properties":{"name":"สำนักงานที่ดินจังหวัดนค","Long":"100.981821","Lat":"14.1094","NameT":"สำนักงานที่ดินจังหวัดนค","NameE":"NAKHON NAYOK LAND OFFICE ONGKHARAK BRANCH"}},{"type":"Feature","geometry":{"type":"Point","coordinates":[101.7263602,14.89086381]},"properties":{"name":"สำนักงานที่ดินจังหวัดนค","Long":"101.72636","Lat":"14.890864","NameT":"สำนักงานที่ดินจังหวัดนค","NameE":"NAKHON RATCHASIMA LAND OFFICE SI KHIO BRANCH"}},{"type":"Feature","geometry":{"type":"Point","coordinates":[100.1126551,8.120490604]},"properties":{"name":"สำนักงานที่ดินจังหวัดนค","Long":"100.112655","Lat":"8.120491","NameT":"สำนักงานที่ดินจังหวัดนค","NameE":"NAKHON SI THAMMARAT LAND OFFICE CHIAN YAI BRANCH"}},{"type":"Feature","geometry":{"type":"Point","coordinates":[99.99406399,15.93353355]},"properties":{"name":"สำนักงานที่ดินจังหวัดนค","Long":"99.994064","Lat":"15.933534","NameT":"สำนักงานที่ดินจังหวัดนค","NameE":"NAKHON SAWAN LAND OFFICE BANPHOT PHISAI BRANCH"}},{"type":"Feature","geometry":{"type":"Point","coordinates":[102.1748756,15.3280654]},"properties":{"name":"สำนักงานที่ดินจังหวัดนค","Long":"102.174876","Lat":"15.328065","NameT":"สำนักงานที่ดินจังหวัดนค","NameE":"NAKHON RATCHASIMA LAND OFFICE KHAM SAKAE SAENG BRANCH"}},{"type":"Feature","geometry":{"type":"Point","coordinates":[100.5900069,15.86341242]},"properties":{"name":"สำนักงานที่ดินจังหวัดนค","Long":"100.590007","Lat":"15.863412","NameT":"สำนักงานที่ดินจังหวัดนค","NameE":"NAKHON SAWAN LAND OFFICE CHUM SAENG BRANCH NONG BUA SUB-BRANCH"}},{"type":"Feature","geometry":{"type":"Point","coordinates":[100.0816664,15.8485666]},"properties":{"name":"สำนักงานที่ดินจังหวัดนค","Long":"100.081666","Lat":"15.848567","NameT":"สำนักงานที่ดินจังหวัดนค","NameE":"NAKHON SAWAN LAND OFFICE LAM KAO LIAO BRANCH"}},{"type":"Feature","geometry":{"type":"Point","coordinates":[102.2609423,15.17871731]},"properties":{"name":"สำนักงานที่ดินจังหวัดนค","Long":"102.260942","Lat":"15.178717","NameT":"สำนักงานที่ดินจังหวัดนค","NameE":"NAKHON RATCHASIMA LAND OFFICE NON SUNG BRANCH"}},{"type":"Feature","geometry":{"type":"Point","coordinates":[102.1673615,14.73033592]},"properties":{"name":"สำนักงานที่ดินจังหวัดนค","Long":"102.167362","Lat":"14.730336","NameT":"สำนักงานที่ดินจังหวัดนค","NameE":"NAKHON RATCHASIMA LAND OFFICE CHOK CHAI BRANCH"}},{"type":"Feature","geometry":{"type":"Point","coordinates":[100.4854068,15.63998757]},"properties":{"name":"สำนักงานที่ดินจังหวัดนค","Long":"100.485407","Lat":"15.639988","NameT":"สำนักงานที่ดินจังหวัดนค","NameE":"NAKHON SAWAN LAND OFFICE THA TAKO BRANCH"}},{"type":"Feature","geometry":{"type":"Point","coordinates":[102.0727967,15.19646884]},"properties":{"name":"สำนักงานที่ดินจังหวัดนค","Long":"102.072797","Lat":"15.196469","NameT":"สำนักงานที่ดินจังหวัดนค","NameE":"NAKHON RATCHASIMA LAND OFFICE NON THAI BRANCH"}},{"type":"Feature","geometry":{"type":"Point","coordinates":[102.0249618,14.71750038]},"properties":{"name":"สำนักงานที่ดินจังหวัดนค","Long":"102.024962","Lat":"14.7175","NameT":"สำนักงานที่ดินจังหวัดนค","NameE":"NAKHON RATCHASIMA LAND OFFICE PAK THONG CHAI BRANCH"}},{"type":"Feature","geometry":{"type":"Point","coordinates":[104.1046948,17.48803125]},"properties":{"name":"สำนักงานที่ดินจังหวัดนค","Long":"104.104695","Lat":"17.488031","NameT":"สำนักงานที่ดินจังหวัดนค","NameE":"NAKHON PHANOM LAND OFFICE NA WA BRANCH"}},{"type":"Feature","geometry":{"type":"Point","coordinates":[99.98016803,8.425967078]},"properties":{"name":"สำนักงานที่ดินจังหวัดนค","Long":"99.980168","Lat":"8.425967","NameT":"สำนักงานที่ดินจังหวัดนค","NameE":"NAKHON SI THAMMARAT LAND OFFICE"}},{"type":"Feature","geometry":{"type":"Point","coordinates":[100.030877,14.01719705]},"properties":{"name":"สำนักงานที่ดินจังหวัดนค","Long":"100.030877","Lat":"14.017197","NameT":"สำนักงานที่ดินจังหวัดนค","NameE":"NAKHON PATHOM LAND OFFICE KAMPHAENG SAEN BRANCH"}},{"type":"Feature","geometry":{"type":"Point","coordinates":[100.208846,8.356668959]},"properties":{"name":"สำนักงานที่ดินจังหวัดนค","Long":"100.208846","Lat":"8.356669","NameT":"สำนักงานที่ดินจังหวัดนค","NameE":"NAKHON SI THAMMARAT LAND OFFICE PAK PHANANG BRANCH"}},{"type":"Feature","geometry":{"type":"Point","coordinates":[99.61020161,8.558830267]},"properties":{"name":"สำนักงานที่ดินจังหวัดนค","Long":"99.610202","Lat":"8.55883","NameT":"สำนักงานที่ดินจังหวัดนค","NameE":"NAKHON SI THAMMARAT LAND OFFICE PHIPUN BRANCH"}},{"type":"Feature","geometry":{"type":"Point","coordinates":[104.4712585,17.45354597]},"properties":{"name":"สำนักงานที่ดินจังหวัดนค","Long":"104.471259","Lat":"17.453546","NameT":"สำนักงานที่ดินจังหวัดนค","NameE":"NAKHON PHANOM LAND OFFICE PHON SAWAN BRANCH"}},{"type":"Feature","geometry":{"type":"Point","coordinates":[102.1040768,14.96989483]},"properties":{"name":"สำนักงานที่ดินจังหวัดนค","Long":"102.104077","Lat":"14.969895","NameT":"สำนักงานที่ดินจังหวัดนค","NameE":"NAKHON RATCHASIMA LAND OFFICE"}},{"type":"Feature","geometry":{"type":"Point","coordinates":[102.4257473,15.58114865]},"properties":{"name":"สำนักงานที่ดินจังหวัดนค","Long":"102.425747","Lat":"15.581149","NameT":"สำนักงานที่ดินจังหวัดนค","NameE":"NAKHON RATCHASIMA LAND OFFICE BUA YAI BRANCH"}},{"type":"Feature","geometry":{"type":"Point","coordinates":[102.3315756,15.4393102]},"properties":{"name":"สำนักงานที่ดินจังหวัดนค","Long":"102.331576","Lat":"15.43931","NameT":"สำนักงานที่ดินจังหวัดนค","NameE":"NAKHON RATCHASIMA LAND OFFICE KHONG BRANCH"}},{"type":"Feature","geometry":{"type":"Point","coordinates":[101.8245945,14.8976962]},"properties":{"name":"สำนักงานที่ดินจังหวัดนค","Long":"101.824595","Lat":"14.897696","NameT":"สำนักงานที่ดินจังหวัดนค","NameE":"NAKHON RATCHASIMA LAND OFFICE SUNG NOEN BRANCH"}},{"type":"Feature","geometry":{"type":"Point","coordinates":[100.0016409,7.974263304]},"properties":{"name":"สำนักงานที่ดินจังหวัดนค","Long":"100.001641","Lat":"7.974263","NameT":"สำนักงานที่ดินจังหวัดนค","NameE":"NAKHON SI THAMMARAT LAND OFFICE CHA-UAT BRANCH"}},{"type":"Feature","geometry":{"type":"Point","coordinates":[99.90438832,9.00498911]},"properties":{"name":"สำนักงานที่ดินจังหวัดนค","Long":"99.904388","Lat":"9.004989","NameT":"สำนักงานที่ดินจังหวัดนค","NameE":"NAKHON SI THAMMARAT LAND OFFICE SICHON BRANCH"}},{"type":"Feature","geometry":{"type":"Point","coordinates":[100.2187464,13.76619055]},"properties":{"name":"สำนักงานที่ดินจังหวัดนค","Long":"100.218746","Lat":"13.766191","NameT":"สำนักงานที่ดินจังหวัดนค","NameE":"NAKHON PATHOM LAND OFFICE SAM PHRAN BRANCH"}},{"type":"Feature","geometry":{"type":"Point","coordinates":[100.6611252,15.59428269]},"properties":{"name":"สำนักงานที่ดินจังหวัดนค","Long":"100.661125","Lat":"15.594283","NameT":"สำนักงานที่ดินจังหวัดนค","NameE":"NAKHON SAWAN LAND OFFICE THA TAKO BRANCH PHAISALI SUB-BRANCH"}},{"type":"Feature","geometry":{"type":"Point","coordinates":[104.254636,17.62552526]},"properties":{"name":"สำนักงานที่ดินจังหวัดนค","Long":"104.254636","Lat":"17.625525","NameT":"สำนักงานที่ดินจังหวัดนค","NameE":"NAKHON PHANOM LAND OFFICE SI SONGKHRAM BRANCH"}},{"type":"Feature","geometry":{"type":"Point","coordinates":[100.4075639,13.87532258]},"properties":{"name":"สำนักงานที่ดินจังหวัดนน","Long":"100.407564","Lat":"13.875323","NameT":"สำนักงานที่ดินจังหวัดนน","NameE":"NONTHABURI LAND OFFICE BANG YAI BRANCH"}},{"type":"Feature","geometry":{"type":"Point","coordinates":[100.493771,13.84563109]},"properties":{"name":"สำนักงานที่ดินจังหวัดนน","Long":"100.493771","Lat":"13.845631","NameT":"สำนักงานที่ดินจังหวัดนน","NameE":"NONTHABURI LAND OFFICE"}},{"type":"Feature","geometry":{"type":"Point","coordinates":[100.4369576,13.91454709]},"properties":{"name":"สำนักงานที่ดินจังหวัดนน","Long":"100.436958","Lat":"13.914547","NameT":"สำนักงานที่ดินจังหวัดนน","NameE":"NONTHABURI LAND OFFICE BANG BUA THONG BRANCH"}},{"type":"Feature","geometry":{"type":"Point","coordinates":[100.5432496,13.9108992]},"properties":{"name":"สำนักงานที่ดินจังหวัดนน","Long":"100.54325","Lat":"13.910899","NameT":"สำนักงานที่ดินจังหวัดนน","NameE":"NONTHABURI LAND OFFICE PAK KRET BRANCH"}},{"type":"Feature","geometry":{"type":"Point","coordinates":[101.8268518,6.42649582]},"properties":{"name":"สำนักงานที่ดินจังหวัดนร","Long":"101.826852","Lat":"6.426496","NameT":"สำนักงานที่ดินจังหวัดนร","NameE":"NARATHIWAT LAND OFFICE"}},{"type":"Feature","geometry":{"type":"Point","coordinates":[102.0584213,6.25737539]},"properties":{"name":"สำนักงานที่ดินจังหวัดนร","Long":"102.058421","Lat":"6.257375","NameT":"สำนักงานที่ดินจังหวัดนร","NameE":"NARATHIWAT LAND OFFICE TAK BAI SUB-BRANCH"}},{"type":"Feature","geometry":{"type":"Point","coordinates":[101.8805331,6.082505615]},"properties":{"name":"สำนักงานที่ดินจังหวัดนร","Long":"101.880533","Lat":"6.082506","NameT":"สำนักงานที่ดินจังหวัดนร","NameE":"NARATHIWAT LAND OFFICE SU-NGAI PADI BRANCH"}},{"type":"Feature","geometry":{"type":"Point","coordinates":[102.7971373,14.62729551]},"properties":{"name":"สำนักงานที่ดินจังหวัดบุ","Long":"102.797137","Lat":"14.627296","NameT":"สำนักงานที่ดินจังหวัดบุ","NameE":"BURI RAM LAND OFFICE NANG RONG BRANCH"}},{"type":"Feature","geometry":{"type":"Point","coordinates":[102.8426694,15.02378212]},"properties":{"name":"สำนักงานที่ดินจังหวัดบุ","Long":"102.842669","Lat":"15.023782","NameT":"สำนักงานที่ดินจังหวัดบุ","NameE":"BURI RAM LAND OFFICE LAM PLAI MAT BRANCH"}},{"type":"Feature","geometry":{"type":"Point","coordinates":[103.0066272,15.54069511]},"properties":{"name":"สำนักงานที่ดินจังหวัดบุ","Long":"103.006627","Lat":"15.540695","NameT":"สำนักงานที่ดินจังหวัดบุ","NameE":"BURI RAM LAND OFFICE PHUTTHAISONG BRANCH"}},{"type":"Feature","geometry":{"type":"Point","coordinates":[103.1000484,14.99015638]},"properties":{"name":"สำนักงานที่ดินจังหวัดบุ","Long":"103.100048","Lat":"14.990156","NameT":"สำนักงานที่ดินจังหวัดบุ","NameE":"BURI RAM LAND OFFICE"}},{"type":"Feature","geometry":{"type":"Point","coordinates":[103.0857234,14.60757967]},"properties":{"name":"สำนักงานที่ดินจังหวัดบุ","Long":"103.085723","Lat":"14.60758","NameT":"สำนักงานที่ดินจังหวัดบุ","NameE":"BURI RAM LAND OFFICE PRAKHON CHAI BRANCH"}},{"type":"Feature","geometry":{"type":"Point","coordinates":[103.296108,15.29629373]},"properties":{"name":"สำนักงานที่ดินจังหวัดบุ","Long":"103.296108","Lat":"15.296294","NameT":"สำนักงานที่ดินจังหวัดบุ","NameE":"BURI RAM LAND OFFICE SATUEK BRANCH"}},{"type":"Feature","geometry":{"type":"Point","coordinates":[102.8643604,14.41046158]},"properties":{"name":"สำนักงานที่ดินจังหวัดบุ","Long":"102.86436","Lat":"14.410462","NameT":"สำนักงานที่ดินจังหวัดบุ","NameE":"BURI RAM LAND OFFICE LAHAN SAI BRANCH"}},{"type":"Feature","geometry":{"type":"Point","coordinates":[103.3050963,14.92041311]},"properties":{"name":"สำนักงานที่ดินจังหวัดบุ","Long":"103.305096","Lat":"14.920413","NameT":"สำนักงานที่ดินจังหวัดบุ","NameE":"BURI RAM LAND OFFICE KRASANG BRANCH"}},{"type":"Feature","geometry":{"type":"Point","coordinates":[100.6351236,14.12488863]},"properties":{"name":"สำนักงานที่ดินจังหวัดปท","Long":"100.635124","Lat":"14.124889","NameT":"สำนักงานที่ดินจังหวัดปท","NameE":"PATHUM THANI LAND OFFICE KHLONG LUANG BRANCH"}},{"type":"Feature","geometry":{"type":"Point","coordinates":[100.7439271,13.93632062]},"properties":{"name":"สำนักงานที่ดินจังหวัดปท","Long":"100.743927","Lat":"13.936321","NameT":"สำนักงานที่ดินจังหวัดปท","NameE":"PATHUM THANI LAND OFFICE LAM LUK KA BRANCH"}},{"type":"Feature","geometry":{"type":"Point","coordinates":[100.737407,14.01945947]},"properties":{"name":"สำนักงานที่ดินจังหวัดปท","Long":"100.737407","Lat":"14.019459","NameT":"สำนักงานที่ดินจังหวัดปท","NameE":"PATHUM THANI LAND OFFICE THANYABURI BRANCH"}},{"type":"Feature","geometry":{"type":"Point","coordinates":[100.537489,14.01909703]},"properties":{"name":"สำนักงานที่ดินจังหวัดปท","Long":"100.537489","Lat":"14.019097","NameT":"สำนักงานที่ดินจังหวัดปท","NameE":"PATHUM THANI LAND OFFICE"}},{"type":"Feature","geometry":{"type":"Point","coordinates":[99.78826649,11.81490365]},"properties":{"name":"สำนักงานที่ดินจังหวัดปร","Long":"99.788266","Lat":"11.814904","NameT":"สำนักงานที่ดินจังหวัดปร","NameE":"PRACHUAP KHIRI KHAN LAND OFFICE"}},{"type":"Feature","geometry":{"type":"Point","coordinates":[99.96534492,12.5245238]},"properties":{"name":"สำนักงานที่ดินจังหวัดปร","Long":"99.965345","Lat":"12.524524","NameT":"สำนักงานที่ดินจังหวัดปร","NameE":"PRACHUAP KHIRI KHAN LAND OFFICE HUA HIN BRANCH"}},{"type":"Feature","geometry":{"type":"Point","coordinates":[99.44083146,11.2580621]},"properties":{"name":"สำนักงานที่ดินจังหวัดปร","Long":"99.440831","Lat":"11.258062","NameT":"สำนักงานที่ดินจังหวัดปร","NameE":"PRACHUAP KHIRI KHAN LAND OFFICE BANG SAPHAN SUB-BRANCH"}},{"type":"Feature","geometry":{"type":"Point","coordinates":[101.3330415,14.11005308]},"properties":{"name":"สำนักงานที่ดินจังหวัดปร","Long":"101.333041","Lat":"14.110053","NameT":"สำนักงานที่ดินจังหวัดปร","NameE":"PRACHIN BURI LAND OFFICE"}},{"type":"Feature","geometry":{"type":"Point","coordinates":[101.5187676,14.06299659]},"properties":{"name":"สำนักงานที่ดินจังหวัดปร","Long":"101.518768","Lat":"14.062997","NameT":"สำนักงานที่ดินจังหวัดปร","NameE":"PRACHIN BURI LAND OFFICE PRACHANTAKHAM BRANCH"}},{"type":"Feature","geometry":{"type":"Point","coordinates":[101.7084702,13.98366565]},"properties":{"name":"สำนักงานที่ดินจังหวัดปร","Long":"101.70847","Lat":"13.983666","NameT":"สำนักงานที่ดินจังหวัดปร","NameE":"PRACHIN BURI LAND OFFICE KABIN BURI BRANCH"}},{"type":"Feature","geometry":{"type":"Point","coordinates":[101.5165888,13.96489314]},"properties":{"name":"สำนักงานที่ดินจังหวัดปร","Long":"101.516589","Lat":"13.964893","NameT":"สำนักงานที่ดินจังหวัดปร","NameE":"PRACHIN BURI LAND OFFICE SI MAHAPHO BRANCH"}},{"type":"Feature","geometry":{"type":"Point","coordinates":[99.926935,12.40316239]},"properties":{"name":"สำนักงานที่ดินจังหวัดปร","Long":"99.926935","Lat":"12.403162","NameT":"สำนักงานที่ดินจังหวัดปร","NameE":"PRACHUAP KHIRI KHAN LAND OFFICE HUA HIN BRANCH"}},{"type":"Feature","geometry":{"type":"Point","coordinates":[101.251654,6.86348133]},"properties":{"name":"สำนักงานที่ดินจังหวัดปั","Long":"101.251654","Lat":"6.863481","NameT":"สำนักงานที่ดินจังหวัดปั","NameE":"PATTANI LAND OFFICE"}},{"type":"Feature","geometry":{"type":"Point","coordinates":[101.098433,6.72812072]},"properties":{"name":"สำนักงานที่ดินจังหวัดปั","Long":"101.098433","Lat":"6.728121","NameT":"สำนักงานที่ดินจังหวัดปั","NameE":"PATTANI LAND OFFICE KHOK PHO BRANCH"}},{"type":"Feature","geometry":{"type":"Point","coordinates":[100.4051985,14.32154432]},"properties":{"name":"สำนักงานที่ดินจังหวัดพร","Long":"100.405199","Lat":"14.321544","NameT":"สำนักงานที่ดินจังหวัดพร","NameE":"PHRA NAKHON SI AYUTTHAYA LAND OFFICE SENA BRANCH"}},{"type":"Feature","geometry":{"type":"Point","coordinates":[100.5798873,14.3628732]},"properties":{"name":"สำนักงานที่ดินจังหวัดพร","Long":"100.579887","Lat":"14.362873","NameT":"สำนักงานที่ดินจังหวัดพร","NameE":"PHRA NAKHON SI AYUTTHAYA LAND OFFICE"}},{"type":"Feature","geometry":{"type":"Point","coordinates":[100.6927513,14.26667314]},"properties":{"name":"สำนักงานที่ดินจังหวัดพร","Long":"100.692751","Lat":"14.266673","NameT":"สำนักงานที่ดินจังหวัดพร","NameE":"PHRA NAKHON SI AYUTTHAYA LAND OFFICE WANG NOI BRANCH"}},{"type":"Feature","geometry":{"type":"Point","coordinates":[100.7305071,14.55108231]},"properties":{"name":"สำนักงานที่ดินจังหวัดพร","Long":"100.730507","Lat":"14.551082","NameT":"สำนักงานที่ดินจังหวัดพร","NameE":"PHRA NAKHON SI AYUTTHAYA LAND OFFICE THA RUEA BRANCH"}},{"type":"Feature","geometry":{"type":"Point","coordinates":[100.1385595,19.33522723]},"properties":{"name":"สำนักงานที่ดินจังหวัดพะ","Long":"100.13856","Lat":"19.335227","NameT":"สำนักงานที่ดินจังหวัดพะ","NameE":"PHAYAO LAND OFFICE CHUN BRANCH"}},{"type":"Feature","geometry":{"type":"Point","coordinates":[99.99705607,19.16084861]},"properties":{"name":"สำนักงานที่ดินจังหวัดพะ","Long":"99.997056","Lat":"19.160849","NameT":"สำนักงานที่ดินจังหวัดพะ","NameE":"PHAYAO LAND OFFICE DOK KHAMTAI BRANCH"}},{"type":"Feature","geometry":{"type":"Point","coordinates":[99.88375106,19.19059554]},"properties":{"name":"สำนักงานที่ดินจังหวัดพะ","Long":"99.883751","Lat":"19.190596","NameT":"สำนักงานที่ดินจังหวัดพะ","NameE":"PHAYAO LAND OFFICE"}},{"type":"Feature","geometry":{"type":"Point","coordinates":[99.81681979,19.34441249]},"properties":{"name":"สำนักงานที่ดินจังหวัดพะ","Long":"99.81682","Lat":"19.344412","NameT":"สำนักงานที่ดินจังหวัดพะ","NameE":"PHAYAO LAND OFFICE MAE CHAI BRANCH"}},{"type":"Feature","geometry":{"type":"Point","coordinates":[100.2785445,19.14867799]},"properties":{"name":"สำนักงานที่ดินจังหวัดพะ","Long":"100.278545","Lat":"19.148678","NameT":"สำนักงานที่ดินจังหวัดพะ","NameE":"PHAYAO LAND OFFICE PONG BRANCH"}},{"type":"Feature","geometry":{"type":"Point","coordinates":[100.3038775,19.52188018]},"properties":{"name":"สำนักงานที่ดินจังหวัดพะ","Long":"100.303878","Lat":"19.52188","NameT":"สำนักงานที่ดินจังหวัดพะ","NameE":"PHAYAO LAND OFFICE CHIANG KHAM BRANCH"}},{"type":"Feature","geometry":{"type":"Point","coordinates":[98.24752589,8.409779834]},"properties":{"name":"สำนักงานที่ดินจังหวัดพั","Long":"98.247526","Lat":"8.40978","NameT":"สำนักงานที่ดินจังหวัดพั","NameE":"PHANGNGA LAND OFFICE THAI MUEANG BRANCH"}},{"type":"Feature","geometry":{"type":"Point","coordinates":[98.64318361,8.513843544]},"properties":{"name":"สำนักงานที่ดินจังหวัดพั","Long":"98.643184","Lat":"8.513844","NameT":"สำนักงานที่ดินจังหวัดพั","NameE":"PHANGNGA LAND OFFICE THAP PUT BRANCH"}},{"type":"Feature","geometry":{"type":"Point","coordinates":[98.52166673,8.438723951]},"properties":{"name":"สำนักงานที่ดินจังหวัดพั","Long":"98.521667","Lat":"8.438724","NameT":"สำนักงานที่ดินจังหวัดพั","NameE":"PHANGNGA LAND OFFICE"}},{"type":"Feature","geometry":{"type":"Point","coordinates":[100.0135607,7.733303789]},"properties":{"name":"สำนักงานที่ดินจังหวัดพั","Long":"100.013561","Lat":"7.733304","NameT":"สำนักงานที่ดินจังหวัดพั","NameE":"PHATTHALUNG LAND OFFICE KHUAN KHANUN BRANCH"}},{"type":"Feature","geometry":{"type":"Point","coordinates":[100.1273552,7.356233911]},"properties":{"name":"สำนักงานที่ดินจังหวัดพั","Long":"100.127355","Lat":"7.356234","NameT":"สำนักงานที่ดินจังหวัดพั","NameE":"PHATTHALUNG LAND OFFICE TAMOT BRANCH"}},{"type":"Feature","geometry":{"type":"Point","coordinates":[98.34735182,8.868802741]},"properties":{"name":"สำนักงานที่ดินจังหวัดพั","Long":"98.347352","Lat":"8.868803","NameT":"สำนักงานที่ดินจังหวัดพั","NameE":"PHANGNGA LAND OFFICE TAKUA PA BRANCH"}},{"type":"Feature","geometry":{"type":"Point","coordinates":[100.3209028,7.340501729]},"properties":{"name":"สำนักงานที่ดินจังหวัดพั","Long":"100.320903","Lat":"7.340502","NameT":"สำนักงานที่ดินจังหวัดพั","NameE":"PHATTHALUNG LAND OFFICE PAK PHAYUN BRANCH"}},{"type":"Feature","geometry":{"type":"Point","coordinates":[100.0750072,7.613303991]},"properties":{"name":"สำนักงานที่ดินจังหวัดพั","Long":"100.075007","Lat":"7.613304","NameT":"สำนักงานที่ดินจังหวัดพั","NameE":"PHATTHALUNG LAND OFFICE"}},{"type":"Feature","geometry":{"type":"Point","coordinates":[100.3516654,16.44201729]},"properties":{"name":"สำนักงานที่ดินจังหวัดพิ","Long":"100.351665","Lat":"16.442017","NameT":"สำนักงานที่ดินจังหวัดพิ","NameE":"PHICHIT LAND OFFICE"}},{"type":"Feature","geometry":{"type":"Point","coordinates":[100.2677374,16.8391556]},"properties":{"name":"สำนักงานที่ดินจังหวัดพิ","Long":"100.267737","Lat":"16.839156","NameT":"สำนักงานที่ดินจังหวัดพิ","NameE":"PHITSANULOK LAND OFFICE"}},{"type":"Feature","geometry":{"type":"Point","coordinates":[100.2643036,16.09277002]},"properties":{"name":"สำนักงานที่ดินจังหวัดพิ","Long":"100.264304","Lat":"16.09277","NameT":"สำนักงานที่ดินจังหวัดพิ","NameE":"PHICHIT LAND OFFICE PHO THALE BRANCH"}},{"type":"Feature","geometry":{"type":"Point","coordinates":[100.2073949,16.50735822]},"properties":{"name":"สำนักงานที่ดินจังหวัดพิ","Long":"100.207395","Lat":"16.507358","NameT":"สำนักงานที่ดินจังหวัดพิ","NameE":"PHICHIT LAND OFFICE SAM NGAM BRANCH"}},{"type":"Feature","geometry":{"type":"Point","coordinates":[100.8298339,17.10690467]},"properties":{"name":"สำนักงานที่ดินจังหวัดพิ","Long":"100.829834","Lat":"17.106905","NameT":"สำนักงานที่ดินจังหวัดพิ","NameE":"PHITSANULOK LAND OFFICE NAKHON THAI BRANCH"}},{"type":"Feature","geometry":{"type":"Point","coordinates":[100.5418763,16.3872747]},"properties":{"name":"สำนักงานที่ดินจังหวัดพิ","Long":"100.541876","Lat":"16.387275","NameT":"สำนักงานที่ดินจังหวัดพิ","NameE":"PHICHIT LAND OFFICE WANG SAI PHUN BRANCH"}},{"type":"Feature","geometry":{"type":"Point","coordinates":[100.1058854,16.70125223]},"properties":{"name":"สำนักงานที่ดินจังหวัดพิ","Long":"100.105885","Lat":"16.701252","NameT":"สำนักงานที่ดินจังหวัดพิ","NameE":"PHITSANULOK LAND OFFICE BANG RAKAM BRANCH"}},{"type":"Feature","geometry":{"type":"Point","coordinates":[100.4319587,16.82305154]},"properties":{"name":"สำนักงานที่ดินจังหวัดพิ","Long":"100.431959","Lat":"16.823052","NameT":"สำนักงานที่ดินจังหวัดพิ","NameE":"PHITSANULOK LAND OFFICE WANG THONG BRANCH"}},{"type":"Feature","geometry":{"type":"Point","coordinates":[100.4256248,16.21376828]},"properties":{"name":"สำนักงานที่ดินจังหวัดพิ","Long":"100.425625","Lat":"16.213768","NameT":"สำนักงานที่ดินจังหวัดพิ","NameE":"PHICHIT LAND OFFICE TAPHAN HIN BRANCH"}},{"type":"Feature","geometry":{"type":"Point","coordinates":[100.2755352,16.31154118]},"properties":{"name":"สำนักงานที่ดินจังหวัดพิ","Long":"100.275535","Lat":"16.311541","NameT":"สำนักงานที่ดินจังหวัดพิ","NameE":"PHICHIT LAND OFFICE PHO PRATHAP CHANG BRANCH"}},{"type":"Feature","geometry":{"type":"Point","coordinates":[100.3023772,16.57654642]},"properties":{"name":"สำนักงานที่ดินจังหวัดพิ","Long":"100.302377","Lat":"16.576546","NameT":"สำนักงานที่ดินจังหวัดพิ","NameE":"PHITSANULOK LAND OFFICE BANG KRATHUM BRANCH"}},{"type":"Feature","geometry":{"type":"Point","coordinates":[100.3822846,16.02608734]},"properties":{"name":"สำนักงานที่ดินจังหวัดพิ","Long":"100.382285","Lat":"16.026087","NameT":"สำนักงานที่ดินจังหวัดพิ","NameE":"PHICHIT LAND OFFICE BANG MUN NAK BRANCH"}},{"type":"Feature","geometry":{"type":"Point","coordinates":[101.0695537,15.45152233]},"properties":{"name":"สำนักงานที่ดินจังหวัดเพ","Long":"101.069554","Lat":"15.451522","NameT":"สำนักงานที่ดินจังหวัดเพ","NameE":"PHETCHABUN LAND OFFICE SI THEP BRANCH"}},{"type":"Feature","geometry":{"type":"Point","coordinates":[99.94740358,13.10762765]},"properties":{"name":"สำนักงานที่ดินจังหวัดเพ","Long":"99.947404","Lat":"13.107628","NameT":"สำนักงานที่ดินจังหวัดเพ","NameE":"PHETCHABURI LAND OFFICE"}},{"type":"Feature","geometry":{"type":"Point","coordinates":[99.89140665,12.97008303]},"properties":{"name":"สำนักงานที่ดินจังหวัดเพ","Long":"99.891407","Lat":"12.970083","NameT":"สำนักงานที่ดินจังหวัดเพ","NameE":"PHETCHABURI LAND OFFICE THA YANG BRANCH"}},{"type":"Feature","geometry":{"type":"Point","coordinates":[101.0655562,15.98738862]},"properties":{"name":"สำนักงานที่ดินจังหวัดเพ","Long":"101.065556","Lat":"15.987389","NameT":"สำนักงานที่ดินจังหวัดเพ","NameE":"PHETCHABUN LAND OFFICE NONG PHAI BRANCH"}},{"type":"Feature","geometry":{"type":"Point","coordinates":[101.2332228,16.88432818]},"properties":{"name":"สำนักงานที่ดินจังหวัดเพ","Long":"101.233223","Lat":"16.884328","NameT":"สำนักงานที่ดินจังหวัดเพ","NameE":"PHETCHABUN LAND OFFICE LOM KAO BRANCH"}},{"type":"Feature","geometry":{"type":"Point","coordinates":[101.1553807,16.42999148]},"properties":{"name":"สำนักงานที่ดินจังหวัดเพ","Long":"101.155381","Lat":"16.429991","NameT":"สำนักงานที่ดินจังหวัดเพ","NameE":"PHETCHABUN LAND OFFICE"}},{"type":"Feature","geometry":{"type":"Point","coordinates":[99.95650863,12.7212008]},"properties":{"name":"สำนักงานที่ดินจังหวัดเพ","Long":"99.956509","Lat":"12.721201","NameT":"สำนักงานที่ดินจังหวัดเพ","NameE":"PHETCHABURI LAND OFFICE CHA-AM BRANCH"}},{"type":"Feature","geometry":{"type":"Point","coordinates":[100.862633,16.18773016]},"properties":{"name":"สำนักงานที่ดินจังหวัดเพ","Long":"100.862633","Lat":"16.18773","NameT":"สำนักงานที่ดินจังหวัดเพ","NameE":"PHETCHABUN LAND OFFICE CHON DAEN BRANCH"}},{"type":"Feature","geometry":{"type":"Point","coordinates":[101.2454548,16.77927128]},"properties":{"name":"สำนักงานที่ดินจังหวัดเพ","Long":"101.245455","Lat":"16.779271","NameT":"สำนักงานที่ดินจังหวัดเพ","NameE":"PHETCHABUN LAND OFFICE LOM SAK BRANCH"}},{"type":"Feature","geometry":{"type":"Point","coordinates":[101.1101599,15.65567851]},"properties":{"name":"สำนักงานที่ดินจังหวัดเพ","Long":"101.11016","Lat":"15.655679","NameT":"สำนักงานที่ดินจังหวัดเพ","NameE":"PHETCHABUN LAND OFFICE WICHIAN BURI BRANCH"}},{"type":"Feature","geometry":{"type":"Point","coordinates":[100.1440563,18.14306481]},"properties":{"name":"สำนักงานที่ดินจังหวัดแพ","Long":"100.144056","Lat":"18.143065","NameT":"สำนักงานที่ดินจังหวัดแพ","NameE":"PHRAE LAND OFFICE"}},{"type":"Feature","geometry":{"type":"Point","coordinates":[100.1146353,18.04965535]},"properties":{"name":"สำนักงานที่ดินจังหวัดแพ","Long":"100.114635","Lat":"18.049655","NameT":"สำนักงานที่ดินจังหวัดแพ","NameE":"PHRAE LAND OFFICE SUNG MEN BRANCH"}},{"type":"Feature","geometry":{"type":"Point","coordinates":[100.1865146,18.46817462]},"properties":{"name":"สำนักงานที่ดินจังหวัดแพ","Long":"100.186515","Lat":"18.468175","NameT":"สำนักงานที่ดินจังหวัดแพ","NameE":"PHRAE LAND OFFICE SONG BRANCH"}},{"type":"Feature","geometry":{"type":"Point","coordinates":[100.3206468,18.33871407]},"properties":{"name":"สำนักงานที่ดินจังหวัดแพ","Long":"100.320647","Lat":"18.338714","NameT":"สำนักงานที่ดินจังหวัดแพ","NameE":"PHRAE LAND OFFICE RONG KWANG BRANCH"}},{"type":"Feature","geometry":{"type":"Point","coordinates":[99.83569677,18.07407456]},"properties":{"name":"สำนักงานที่ดินจังหวัดแพ","Long":"99.835697","Lat":"18.074075","NameT":"สำนักงานที่ดินจังหวัดแพ","NameE":"PHRAE LAND OFFICE LONG BRANCH"}},{"type":"Feature","geometry":{"type":"Point","coordinates":[99.60658427,17.89832966]},"properties":{"name":"สำนักงานที่ดินจังหวัดแพ","Long":"99.606584","Lat":"17.89833","NameT":"สำนักงานที่ดินจังหวัดแพ","NameE":"PHRAE LAND OFFICE WANG CHIN BRANCH"}},{"type":"Feature","geometry":{"type":"Point","coordinates":[98.3362752,7.907103744]},"properties":{"name":"สำนักงานที่ดินจังหวัดภู","Long":"98.336275","Lat":"7.907104","NameT":"สำนักงานที่ดินจังหวัดภู","NameE":"PHUKET LAND OFFICE, KATHU BRANCH"}},{"type":"Feature","geometry":{"type":"Point","coordinates":[98.33693897,8.029915677]},"properties":{"name":"สำนักงานที่ดินจังหวัดภู","Long":"98.336939","Lat":"8.029916","NameT":"สำนักงานที่ดินจังหวัดภู","NameE":"PHUKET LAND OFFICE THALANG BRANCH"}},{"type":"Feature","geometry":{"type":"Point","coordinates":[98.39735117,7.887631543]},"properties":{"name":"สำนักงานที่ดินจังหวัดภู","Long":"98.397351","Lat":"7.887632","NameT":"สำนักงานที่ดินจังหวัดภู","NameE":"PHUKET LAND OFFICE"}},{"type":"Feature","geometry":{"type":"Point","coordinates":[103.1089024,16.40598268]},"properties":{"name":"สำนักงานที่ดินจังหวัดมห","Long":"103.108902","Lat":"16.405983","NameT":"สำนักงานที่ดินจังหวัดมห","NameE":"MAHA SARAKHAM LAND OFFICE CHIANG YUEN BRANCH"}},{"type":"Feature","geometry":{"type":"Point","coordinates":[103.1969761,15.51498872]},"properties":{"name":"สำนักงานที่ดินจังหวัดมห","Long":"103.196976","Lat":"15.514989","NameT":"สำนักงานที่ดินจังหวัดมห","NameE":"MAHA SARAKHAM LAND OFFICE PHAYAKKHAPHUM PHISAI BRANCH"}},{"type":"Feature","geometry":{"type":"Point","coordinates":[103.1207978,16.03934817]},"properties":{"name":"สำนักงานที่ดินจังหวัดมห","Long":"103.120798","Lat":"16.039348","NameT":"สำนักงานที่ดินจังหวัดมห","NameE":"MAHA SARAKHAM LAND OFFICE BORABUE BRANCH"}},{"type":"Feature","geometry":{"type":"Point","coordinates":[103.0345474,15.79689881]},"properties":{"name":"สำนักงานที่ดินจังหวัดมห","Long":"103.034547","Lat":"15.796899","NameT":"สำนักงานที่ดินจังหวัดมห","NameE":"MAHA SARAKHAM LAND OFFICE NA CHUEAK BRANCH"}},{"type":"Feature","geometry":{"type":"Point","coordinates":[103.106352,15.68134205]},"properties":{"name":"สำนักงานที่ดินจังหวัดมห","Long":"103.106352","Lat":"15.681342","NameT":"สำนักงานที่ดินจังหวัดมห","NameE":"MAHA SARAKHAM LAND OFFICE YANG SISURAT BRANCH"}},{"type":"Feature","geometry":{"type":"Point","coordinates":[103.3829394,15.84421103]},"properties":{"name":"สำนักงานที่ดินจังหวัดมห","Long":"103.382939","Lat":"15.844211","NameT":"สำนักงานที่ดินจังหวัดมห","NameE":"MAHA SARAKHAM LAND OFFICE WAPI PATHUM BRANCH"}},{"type":"Feature","geometry":{"type":"Point","coordinates":[103.0703315,16.24755496]},"properties":{"name":"สำนักงานที่ดินจังหวัดมห","Long":"103.070331","Lat":"16.247555","NameT":"สำนักงานที่ดินจังหวัดมห","NameE":"MAHA SARAKHAM LAND OFFICE KOSUM PHISAI BRANCH"}},{"type":"Feature","geometry":{"type":"Point","coordinates":[103.3002141,16.32270405]},"properties":{"name":"สำนักงานที่ดินจังหวัดมห","Long":"103.300214","Lat":"16.322704","NameT":"สำนักงานที่ดินจังหวัดมห","NameE":"MAHA SARAKHAM LAND OFFICE"}},{"type":"Feature","geometry":{"type":"Point","coordinates":[104.4223412,16.57570807]},"properties":{"name":"สำนักงานที่ดินจังหวัดมุ","Long":"104.422341","Lat":"16.575708","NameT":"สำนักงานที่ดินจังหวัดมุ","NameE":"MUKDAHAN LAND OFFICE KHAM CHA-I BRANCH"}},{"type":"Feature","geometry":{"type":"Point","coordinates":[104.730258,16.54575065]},"properties":{"name":"สำนักงานที่ดินจังหวัดมุ","Long":"104.730258","Lat":"16.545751","NameT":"สำนักงานที่ดินจังหวัดมุ","NameE":"MUKDAHAN LAND OFFICE"}},{"type":"Feature","geometry":{"type":"Point","coordinates":[97.93558754,18.17013327]},"properties":{"name":"สำนักงานที่ดินจังหวัดแม","Long":"97.935588","Lat":"18.170133","NameT":"สำนักงานที่ดินจังหวัดแม","NameE":"MAE HONG SON LAND OFFICE MAE SARIANG BRANCH"}},{"type":"Feature","geometry":{"type":"Point","coordinates":[97.96724119,19.28946008]},"properties":{"name":"สำนักงานที่ดินจังหวัดแม","Long":"97.967241","Lat":"19.28946","NameT":"สำนักงานที่ดินจังหวัดแม","NameE":"MAE HONG SON LAND OFFICE"}},{"type":"Feature","geometry":{"type":"Point","coordinates":[98.4382438,19.35739014]},"properties":{"name":"สำนักงานที่ดินจังหวัดแม","Long":"98.438244","Lat":"19.35739","NameT":"สำนักงานที่ดินจังหวัดแม","NameE":"MAE HONG SON LAND OFFICE PAI BRANCH"}},{"type":"Feature","geometry":{"type":"Point","coordinates":[104.3888741,15.82968159]},"properties":{"name":"สำนักงานที่ดินจังหวัดยโ","Long":"104.388874","Lat":"15.829682","NameT":"สำนักงานที่ดินจังหวัดยโ","NameE":"YASOTHON LAND OFFICE PA TIO BRANCH"}},{"type":"Feature","geometry":{"type":"Point","coordinates":[104.5590325,16.20566233]},"properties":{"name":"สำนักงานที่ดินจังหวัดยโ","Long":"104.559033","Lat":"16.205662","NameT":"สำนักงานที่ดินจังหวัดยโ","NameE":"YASOTHON LAND OFFICE LOENG NOK THA BRANCH"}},{"type":"Feature","geometry":{"type":"Point","coordinates":[104.3128804,15.65075533]},"properties":{"name":"สำนักงานที่ดินจังหวัดยโ","Long":"104.31288","Lat":"15.650755","NameT":"สำนักงานที่ดินจังหวัดยโ","NameE":"YASOTHON LAND OFFICE KHAM KHUEAN KAEO BRANCH"}},{"type":"Feature","geometry":{"type":"Point","coordinates":[104.2131904,15.93800174]},"properties":{"name":"สำนักงานที่ดินจังหวัดยโ","Long":"104.21319","Lat":"15.938002","NameT":"สำนักงานที่ดินจังหวัดยโ","NameE":"YASOTHON LAND OFFICE SAI MUN BRANCH"}},{"type":"Feature","geometry":{"type":"Point","coordinates":[104.3599152,15.36812971]},"properties":{"name":"สำนักงานที่ดินจังหวัดยโ","Long":"104.359915","Lat":"15.36813","NameT":"สำนักงานที่ดินจังหวัดยโ","NameE":"YASOTHON LAND OFFICE KHO WANG BRANCH"}},{"type":"Feature","geometry":{"type":"Point","coordinates":[104.3426518,16.03187176]},"properties":{"name":"สำนักงานที่ดินจังหวัดยโ","Long":"104.342652","Lat":"16.031872","NameT":"สำนักงานที่ดินจังหวัดยโ","NameE":"YASOTHON LAND OFFICE KUT CHUM BRANCH"}},{"type":"Feature","geometry":{"type":"Point","coordinates":[104.1438761,15.80145679]},"properties":{"name":"สำนักงานที่ดินจังหวัดยโ","Long":"104.143876","Lat":"15.801457","NameT":"สำนักงานที่ดินจังหวัดยโ","NameE":"YASOTHON LAND OFFICE"}},{"type":"Feature","geometry":{"type":"Point","coordinates":[104.2462083,15.53122417]},"properties":{"name":"สำนักงานที่ดินจังหวัดยโ","Long":"104.246208","Lat":"15.531224","NameT":"สำนักงานที่ดินจังหวัดยโ","NameE":"YASOTHON LAND OFFICE MAHA CHANACHAI BRANCH"}},{"type":"Feature","geometry":{"type":"Point","coordinates":[101.282666,6.538094011]},"properties":{"name":"สำนักงานที่ดินจังหวัดยะ","Long":"101.282666","Lat":"6.538094","NameT":"สำนักงานที่ดินจังหวัดยะ","NameE":"YALA LAND OFFICE"}},{"type":"Feature","geometry":{"type":"Point","coordinates":[104.1135827,15.67638895]},"properties":{"name":"สำนักงานที่ดินจังหวัดร้","Long":"104.113583","Lat":"15.676389","NameT":"สำนักงานที่ดินจังหวัดร้","NameE":"ROI ET LAND OFFICE PHANOM PHRAI BRANCH"}},{"type":"Feature","geometry":{"type":"Point","coordinates":[103.8826173,15.84252216]},"properties":{"name":"สำนักงานที่ดินจังหวัดร้","Long":"103.882617","Lat":"15.842522","NameT":"สำนักงานที่ดินจังหวัดร้","NameE":"ROI ET LAND OFFICE AT SAMAT BRANCH"}},{"type":"Feature","geometry":{"type":"Point","coordinates":[103.9866959,16.31596748]},"properties":{"name":"สำนักงานที่ดินจังหวัดร้","Long":"103.986696","Lat":"16.315967","NameT":"สำนักงานที่ดินจังหวัดร้","NameE":"ROI ET LAND OFFICE PHON THONG BRANCH"}},{"type":"Feature","geometry":{"type":"Point","coordinates":[103.6554347,16.0512572]},"properties":{"name":"สำนักงานที่ดินจังหวัดร้","Long":"103.655435","Lat":"16.051257","NameT":"สำนักงานที่ดินจังหวัดร้","NameE":"ROI ET LAND OFFICE"}},{"type":"Feature","geometry":{"type":"Point","coordinates":[101.2997414,12.78221919]},"properties":{"name":"สำนักงานที่ดินจังหวัดระ","Long":"101.299741","Lat":"12.782219","NameT":"สำนักงานที่ดินจังหวัดระ","NameE":"RAYONG LAND OFFICE BAN KHAI BRANCH"}},{"type":"Feature","geometry":{"type":"Point","coordinates":[101.2184071,12.97027036]},"properties":{"name":"สำนักงานที่ดินจังหวัดระ","Long":"101.218407","Lat":"12.97027","NameT":"สำนักงานที่ดินจังหวัดระ","NameE":"RAYONG LAND OFFICE BAN KHAI BRANCH PLUAK DAENG SUB-BRANCH"}},{"type":"Feature","geometry":{"type":"Point","coordinates":[101.2770784,12.66720283]},"properties":{"name":"สำนักงานที่ดินจังหวัดระ","Long":"101.277078","Lat":"12.667203","NameT":"สำนักงานที่ดินจังหวัดระ","NameE":"RAYONG LAND OFFICE"}},{"type":"Feature","geometry":{"type":"Point","coordinates":[101.0692734,12.72764714]},"properties":{"name":"สำนักงานที่ดินจังหวัดระ","Long":"101.069273","Lat":"12.727647","NameT":"สำนักงานที่ดินจังหวัดระ","NameE":"RAYONG LAND OFFICE BAN CHANG SUB-BRANCH"}},{"type":"Feature","geometry":{"type":"Point","coordinates":[98.77561593,10.39991255]},"properties":{"name":"สำนักงานที่ดินจังหวัดระ","Long":"98.775616","Lat":"10.399913","NameT":"สำนักงานที่ดินจังหวัดระ","NameE":"RANONG LAND OFFICE KRA BURI BRANCH"}},{"type":"Feature","geometry":{"type":"Point","coordinates":[98.63923492,9.953662409]},"properties":{"name":"สำนักงานที่ดินจังหวัดระ","Long":"98.639235","Lat":"9.953662","NameT":"สำนักงานที่ดินจังหวัดระ","NameE":"RANONG LAND OFFICE"}},{"type":"Feature","geometry":{"type":"Point","coordinates":[101.6564814,12.77643896]},"properties":{"name":"สำนักงานที่ดินจังหวัดระ","Long":"101.656481","Lat":"12.776439","NameT":"สำนักงานที่ดินจังหวัดระ","NameE":"FORMER RAYONG LAND OFFICE"}},{"type":"Feature","geometry":{"type":"Point","coordinates":[98.59882373,9.582918229]},"properties":{"name":"สำนักงานที่ดินจังหวัดระ","Long":"98.598824","Lat":"9.582918","NameT":"สำนักงานที่ดินจังหวัดระ","NameE":"RANONG LAND OFFICE KAPOE BRANCH"}},{"type":"Feature","geometry":{"type":"Point","coordinates":[101.3072435,12.81037826]},"properties":{"name":"สำนักงานที่ดินจังหวัดระ","Long":"101.307244","Lat":"12.810378","NameT":"สำนักงานที่ดินจังหวัดระ","NameE":"RAYONG LAND OFFICE BAN KHAI BRANCH"}},{"type":"Feature","geometry":{"type":"Point","coordinates":[98.75204998,10.1140708]},"properties":{"name":"สำนักงานที่ดินจังหวัดระ","Long":"98.75205","Lat":"10.114071","NameT":"สำนักงานที่ดินจังหวัดระ","NameE":"RANONG LAND OFFICE LA-UN BRANCH"}},{"type":"Feature","geometry":{"type":"Point","coordinates":[101.6916078,12.7789309]},"properties":{"name":"สำนักงานที่ดินจังหวัดระ","Long":"101.691608","Lat":"12.778931","NameT":"สำนักงานที่ดินจังหวัดระ","NameE":"RAYONG LAND OFFICE KLAENG BRANCH"}},{"type":"Feature","geometry":{"type":"Point","coordinates":[99.81495088,13.52673407]},"properties":{"name":"สำนักงานที่ดินจังหวัดรา","Long":"99.814951","Lat":"13.526734","NameT":"สำนักงานที่ดินจังหวัดรา","NameE":"RATCHABURI LAND OFFICE"}},{"type":"Feature","geometry":{"type":"Point","coordinates":[99.4440592,13.54547909]},"properties":{"name":"สำนักงานที่ดินจังหวัดรา","Long":"99.444059","Lat":"13.545479","NameT":"สำนักงานที่ดินจังหวัดรา","NameE":"RATCHABURI LAND OFFICE SUAN PHUENG BRANCH"}},{"type":"Feature","geometry":{"type":"Point","coordinates":[99.60791368,13.62787754]},"properties":{"name":"สำนักงานที่ดินจังหวัดรา","Long":"99.607914","Lat":"13.627878","NameT":"สำนักงานที่ดินจังหวัดรา","NameE":"RATCHABURI LAND OFFICE CHOM BUENG BRANCH"}},{"type":"Feature","geometry":{"type":"Point","coordinates":[99.823532,13.36645552]},"properties":{"name":"สำนักงานที่ดินจังหวัดรา","Long":"99.823532","Lat":"13.366456","NameT":"สำนักงานที่ดินจังหวัดรา","NameE":"RATCHABURI LAND OFFICE PAK THO BRANCH"}},{"type":"Feature","geometry":{"type":"Point","coordinates":[99.91304987,13.79710264]},"properties":{"name":"สำนักงานที่ดินจังหวัดรา","Long":"99.91305","Lat":"13.797103","NameT":"สำนักงานที่ดินจังหวัดรา","NameE":"RATCHABURI LAND OFFICE BAN PONG BRANCH"}},{"type":"Feature","geometry":{"type":"Point","coordinates":[100.5452916,15.04149462]},"properties":{"name":"สำนักงานที่ดินจังหวัดลพ","Long":"100.545292","Lat":"15.041495","NameT":"สำนักงานที่ดินจังหวัดลพ","NameE":"LOP BURI LAND OFFICE BAN MI BRANCH"}},{"type":"Feature","geometry":{"type":"Point","coordinates":[101.1126108,15.18133588]},"properties":{"name":"สำนักงานที่ดินจังหวัดลพ","Long":"101.112611","Lat":"15.181336","NameT":"สำนักงานที่ดินจังหวัดลพ","NameE":"LOP BURI LAND OFFICE CHAI BADAN BRANCH"}},{"type":"Feature","geometry":{"type":"Point","coordinates":[100.7186543,15.08829178]},"properties":{"name":"สำนักงานที่ดินจังหวัดลพ","Long":"100.718654","Lat":"15.088292","NameT":"สำนักงานที่ดินจังหวัดลพ","NameE":"LOP BURI LAND OFFICE KHOK SAMRONG BRANCH"}},{"type":"Feature","geometry":{"type":"Point","coordinates":[100.9921151,14.8552197]},"properties":{"name":"สำนักงานที่ดินจังหวัดลพ","Long":"100.992115","Lat":"14.85522","NameT":"สำนักงานที่ดินจังหวัดลพ","NameE":"LOP BURI LAND OFFICE PHATTHANA NIKHOM BRANCH"}},{"type":"Feature","geometry":{"type":"Point","coordinates":[100.6573068,14.7972021]},"properties":{"name":"สำนักงานที่ดินจังหวัดลพ","Long":"100.657307","Lat":"14.797202","NameT":"สำนักงานที่ดินจังหวัดลพ","NameE":"LOP BURI LAND OFFICE"}},{"type":"Feature","geometry":{"type":"Point","coordinates":[99.21886502,17.61001817]},"properties":{"name":"สำนักงานที่ดินจังหวัดลำ","Long":"99.218865","Lat":"17.610018","NameT":"สำนักงานที่ดินจังหวัดลำ","NameE":"LAMPANG LAND OFFICE THOEN BRANCH"}},{"type":"Feature","geometry":{"type":"Point","coordinates":[99.51589565,18.13256292]},"properties":{"name":"สำนักงานที่ดินจังหวัดลำ","Long":"99.515896","Lat":"18.132563","NameT":"สำนักงานที่ดินจังหวัดลำ","NameE":"LAMPANG LAND OFFICE MAE THA BRANCH"}},{"type":"Feature","geometry":{"type":"Point","coordinates":[98.94329836,18.52452772]},"properties":{"name":"สำนักงานที่ดินจังหวัดลำ","Long":"98.943298","Lat":"18.524528","NameT":"สำนักงานที่ดินจังหวัดลำ","NameE":"LAMPHUN LAND OFFICE PA SANG BRANCH"}},{"type":"Feature","geometry":{"type":"Point","coordinates":[99.14135442,18.46190928]},"properties":{"name":"สำนักงานที่ดินจังหวัดลำ","Long":"99.141354","Lat":"18.461909","NameT":"สำนักงานที่ดินจังหวัดลำ","NameE":"LAMPHUN LAND OFFICE PA SANG BRANCH MAE THA SUB-BRANCH"}},{"type":"Feature","geometry":{"type":"Point","coordinates":[99.12582678,18.65191482]},"properties":{"name":"สำนักงานที่ดินจังหวัดลำ","Long":"99.125827","Lat":"18.651915","NameT":"สำนักงานที่ดินจังหวัดลำ","NameE":"LAMPHUN LAND OFFICE BAN THI SUB-BRANCH"}},{"type":"Feature","geometry":{"type":"Point","coordinates":[99.00902725,18.57307362]},"properties":{"name":"สำนักงานที่ดินจังหวัดลำ","Long":"99.009027","Lat":"18.573074","NameT":"สำนักงานที่ดินจังหวัดลำ","NameE":"LAMPHUN LAND OFFICE"}},{"type":"Feature","geometry":{"type":"Point","coordinates":[98.82237902,18.329505]},"properties":{"name":"สำนักงานที่ดินจังหวัดลำ","Long":"98.822379","Lat":"18.329505","NameT":"สำนักงานที่ดินจังหวัดลำ","NameE":"LAMPHUN LAND OFFICE BAN HONG BRANCH"}},{"type":"Feature","geometry":{"type":"Point","coordinates":[99.35014598,18.32619692]},"properties":{"name":"สำนักงานที่ดินจังหวัดลำ","Long":"99.350146","Lat":"18.326197","NameT":"สำนักงานที่ดินจังหวัดลำ","NameE":"LAMPANG LAND OFFICE HANG CHAT BRANCH"}},{"type":"Feature","geometry":{"type":"Point","coordinates":[99.98171068,18.75517774]},"properties":{"name":"สำนักงานที่ดินจังหวัดลำ","Long":"99.981711","Lat":"18.755178","NameT":"สำนักงานที่ดินจังหวัดลำ","NameE":"LAMPANG LAND OFFICE NGAO BRANCH"}},{"type":"Feature","geometry":{"type":"Point","coordinates":[99.62216733,19.14421456]},"properties":{"name":"สำนักงานที่ดินจังหวัดลำ","Long":"99.622167","Lat":"19.144215","NameT":"สำนักงานที่ดินจังหวัดลำ","NameE":"LAMPANG LAND OFFICE WANG NUEA BRANCH"}},{"type":"Feature","geometry":{"type":"Point","coordinates":[99.50725044,18.28960021]},"properties":{"name":"สำนักงานที่ดินจังหวัดลำ","Long":"99.50725","Lat":"18.2896","NameT":"สำนักงานที่ดินจังหวัดลำ","NameE":"LAMPANG LAND OFFICE"}},{"type":"Feature","geometry":{"type":"Point","coordinates":[99.39742374,18.18952581]},"properties":{"name":"สำนักงานที่ดินจังหวัดลำ","Long":"99.397424","Lat":"18.189526","NameT":"สำนักงานที่ดินจังหวัดลำ","NameE":"LAMPANG LAND OFFICE KO KHA BRANCH"}},{"type":"Feature","geometry":{"type":"Point","coordinates":[99.24868775,18.06383446]},"properties":{"name":"สำนักงานที่ดินจังหวัดลำ","Long":"99.248688","Lat":"18.063834","NameT":"สำนักงานที่ดินจังหวัดลำ","NameE":"LAMPANG LAND OFFICE SOEM NGAM BRANCH"}},{"type":"Feature","geometry":{"type":"Point","coordinates":[99.559111,18.70603247]},"properties":{"name":"สำนักงานที่ดินจังหวัดลำ","Long":"99.559111","Lat":"18.706032","NameT":"สำนักงานที่ดินจังหวัดลำ","NameE":"LAMPANG LAND OFFICE CHAE HOM BRANCH"}},{"type":"Feature","geometry":{"type":"Point","coordinates":[98.95367294,17.80059471]},"properties":{"name":"สำนักงานที่ดินจังหวัดลำ","Long":"98.953673","Lat":"17.800595","NameT":"สำนักงานที่ดินจังหวัดลำ","NameE":"LAMPHUN LAND OFFICE LI BRANCH"}},{"type":"Feature","geometry":{"type":"Point","coordinates":[99.11716131,17.44689401]},"properties":{"name":"สำนักงานที่ดินจังหวัดลำ","Long":"99.117161","Lat":"17.446894","NameT":"สำนักงานที่ดินจังหวัดลำ","NameE":"LAMPANG LAND OFFICE MAE PHRIK BRANCH"}},{"type":"Feature","geometry":{"type":"Point","coordinates":[99.34003976,17.87913859]},"properties":{"name":"สำนักงานที่ดินจังหวัดลำ","Long":"99.34004","Lat":"17.879139","NameT":"สำนักงานที่ดินจังหวัดลำ","NameE":"LAMPANG LAND OFFICE SOP PRAP BRANCH"}},{"type":"Feature","geometry":{"type":"Point","coordinates":[101.1508672,17.27886699]},"properties":{"name":"สำนักงานที่ดินจังหวัดเล","Long":"101.150867","Lat":"17.278867","NameT":"สำนักงานที่ดินจังหวัดเล","NameE":"LOEI LAND OFFICE DAN SAI BRANCH"}},{"type":"Feature","geometry":{"type":"Point","coordinates":[101.7227419,17.48521145]},"properties":{"name":"สำนักงานที่ดินจังหวัดเล","Long":"101.722742","Lat":"17.485211","NameT":"สำนักงานที่ดินจังหวัดเล","NameE":"LOEI LAND OFFICE"}},{"type":"Feature","geometry":{"type":"Point","coordinates":[101.8888999,16.88323324]},"properties":{"name":"สำนักงานที่ดินจังหวัดเล","Long":"101.8889","Lat":"16.883233","NameT":"สำนักงานที่ดินจังหวัดเล","NameE":"LOEI LAND OFFICE PHU KRADUENG BRANCH"}},{"type":"Feature","geometry":{"type":"Point","coordinates":[101.6680209,17.8967559]},"properties":{"name":"สำนักงานที่ดินจังหวัดเล","Long":"101.668021","Lat":"17.896756","NameT":"สำนักงานที่ดินจังหวัดเล","NameE":"LOEI LAND OFFICE CHIANG KHAN BRANCH"}},{"type":"Feature","geometry":{"type":"Point","coordinates":[101.8919308,18.02100082]},"properties":{"name":"สำนักงานที่ดินจังหวัดเล","Long":"101.891931","Lat":"18.021001","NameT":"สำนักงานที่ดินจังหวัดเล","NameE":"LOEI LAND OFFICE PAK CHOM BRANCH"}},{"type":"Feature","geometry":{"type":"Point","coordinates":[101.7714902,17.29978617]},"properties":{"name":"สำนักงานที่ดินจังหวัดเล","Long":"101.77149","Lat":"17.299786","NameT":"สำนักงานที่ดินจังหวัดเล","NameE":"LOEI LAND OFFICE WANG SAPHUNG BRANCH"}},{"type":"Feature","geometry":{"type":"Point","coordinates":[101.3664934,17.45307925]},"properties":{"name":"สำนักงานที่ดินจังหวัดเล","Long":"101.366493","Lat":"17.453079","NameT":"สำนักงานที่ดินจังหวัดเล","NameE":"LOEI LAND OFFICE PHU RUEA BRANCH"}},{"type":"Feature","geometry":{"type":"Point","coordinates":[104.2027763,14.71212089]},"properties":{"name":"สำนักงานที่ดินจังหวัดศร","Long":"104.202776","Lat":"14.712121","NameT":"สำนักงานที่ดินจังหวัดศร","NameE":"SI SA KET LAND OFFICE KHUKHAN BRANCH"}},{"type":"Feature","geometry":{"type":"Point","coordinates":[104.1440943,15.11032288]},"properties":{"name":"สำนักงานที่ดินจังหวัดศร","Long":"104.144094","Lat":"15.110323","NameT":"สำนักงานที่ดินจังหวัดศร","NameE":"SI SA KET LAND OFFICE UTHUMPHON PHISAI BRANCH"}},{"type":"Feature","geometry":{"type":"Point","coordinates":[104.6537506,14.63886617]},"properties":{"name":"สำนักงานที่ดินจังหวัดศร","Long":"104.653751","Lat":"14.638866","NameT":"สำนักงานที่ดินจังหวัดศร","NameE":"SI SA KET LAND OFFICE KANTHARALAK BRANCH"}},{"type":"Feature","geometry":{"type":"Point","coordinates":[104.3661553,14.74591919]},"properties":{"name":"สำนักงานที่ดินจังหวัดศร","Long":"104.366155","Lat":"14.745919","NameT":"สำนักงานที่ดินจังหวัดศร","NameE":"SI SA KET LAND OFFICE PHRAI BUENG BRANCH"}},{"type":"Feature","geometry":{"type":"Point","coordinates":[104.1580434,15.33867053]},"properties":{"name":"สำนักงานที่ดินจังหวัดศร","Long":"104.158043","Lat":"15.338671","NameT":"สำนักงานที่ดินจังหวัดศร","NameE":"SI SA KET LAND OFFICE RASI SALAI BRANCH"}},{"type":"Feature","geometry":{"type":"Point","coordinates":[104.0424239,14.85562465]},"properties":{"name":"สำนักงานที่ดินจังหวัดศร","Long":"104.042424","Lat":"14.855625","NameT":"สำนักงานที่ดินจังหวัดศร","NameE":"SI SA KET LAND OFFICE PRANG KU BRANCH"}},{"type":"Feature","geometry":{"type":"Point","coordinates":[104.5736089,15.10332346]},"properties":{"name":"สำนักงานที่ดินจังหวัดศร","Long":"104.573609","Lat":"15.103323","NameT":"สำนักงานที่ดินจังหวัดศร","NameE":"SI SA KET LAND OFFICE KANTHARAROM BRANCH"}},{"type":"Feature","geometry":{"type":"Point","coordinates":[104.4285941,14.61613478]},"properties":{"name":"สำนักงานที่ดินจังหวัดศร","Long":"104.428594","Lat":"14.616135","NameT":"สำนักงานที่ดินจังหวัดศร","NameE":"SI SA KET LAND OFFICE KHUN HAN BRANCH"}},{"type":"Feature","geometry":{"type":"Point","coordinates":[104.3241463,15.1170014]},"properties":{"name":"สำนักงานที่ดินจังหวัดศร","Long":"104.324146","Lat":"15.117001","NameT":"สำนักงานที่ดินจังหวัดศร","NameE":"SI SA KET LAND OFFICE"}},{"type":"Feature","geometry":{"type":"Point","coordinates":[104.4053126,15.25982682]},"properties":{"name":"สำนักงานที่ดินจังหวัดศร","Long":"104.405313","Lat":"15.259827","NameT":"สำนักงานที่ดินจังหวัดศร","NameE":"SI SA KET LAND OFFICE YANG CHUM NOI BRANCH"}},{"type":"Feature","geometry":{"type":"Point","coordinates":[103.851863,17.35009357]},"properties":{"name":"สำนักงานที่ดินจังหวัดสก","Long":"103.851863","Lat":"17.350094","NameT":"สำนักงานที่ดินจังหวัดสก","NameE":"SAKON NAKHON LAND OFFICE PHANNA NIKHOM BRANCH"}},{"type":"Feature","geometry":{"type":"Point","coordinates":[103.9770419,17.59367722]},"properties":{"name":"สำนักงานที่ดินจังหวัดสก","Long":"103.977042","Lat":"17.593677","NameT":"สำนักงานที่ดินจังหวัดสก","NameE":"SAKON NAKHON LAND OFFICE AKAT AMNUAI BRANCH"}},{"type":"Feature","geometry":{"type":"Point","coordinates":[103.7135345,17.39110271]},"properties":{"name":"สำนักงานที่ดินจังหวัดสก","Long":"103.713534","Lat":"17.391103","NameT":"สำนักงานที่ดินจังหวัดสก","NameE":"SAKON NAKHON LAND OFFICE PHANG KHON BRANCH"}},{"type":"Feature","geometry":{"type":"Point","coordinates":[104.3381383,17.32859071]},"properties":{"name":"สำนักงานที่ดินจังหวัดสก","Long":"104.338138","Lat":"17.328591","NameT":"สำนักงานที่ดินจังหวัดสก","NameE":"SAKON NAKHON LAND OFFICE"}},{"type":"Feature","geometry":{"type":"Point","coordinates":[104.1374653,17.15350654]},"properties":{"name":"สำนักงานที่ดินจังหวัดสก","Long":"104.137465","Lat":"17.153507","NameT":"สำนักงานที่ดินจังหวัดสก","NameE":"SAKON NAKHON LAND OFFICE"}},{"type":"Feature","geometry":{"type":"Point","coordinates":[103.6407218,17.29182402]},"properties":{"name":"สำนักงานที่ดินจังหวัดสก","Long":"103.640722","Lat":"17.291824","NameT":"สำนักงานที่ดินจังหวัดสก","NameE":"SAKON NAKHON LAND OFFICE WARITCHAPHUM BRANCH"}},{"type":"Feature","geometry":{"type":"Point","coordinates":[103.4631644,17.48274765]},"properties":{"name":"สำนักงานที่ดินจังหวัดสก","Long":"103.463164","Lat":"17.482748","NameT":"สำนักงานที่ดินจังหวัดสก","NameE":"SAKON NAKHON LAND OFFICE SAWANG DAEN DIN BRANCH"}},{"type":"Feature","geometry":{"type":"Point","coordinates":[103.5733968,17.84925244]},"properties":{"name":"สำนักงานที่ดินจังหวัดสก","Long":"103.573397","Lat":"17.849252","NameT":"สำนักงานที่ดินจังหวัดสก","NameE":"SAKON NAKHON LAND OFFICE BAN MUANG BRANCH"}},{"type":"Feature","geometry":{"type":"Point","coordinates":[103.7558907,17.63000677]},"properties":{"name":"สำนักงานที่ดินจังหวัดสก","Long":"103.755891","Lat":"17.630007","NameT":"สำนักงานที่ดินจังหวัดสก","NameE":"SAKON NAKHON LAND OFFICE WANON NIWAT BRANCH"}},{"type":"Feature","geometry":{"type":"Point","coordinates":[100.4445389,7.462255256]},"properties":{"name":"สำนักงานที่ดินจังหวัดสง","Long":"100.444539","Lat":"7.462255","NameT":"สำนักงานที่ดินจังหวัดสง","NameE":"SONGKHLA LAND OFFICE SATHING PHRA BRANCH"}},{"type":"Feature","geometry":{"type":"Point","coordinates":[100.9513813,6.626875956]},"properties":{"name":"สำนักงานที่ดินจังหวัดสง","Long":"100.951381","Lat":"6.626876","NameT":"สำนักงานที่ดินจังหวัดสง","NameE":"SONGKHLA LAND OFFICE SABA YOI BRANCH"}},{"type":"Feature","geometry":{"type":"Point","coordinates":[100.4607601,6.999944397]},"properties":{"name":"สำนักงานที่ดินจังหวัดสง","Long":"100.46076","Lat":"6.999944","NameT":"สำนักงานที่ดินจังหวัดสง","NameE":"SONGKHLA LAND OFFICE HAT YAI BRANCH"}},{"type":"Feature","geometry":{"type":"Point","coordinates":[100.5896752,7.209779538]},"properties":{"name":"สำนักงานที่ดินจังหวัดสง","Long":"100.589675","Lat":"7.20978","NameT":"สำนักงานที่ดินจังหวัดสง","NameE":"SONGKHLA LAND OFFICE"}},{"type":"Feature","geometry":{"type":"Point","coordinates":[100.4521369,6.728296679]},"properties":{"name":"สำนักงานที่ดินจังหวัดสง","Long":"100.452137","Lat":"6.728297","NameT":"สำนักงานที่ดินจังหวัดสง","NameE":"SONGKHLA LAND OFFICE SADAO BRANCH"}},{"type":"Feature","geometry":{"type":"Point","coordinates":[100.477917,6.994584221]},"properties":{"name":"สำนักงานที่ดินจังหวัดสง","Long":"100.477917","Lat":"6.994584","NameT":"สำนักงานที่ดินจังหวัดสง","NameE":"SONGKHLA LAND OFFICE HAT YAI BRANCH KHO HONG SUB-BRANCH"}},{"type":"Feature","geometry":{"type":"Point","coordinates":[100.9679277,6.827423022]},"properties":{"name":"สำนักงานที่ดินจังหวัดสง","Long":"100.967928","Lat":"6.827423","NameT":"สำนักงานที่ดินจังหวัดสง","NameE":"SONGKHLA LAND OFFICE THEPHA BRANCH"}},{"type":"Feature","geometry":{"type":"Point","coordinates":[100.6676909,6.744047091]},"properties":{"name":"สำนักงานที่ดินจังหวัดสง","Long":"100.667691","Lat":"6.744047","NameT":"สำนักงานที่ดินจังหวัดสง","NameE":"SONGKHLA LAND OFFICE NA THAWI BRANCH"}},{"type":"Feature","geometry":{"type":"Point","coordinates":[100.7426179,6.91268297]},"properties":{"name":"สำนักงานที่ดินจังหวัดสง","Long":"100.742618","Lat":"6.912683","NameT":"สำนักงานที่ดินจังหวัดสง","NameE":"SONGKHLA LAND OFFICE CHANA BRANCH"}},{"type":"Feature","geometry":{"type":"Point","coordinates":[100.361481,7.184478078]},"properties":{"name":"สำนักงานที่ดินจังหวัดสง","Long":"100.361481","Lat":"7.184478","NameT":"สำนักงานที่ดินจังหวัดสง","NameE":"SONGKHLA LAND OFFICE KHUAN NIANG BRANCH"}},{"type":"Feature","geometry":{"type":"Point","coordinates":[100.4645724,7.035923868]},"properties":{"name":"สำนักงานที่ดินจังหวัดสง","Long":"100.464572","Lat":"7.035924","NameT":"สำนักงานที่ดินจังหวัดสง","NameE":"SONGKHLA LAND OFFICE HAT YAI BRANCH"}},{"type":"Feature","geometry":{"type":"Point","coordinates":[100.3273889,7.765927686]},"properties":{"name":"สำนักงานที่ดินจังหวัดสง","Long":"100.327389","Lat":"7.765928","NameT":"สำนักงานที่ดินจังหวัดสง","NameE":"SONGKHLA LAND OFFICE RANOT BRANCH"}},{"type":"Feature","geometry":{"type":"Point","coordinates":[99.7558956,7.103707234]},"properties":{"name":"สำนักงานที่ดินจังหวัดสต","Long":"99.755896","Lat":"7.103707","NameT":"สำนักงานที่ดินจังหวัดสต","NameE":"SATUN LAND OFFICE THUNG WA BRANCH"}},{"type":"Feature","geometry":{"type":"Point","coordinates":[100.069253,6.615011017]},"properties":{"name":"สำนักงานที่ดินจังหวัดสต","Long":"100.069253","Lat":"6.615011","NameT":"สำนักงานที่ดินจังหวัดสต","NameE":"SATUN LAND OFFICE"}},{"type":"Feature","geometry":{"type":"Point","coordinates":[100.0740171,6.843872702]},"properties":{"name":"สำนักงานที่ดินจังหวัดสต","Long":"100.074017","Lat":"6.843873","NameT":"สำนักงานที่ดินจังหวัดสต","NameE":"SATUN LAND OFFICE KHUAN KALONG BRANCH"}},{"type":"Feature","geometry":{"type":"Point","coordinates":[100.0813539,6.785932288]},"properties":{"name":"สำนักงานที่ดินจังหวัดสต","Long":"100.081354","Lat":"6.785932","NameT":"สำนักงานที่ดินจังหวัดสต","NameE":"SATUN LAND OFFICE KHUAN DON BRANCH"}},{"type":"Feature","geometry":{"type":"Point","coordinates":[100.3001534,13.62183101]},"properties":{"name":"สำนักงานที่ดินจังหวัดสม","Long":"100.300153","Lat":"13.621831","NameT":"สำนักงานที่ดินจังหวัดสม","NameE":"SAMUT SAKHON LAND OFFICE KRATHUM BAEN BRANCH"}},{"type":"Feature","geometry":{"type":"Point","coordinates":[100.2763104,13.54672283]},"properties":{"name":"สำนักงานที่ดินจังหวัดสม","Long":"100.27631","Lat":"13.546723","NameT":"สำนักงานที่ดินจังหวัดสม","NameE":"SAMUT SAKHON LAND OFFICE"}},{"type":"Feature","geometry":{"type":"Point","coordinates":[100.0041123,13.41073579]},"properties":{"name":"สำนักงานที่ดินจังหวัดสม","Long":"100.004112","Lat":"13.410736","NameT":"สำนักงานที่ดินจังหวัดสม","NameE":"SAMUT SONGKHRAM LAND OFFICE"}},{"type":"Feature","geometry":{"type":"Point","coordinates":[100.8353296,13.59040583]},"properties":{"name":"สำนักงานที่ดินจังหวัดสม","Long":"100.83533","Lat":"13.590406","NameT":"สำนักงานที่ดินจังหวัดสม","NameE":"SAMUT PRAKAN LAND OFFICE BANG PHLI BRANCH"}},{"type":"Feature","geometry":{"type":"Point","coordinates":[100.6010278,13.59666508]},"properties":{"name":"สำนักงานที่ดินจังหวัดสม","Long":"100.601028","Lat":"13.596665","NameT":"สำนักงานที่ดินจังหวัดสม","NameE":"SAMUT PRAKAN LAND OFFICE"}},{"type":"Feature","geometry":{"type":"Point","coordinates":[100.5549314,13.66555176]},"properties":{"name":"สำนักงานที่ดินจังหวัดสม","Long":"100.554931","Lat":"13.665552","NameT":"สำนักงานที่ดินจังหวัดสม","NameE":"SAMUT PRAKAN LAND OFFICE PHRA PRADAENG BRANCH"}},{"type":"Feature","geometry":{"type":"Point","coordinates":[100.1095479,13.58626429]},"properties":{"name":"สำนักงานที่ดินจังหวัดสม","Long":"100.109548","Lat":"13.586264","NameT":"สำนักงานที่ดินจังหวัดสม","NameE":"SAMUT SAKHON LAND OFFICE BAN PHAEO BRANCH"}},{"type":"Feature","geometry":{"type":"Point","coordinates":[101.2023916,14.65434868]},"properties":{"name":"สำนักงานที่ดินจังหวัดสร","Long":"101.202392","Lat":"14.654349","NameT":"สำนักงานที่ดินจังหวัดสร","NameE":"SARABURI LAND OFFICE MUAK LEK BRANCH"}},{"type":"Feature","geometry":{"type":"Point","coordinates":[100.9124315,14.52664491]},"properties":{"name":"สำนักงานที่ดินจังหวัดสร","Long":"100.912432","Lat":"14.526645","NameT":"สำนักงานที่ดินจังหวัดสร","NameE":"SARABURI LAND OFFICE"}},{"type":"Feature","geometry":{"type":"Point","coordinates":[102.3201267,13.73712092]},"properties":{"name":"สำนักงานที่ดินจังหวัดสร","Long":"102.320127","Lat":"13.737121","NameT":"สำนักงานที่ดินจังหวัดสร","NameE":"SA KAEO LAND OFFICE WATTHANA NAKHON BRANCH"}},{"type":"Feature","geometry":{"type":"Point","coordinates":[100.7915143,14.72695746]},"properties":{"name":"สำนักงานที่ดินจังหวัดสร","Long":"100.791514","Lat":"14.726957","NameT":"สำนักงานที่ดินจังหวัดสร","NameE":"SARABURI LAND OFFICE PHRAPHUTTHABAT BRANCH"}},{"type":"Feature","geometry":{"type":"Point","coordinates":[100.8983937,14.40748021]},"properties":{"name":"สำนักงานที่ดินจังหวัดสร","Long":"100.898394","Lat":"14.40748","NameT":"สำนักงานที่ดินจังหวัดสร","NameE":"SARABURI LAND OFFICE NONG KHAE BRANCH"}},